愛知:
  あま市:
    上萱津上野87:
      latlng: 35.19212836,136.83943455
      name:
      - 上萱津コミュニティ防災センター
    下萱津山伏8:
      latlng: 35.18160768,136.83941235
      name:
      - 下萱津コミュニティ防災センター
    中萱津法慶寺24番地:
      latlng: 35.18849562,136.84353973
      name:
      - コミュニティプラザ萱津
    中萱津西ノ川40:
      latlng: 35.18830103,136.83080200
      name:
      - あま市立甚目寺南小学校
    二ツ寺三本松46:
      latlng: ''
      name:
      - あま市立正則小学校
    伊福宮東3番地1:
      latlng: ''
      name:
      - 七宝総合体育館
    伊福河原28:
      latlng: ''
      name:
      - あま市立伊福小学校(体育館)
    坂牧阿原25:
      latlng: 35.18295738,136.83021592
      name:
      - 坂牧コミュニティ防災センター
    安松小新田2337:
      latlng: ''
      name:
      - 七宝公民館
    川部山王4:
      latlng: ''
      name:
      - あま市立七宝中学校(体育館)
    新居屋三反通11:
      latlng: 35.19808837,136.81508403
      name:
      - あま市立甚目寺西小学校
    新居屋東高田58:
      latlng: 35.19777180,136.81158150
      name:
      - あま市新居屋憩の家 甚目寺西児童館
    新居屋江上田14番地28:
      latlng: 35.19239204,136.80905935
      name:
      - 新居屋防災センター
    木折寺田1番地3:
      latlng: 35.19101698,136.79669665
      name:
      - あま市立美和東小学校
    木田丁子ノ口1:
      latlng: 35.19791581,136.78813073
      name:
      - あま市立美和中学校
    木田丁子ノ口6番地1:
      latlng: 35.19797133,136.78698083
      name:
      - 美和情報ふれあいセンター
    木田五反田124番地1:
      latlng: 35.19042512,136.78778090
      name:
      - あま市美和児童館
    木田小島55:
      latlng: ''
      name:
      - あま市立美和小学校
    木田戌亥18番地1:
      latlng: 35.20050146,136.78381439
      name:
      - 美和公民館
    本郷八尻6:
      latlng: 35.18944528,136.82854665
      name:
      - 甚目寺南中学校
    本郷柿ノ木92:
      latlng: 35.18604579,136.82836330
      name:
      - あま市本郷憩の家 甚目寺南児童館
    桂弥勒27:
      latlng: ''
      name:
      - 七宝グランド
    桂弥勒28:
      latlng: ''
      name:
      - あま市七宝保健センター
      - あま市七宝総合福祉センター
    桂角田1777:
      latlng: ''
      name:
      - あま市立七宝小学校(体育館)
    森二丁目6番地2:
      latlng: 35.20954256,136.81363698
      name:
      - あま市森憩の家 甚目寺北児童館
    甚目寺二伴田65:
      latlng: 35.20005185,136.82222244
      name:
      - 甚目寺公民館
    甚目寺二伴田76:
      latlng: 35.19907145,136.82159191
      name:
      - あま市立甚目寺中学校
    甚目寺寺西40:
      latlng: 35.19539427,136.82157515
      name:
      - あま市立甚目寺小学校
    甚目寺東大門8:
      latlng: 35.19348070,136.82340828
      name:
      - 甚目寺会館
    甚目寺須原20:
      latlng: 35.18883144,136.81871688
      name:
      - 甚目寺南防災センター
    秋竹中道358:
      latlng: ''
      name:
      - あま市立秋竹小学校(体育館)
    篠田九神田27:
      latlng: ''
      name:
      - 篠田防災コミュニティセンター
    篠田五ッ藤1番地:
      latlng: 35.18265692,136.79408869
      name:
      - 愛知県立美和高等学校
    篠田十王堂59:
      latlng: 35.18694205,136.78160383
      name:
      - あま市立篠田小学校
    花正中之割2:
      latlng: 35.20138748,136.78426155
      name:
      - あま市美和保健センター
    花正地先1番地1:
      latlng: 35.20408714,136.78447538
      name:
      - 美和文化会館
    西今宿六反割60番地1:
      latlng: 35.20269594,136.82450559
      name:
      - あま市立甚目寺東小学校
    西今宿平割二25:
      latlng: 35.20300734,136.83430727
      name:
      - あま市甚目寺老人福祉センター
    西今宿平割二32番地:
      latlng: 35.20362947,136.83372122
      name:
      - あま市人権ふれあいセンター
    西今宿阿弥陀寺56番地:
      latlng: 35.20375136,136.82449448
      name:
      - 愛知県立五条高等学校
    西今宿馬洗46:
      latlng: 35.20031582,136.82682752
      name:
      - あま市甚目寺総合福祉会館
    西今宿馬洗56:
      latlng: 35.19888828,136.82740521
      name:
      - 甚目寺総合体育館
    遠島十三割2000番地:
      latlng: ''
      name:
      - 七宝焼アートヴィレッジ
    遠島十坪117:
      latlng: ''
      name:
      - 七宝北中学校(体育館)
    遠島大切戸1296:
      latlng: ''
      name:
      - あま市立宝小学校(体育館)
    鷹居5丁目2:
      latlng: ''
      name:
      - 七宝鷹居グランド
  みよし市:
    三好丘7丁目1:
      latlng: 35.12035467,137.11242422
      name:
      - 三好丘小学校
    三好丘二丁目14-10:
      latlng: 35.12670690,137.11749860
      name:
      - 三好丘中学校
    三好丘桜1丁目1-1:
      latlng: 35.11283025,137.10780825
      name:
      - 北中学校
    三好丘緑1丁目1-1:
      latlng: 35.11099186,137.11663254
      name:
      - 緑丘小学校
    三好町半野木1-27:
      latlng: 35.08181891,137.06321023
      name:
      - 三吉小学校
    三好町大慈山1-1:
      latlng: 35.08186367,137.08048099
      name:
      - サンアート
    三好町天王51-75:
      latlng: 35.09016556,137.08558577
      name:
      - 天王小学校
    三好町宮ノ越31:
      latlng: 35.08593811,137.07348957
      name:
      - 中部小学校
    三好町宮ノ越42:
      latlng: 35.08647412,137.07116195
      name:
      - 三好中学校
    三好町東山110番地1:
      latlng: ''
      name:
      - 愛知県立三好高等学校
    三好町池の原1:
      latlng: 35.09264308,137.08807160
      name:
      - 総合体育館
    打越町三百目3:
      latlng: 35.07666442,137.08939445
      name:
      - 南中学校
    打越町山ノ神1番地2:
      latlng: 35.08307216,137.10239322
      name:
      - 愛知県立三好養護学校
    明知町上細口27:
      latlng: 35.07048742,137.08893352
      name:
      - 南部小学校
    福谷町坂上12:
      latlng: 35.10968584,137.09622036
      name:
      - 北部小学校
    黒笹町丸根1241-5:
      latlng: 35.13016051,137.09654085
      name:
      - 黒笹小学校
  一宮市:
    あずら1丁目12-1:
      latlng: ''
      name:
      - 吾鬘公園
    あずら2丁目23-1:
      latlng: ''
      name:
      - 駒寄公園
    あずら3丁目8-1:
      latlng: ''
      name:
      - 縁葉公園
    せんい1丁目6-1:
      latlng: ''
      name:
      - むつみ公園
    せんい2丁目7-1:
      latlng: ''
      name:
      - さかえ公園
    せんい2丁目8-1:
      latlng: ''
      name:
      - 中央公園
    せんい3丁目5-1:
      latlng: ''
      name:
      - みどり公園
    せんい3丁目8-1:
      latlng: ''
      name:
      - せんい緑地
    三ツ井1丁目4-1:
      latlng: ''
      name:
      - 鬼ケ島公園
    三ツ井2丁目15-5:
      latlng: ''
      name:
      - 三ツ井緑地
    三ツ井2丁目8-7:
      latlng: 35.27844909,136.83322240
      name:
      - 休郷公園
    三ツ井3丁目9-1:
      latlng: ''
      name:
      - 平山公園
    三ツ井4丁目7-1:
      latlng: ''
      name:
      - 六所公園
    三ツ井5-22-1:
      latlng: 35.27618282,136.83969435
      name:
      - 丹陽小学校
    三ツ井5丁目20-1:
      latlng: ''
      name:
      - 天神公園
    三ツ井6丁目6-1:
      latlng: ''
      name:
      - 三ツ井公園
    三ツ井8丁目14-2:
      latlng: ''
      name:
      - 稲荷山公園
    三条字宮西50:
      latlng: 35.30018095,136.75377636
      name:
      - 尾西第一中学校
    三条字苅16:
      latlng: 35.30634382,136.75996173
      name:
      - 三条小学校
    三条字賀11-1:
      latlng: 35.30918782,136.75988947
      name:
      - 尾西公園
    三条字郷内西42-1:
      latlng: ''
      name:
      - 三条緑地
    上祖父江字小稲葉18番地:
      latlng: 35.27300385,136.71774868
      name:
      - 愛知県立尾西高等学校
    上祖父江字高須賀18:
      latlng: 35.28000566,136.71974534
      name:
      - 朝日西小学校
    中町1丁目1-4外:
      latlng: ''
      name:
      - 梅ケ枝公園
    中町2丁目11-1:
      latlng: ''
      name:
      - 仲畑公園
    丹羽字中山1151番地1:
      latlng: 35.32492138,136.82268260
      name:
      - 愛知県立一宮東養護学校
    丹陽町三ツ井字鬼ケ島6:
      latlng: 35.28311526,136.83522162
      name:
      - 丹陽中学校
    丹陽町九日市場2666:
      latlng: 35.26392841,136.83714033
      name:
      - 丹陽南小学校
    丹陽町九日市場字宮浦1299:
      latlng: ''
      name:
      - 九日市場公園
    丹陽町伝法寺字上東畑地内:
      latlng: ''
      name:
      - 東畑公園
    丹陽町伝法寺字北元屋敷地内:
      latlng: ''
      name:
      - 大塚史跡公園
    丹陽町伝法寺字大塚地内:
      latlng: ''
      name:
      - 伝法寺中央公園
    丹陽町伝法寺字寺跡地内:
      latlng: ''
      name:
      - 寺跡公園
    丹陽町伝法寺字念仏地内:
      latlng: ''
      name:
      - 念佛公園
    丹陽町伝法寺字西大門地内:
      latlng: ''
      name:
      - 西大門公園
    丹陽町伝法時字新田地内:
      latlng: ''
      name:
      - 新田公園
    今伊勢町宮後字郷中茶原52:
      latlng: 35.31955987,136.78696708
      name:
      - 今伊勢中学校
    今伊勢町新神戸字乾26:
      latlng: 35.32204320,136.79329135
      name:
      - 今伊勢小学校
    今伊勢町馬寄字西平4-1:
      latlng: 35.32358998,136.78278139
      name:
      - 今伊勢西小学校
    住吉1丁目2-1:
      latlng: ''
      name:
      - 南木公園
    光明寺外:
      latlng: ''
      name:
      - 光明寺公園
    光明寺字畳手55:
      latlng: 35.35152994,136.80199301
      name:
      - 葉栗北小学校
    光明寺字白山前20:
      latlng: 35.35786268,136.79944602
      name:
      - 総合体育館
    八幡1丁目10-1及び11-1:
      latlng: ''
      name:
      - 稲荷公園
    八幡4-1-111:
      latlng: 35.30630563,136.78876422
      name:
      - 中部中学校
    冨田字砂原2118:
      latlng: ''
      name:
      - 冨田山公園
    北園通6丁目9番:
      latlng: 35.29582963,136.80883156
      name:
      - 愛知県立一宮高等学校
    北方町北方字宮浦42:
      latlng: 35.36088926,136.78090622
      name:
      - 北方中学校
    北方町北方字宮浦43:
      latlng: 35.36147812,136.78172001
      name:
      - 北方小学校
    北神明町3丁目29-1:
      latlng: ''
      name:
      - 北神明公園
    千秋町佐野字北浦136:
      latlng: 35.30396882,136.85564647
      name:
      - 千秋小学校
    千秋町佐野字向農756:
      latlng: 35.30045237,136.84703305
      name:
      - 愛知県一宮総合運動場
    千秋町佐野字辻田2112:
      latlng: 35.30020253,136.85284118
      name:
      - 愛知県立一宮工業高等学校
    千秋町佐野字高須2982:
      latlng: 35.30138034,136.86218243
      name:
      - 千秋中学校
    千秋町加納馬場字松下54:
      latlng: 35.30468003,136.87031248
      name:
      - 千秋東小学校
    千秋町小山1329:
      latlng: ''
      name:
      - 千秋南小学校
    千秋町町屋字平松6番1:
      latlng: 35.29314515,136.85694973
      name:
      - 愛知県立一宮南高等学校
    南印田町:
      latlng: ''
      name:
      - 南印田公園
    古金町1-12-1:
      latlng: 35.29959868,136.81003962
      name:
      - 向山公民館
    古金町1丁目23外:
      latlng: ''
      name:
      - 古金公園
    向山町3-1:
      latlng: 35.29604068,136.80774834
      name:
      - 向山小学校
    多加木1-17-1:
      latlng: 35.28410616,136.81376784
      name:
      - 丹陽西小学校
    多加木1丁目8-1:
      latlng: ''
      name:
      - 江畔公園
    多加木2丁目17-8:
      latlng: ''
      name:
      - 油田公園
    多加木2丁目5-1:
      latlng: 35.28286454,136.81027937
      name:
      - 河戸公園
    多加木3丁目5-2・多加木4丁目5-2:
      latlng: ''
      name:
      - 中道公園
    多加木4丁目21-1:
      latlng: ''
      name:
      - 秋葉公園
    多加木5丁目5-2:
      latlng: ''
      name:
      - 多加木公園
    大和町南高井字蓮原2-1:
      latlng: 35.27299818,136.78313233
      name:
      - 大和南中学校
    大和町戸塚字宮崎東19-38外:
      latlng: ''
      name:
      - 寺田公園
    大和町戸塚字宮崎西32-13外:
      latlng: ''
      name:
      - 宮崎公園
    大和町戸塚字薬師浦320:
      latlng: 35.28382777,136.79292264
      name:
      - 大和東小学校
    大和町戸塚字連田1-2:
      latlng: 35.27462324,136.79050385
      name:
      - 大和南小学校
    大和町戸塚字連田1-39外:
      latlng: ''
      name:
      - 連田公園
    大和町戸塚字連田58-20外:
      latlng: ''
      name:
      - 戸塚緑地
    大和町於保字十二1番1:
      latlng: 35.26949622,136.79330113
      name:
      - 愛知県立一宮興道高等学校
    大和町苅安賀字上東出80:
      latlng: 35.28826868,136.78565099
      name:
      - 大和中学校
    大和町苅安賀字上西之杁30番地:
      latlng: 35.28867957,136.77628807
      name:
      - 愛知県立一宮聾学校
    大和町苅安賀字東北出3248:
      latlng: 35.29187646,136.77861555
      name:
      - 大和西小学校
    大宮4-5-33:
      latlng: 35.31252485,136.80163765
      name:
      - 宮西小学校
    大志2-7-6:
      latlng: 35.30005405,136.80535405
      name:
      - 大志小学校
    大毛字南出30:
      latlng: 35.34140313,136.80775633
      name:
      - 葉栗小学校
    大毛字神明廻41:
      latlng: ''
      name:
      - 大毛公園
    大江1丁目11-1:
      latlng: ''
      name:
      - 常念公園
    大江3-9-14:
      latlng: 35.30195938,136.80476796
      name:
      - 大志公民館
    大赤見字清水2467:
      latlng: 35.30880087,136.82907027
      name:
      - 赤見小学校
    天王2丁目11-1:
      latlng: ''
      name:
      - 伏木公園
    奥町字上平池55:
      latlng: 35.32560061,136.76422488
      name:
      - 奥中学校
    奥町字下口西1外:
      latlng: ''
      name:
      - 若宮公園
    奥町字堤下一・北方町北方字宝江新田外:
      latlng: 35.32971718,136.75149830
      name:
      - 木曽川緑地
    奥町字宮郭外:
      latlng: ''
      name:
      - 奥町公園
    奥町字貴船前24:
      latlng: 35.32612557,136.75836430
      name:
      - 奥小学校
    妙興寺2丁目5-3:
      latlng: ''
      name:
      - 北三味公園
    定水寺字五反田10:
      latlng: 35.31165903,136.83632525
      name:
      - 西成東部中学校
    宮地1丁目9-1:
      latlng: ''
      name:
      - 南大門公園
    宮地2丁目6-1:
      latlng: ''
      name:
      - 王塚公園
    富士1丁目13-6:
      latlng: 35.30489822,136.81517211
      name:
      - 富士公園
    富士2-5-14:
      latlng: 35.30446219,136.81671357
      name:
      - 富士小学校
    富士4丁目5-1:
      latlng: ''
      name:
      - 柿ノ木公園
    小信中島字南平口59:
      latlng: 35.31573746,136.74754315
      name:
      - 小信中島小学校
    小信中島字新田前67:
      latlng: ''
      name:
      - 小信児童公園
    小信中島字郷南2番地:
      latlng: 35.30640521,136.74522156
      name:
      - 愛知県立起工業高等学校
    島崎1丁目9-1:
      latlng: ''
      name:
      - 平島西公園
    平和1-11-30:
      latlng: 35.30102576,136.79232777
      name:
      - 神山公民館
    平和2-12-7:
      latlng: 35.30194774,136.78797825
      name:
      - 神山小学校
    平島1丁目20-1:
      latlng: ''
      name:
      - 元宮公園
    平島2丁目11-1:
      latlng: ''
      name:
      - 天王前公園
    文京1-3-1:
      latlng: 35.31152775,136.80286251
      name:
      - 宮西公民館
    文京1丁目3-1:
      latlng: 35.31152775,136.80286251
      name:
      - 九品地公園
    文京2丁目1番7号:
      latlng: 35.31384146,136.80400125
      name:
      - 愛知県立一宮商業高等学校
    新生2丁目10-1:
      latlng: ''
      name:
      - 久古見公園
    新生4丁目10-1:
      latlng: ''
      name:
      - 南山公園
    明地字寺浦37-1:
      latlng: ''
      name:
      - 明地東公園
    明地字江端8:
      latlng: 35.27939470,136.73790702
      name:
      - 朝日東小学校
    明地字油屋前30:
      latlng: 35.27852534,136.74257313
      name:
      - 尾西第二中学校
    明地字鞆:
      latlng: 35.27607009,136.74127624
      name:
      - 鞆江緑地公園
    春明字中切1:
      latlng: 35.31732815,136.84424439
      name:
      - 西成東小学校
    昭和2丁目8-1:
      latlng: ''
      name:
      - 柳下公園
    昭和3丁目9-1:
      latlng: ''
      name:
      - 西浅間公園
    朝日2丁目6:
      latlng: 35.30775352,136.81752736
      name:
      - 大平島公園
    木曽川町玉ノ井字道路寺7-3:
      latlng: 35.34022466,136.76434702
      name:
      - 木曽川西小学校
    木曽川町里小牧字北青木25:
      latlng: 35.34407428,136.76816607
      name:
      - 木曽川中学校
    木曽川町門間字沼間35:
      latlng: 35.33675583,136.79051657
      name:
      - 木曽川体育館
    木曽川町黒田八ノ通り141-1:
      latlng: 35.34144988,136.78991384
      name:
      - 木曽川東小学校
    木曽川町黒田字三反物2-7:
      latlng: ''
      name:
      - 黒田公園
    木曽川町黒田字北宿三の切1-1:
      latlng: 35.34768776,136.77350161
      name:
      - 木曽川運動場
    木曽川町黒田字古城26-2:
      latlng: 35.34514374,136.78002319
      name:
      - 黒田小学校
    末広1丁目9-1:
      latlng: ''
      name:
      - 低見公園
    末広2-20-1:
      latlng: 35.29577902,136.78863939
      name:
      - 末広小学校
    末広3丁目10-1:
      latlng: ''
      name:
      - 堀田公園
    本町2丁目7-1:
      latlng: ''
      name:
      - 新柳公園
    杉山字氏神廻1番地:
      latlng: 35.34817761,136.80944218
      name:
      - 愛知県立一宮養護学校
    東長専町:
      latlng: ''
      name:
      - ひまわり公園
    柳戸町2丁目2外・公園通6丁目23-2外:
      latlng: ''
      name:
      - 真清公園
    桜3丁目14-1:
      latlng: ''
      name:
      - 大乗公園
    森本1丁目16-1外:
      latlng: ''
      name:
      - 第一分区園
    森本1丁目8-1:
      latlng: ''
      name:
      - 岩船公園
    森本2丁目16-1:
      latlng: ''
      name:
      - 海道田公園
    森本3丁目21-1:
      latlng: ''
      name:
      - 森本中央公園
    森本4丁目5-1:
      latlng: ''
      name:
      - ひばり島公園
    森本5丁目29-1:
      latlng: ''
      name:
      - 薬師公園
    浅井町前野字郷西145:
      latlng: 35.34371437,136.82437951
      name:
      - 浅井中学校
    浅井町大日比野字東若栗61:
      latlng: 35.34401153,136.82222973
      name:
      - 浅井中小学校
    浅井町大野字南土山75:
      latlng: ''
      name:
      - 浅井北小学校
    浅井町小日比野字大萩952番32外:
      latlng: ''
      name:
      - 宝生公園
    浅井町東浅井字下之瀬外:
      latlng: ''
      name:
      - 浅井山公園
    浅井町東浅井字地蔵386:
      latlng: 35.33451512,136.82572396
      name:
      - 浅井南小学校
    浅井町河田外:
      latlng: ''
      name:
      - 大野極楽寺公園
    浅井町西浅井字北山762-1:
      latlng: 35.32867661,136.82213546
      name:
      - 愛知県立一宮高等技術専門校
    浅野字八劒67-1外:
      latlng: ''
      name:
      - 浅野公園
    浅野字土井ノ内1-1:
      latlng: ''
      name:
      - 南部中学校
    浅野字野口95:
      latlng: 35.29699675,136.83020095
      name:
      - 浅野小学校
    瀬部字川原55:
      latlng: 35.32919348,136.83552034
      name:
      - 瀬部小学校
    猿海道1丁目-16:
      latlng: 35.28458397,136.81699248
      name:
      - 猿海道公園
    猿海道2丁目15:
      latlng: 35.28407857,136.82018667
      name:
      - 東公園
    猿海道2丁目18-1:
      latlng: ''
      name:
      - 猿海道調整池緑地
    猿海道3丁目7:
      latlng: 35.28280642,136.81768147
      name:
      - 前西公園
    真清田1丁目2-7:
      latlng: ''
      name:
      - 大宮公園
    神山1丁目7-1:
      latlng: ''
      name:
      - 橋呑公園
    神山2丁目7-1:
      latlng: ''
      name:
      - 富古場公園
    神山3丁目4-1:
      latlng: ''
      name:
      - 弁天公園
    神戸町7外:
      latlng: ''
      name:
      - 一色公園
    笹野字氏神東1番地:
      latlng: 35.34974140,136.81178356
      name:
      - 愛知県立一宮北高等学校
    篭屋2-6-1:
      latlng: ''
      name:
      - 篭屋公園
    緑2丁目9-1:
      latlng: ''
      name:
      - 常光公園
    緑4丁目4-1:
      latlng: ''
      name:
      - 四反田公園
    羽衣1丁目7-1:
      latlng: ''
      name:
      - 天道公園
    羽衣2-5-74:
      latlng: 35.30455932,136.81322793
      name:
      - 富士公民館
    羽衣2丁目5-3:
      latlng: ''
      name:
      - 平島公園
    花池1丁目6-1:
      latlng: ''
      name:
      - 幟立公園
    花池2丁目9-1:
      latlng: ''
      name:
      - 古宮公園
    花池3丁目6-1:
      latlng: ''
      name:
      - 鎌田公園
    花池4丁目25:
      latlng: 35.28843309,136.80280756
      name:
      - 彦田公園
    若竹1丁目13外:
      latlng: ''
      name:
      - 丹西緑地
    若竹2丁目6-1:
      latlng: ''
      name:
      - 若竹公園
    萩原町串作字河室浦1:
      latlng: 35.27760018,136.76747544
      name:
      - 萩原中学校
    萩原町串作字河田1番地:
      latlng: 35.28006381,136.76690044
      name:
      - 愛知県立一宮西高等学校
    萩原町戸苅外:
      latlng: ''
      name:
      - 萬葉公園
    萩原町朝宮字嫁振22:
      latlng: ''
      name:
      - 朝宮公園
    萩原町萩原字南友重1576-4外:
      latlng: ''
      name:
      - 萩原緑地
    萩原町萩原字河原崎1544:
      latlng: 35.28051942,136.75660729
      name:
      - 萩原小学校
    萩原町萩原字西出210-1外:
      latlng: ''
      name:
      - 萩原西出公園
    萩原町西宮重字中光堂850:
      latlng: 35.27272289,136.77353871
      name:
      - 中島小学校
    萩原町高木字三ツ屋29-1外:
      latlng: ''
      name:
      - 萩原南緑地
    西中野字沼境351番地:
      latlng: 35.27482570,136.70933282
      name:
      - 西中野排水機場緑地
    西五城字中川田36:
      latlng: 35.30255015,136.74320251
      name:
      - 尾西スポーツセンター
    西五城字中川田50:
      latlng: ''
      name:
      - 五城公園
    西五城字荒子中切26-1:
      latlng: ''
      name:
      - 大徳小学校
    西大海道字北裏1-1外:
      latlng: ''
      name:
      - 西大海道公園
    西大海道字柏木15:
      latlng: 35.32009129,136.83178191
      name:
      - 西成中学校
    西大海道字障子目30:
      latlng: 35.31897475,136.83299008
      name:
      - 西成小学校
    観音寺1丁目12-1:
      latlng: ''
      name:
      - 浅間公園
    貴船1-1-19:
      latlng: 35.31058354,136.80756473
      name:
      - 貴船公民館
    貴船1-6-10:
      latlng: 35.31220838,136.80783413
      name:
      - 北部中学校
    貴船1-8-46:
      latlng: 35.31156127,136.80962558
      name:
      - 貴船小学校
    赤見2丁目6-1:
      latlng: ''
      name:
      - 大赤見公園
    赤見4丁目7-3:
      latlng: ''
      name:
      - 花ノ木公園
    起字与三ヶ巻46-1:
      latlng: ''
      name:
      - 起児童公園
    起字西生出35:
      latlng: 35.30617474,136.73972787
      name:
      - 起小学校
    野口1-6-22:
      latlng: 35.30017857,136.79017525
      name:
      - 産業体育館
    開明字城堀20:
      latlng: 35.32135927,136.77225755
      name:
      - 開明小学校
    開明字村上54:
      latlng: 35.31722603,136.75835886
      name:
      - 尾西第三中学校
    開明字柳苗1-1:
      latlng: ''
      name:
      - 尾西運動場
    開明字樋西11番1:
      latlng: 35.32037586,136.75625062
      name:
      - 愛知県立木曽川高等学校
    音羽1丁目4-1:
      latlng: ''
      name:
      - 上本町公園
    音羽3丁目12-1:
      latlng: ''
      name:
      - 野黒公園
    音羽3丁目13-1:
      latlng: ''
      name:
      - 音羽公園
    高田字清水100:
      latlng: 35.33996709,136.80581211
      name:
      - 葉栗中学校
  刈谷市:
    一ツ木町2丁目11番地:
      latlng: 35.00669505,137.02914618
      name:
      - 狩野公園
    一ツ木町3丁目18番地1:
      latlng: 35.00843377,137.02884623
      name:
      - 刈谷市立平成小学校
    井ヶ谷町洲原4番地1:
      latlng: ''
      name:
      - 洲原公園
    今川町2丁目152番地:
      latlng: 35.03064291,137.01878881
      name:
      - 富士松市民センター
    今川町山脇1番地:
      latlng: 35.02630400,137.01282534
      name:
      - 刈谷市立富士松南小学校
    今川町花岡114番地:
      latlng: 35.03121267,137.02839882
      name:
      - 刈谷市立富士松中学校
    住吉町2丁目1番地:
      latlng: 34.98593588,137.01018941
      name:
      - 刈谷市立刈谷南中学校
    住吉町3丁目70番地:
      latlng: 34.98514148,137.00723409
      name:
      - 刈谷市立住吉小学校
    半城土中町1丁目16番地:
      latlng: ''
      name:
      - 山崎公園
    半城土中町3丁目12番地2:
      latlng: 34.97585115,137.01993304
      name:
      - 刈谷市立双葉小学校
    半城土町三ツ又20番地:
      latlng: 34.98415011,137.01873313
      name:
      - 愛知県立刈谷東高等学校
    半城土町掛貝25番地:
      latlng: ''
      name:
      - 猿渡公園
    原崎町1丁目101番地:
      latlng: 35.00030887,137.00371765
      name:
      - 刈谷市立小高原小学校
    原崎町2丁目600番地:
      latlng: ''
      name:
      - 原崎公園
    城町1丁目1番地1:
      latlng: ''
      name:
      - 亀城公園
    城町1丁目25番地1:
      latlng: 34.98783207,136.98637726
      name:
      - 刈谷市立亀城小学校
    大手町1丁目51番地:
      latlng: 34.98769660,137.00369823
      name:
      - 社会教育センター
    天王町3丁目27番地:
      latlng: 34.97753096,136.98926057
      name:
      - 刈谷市立衣浦小学校
    寺横町1丁目67番地:
      latlng: 34.99042650,136.99429889
      name:
      - 愛知県立刈谷北高等学校
    寿町5丁目101番地:
      latlng: 34.98391368,136.99838478
      name:
      - 愛知県立刈谷高等学校
    小垣江町上沢渡5番地1:
      latlng: 34.96132534,137.01457545
      name:
      - 刈谷市立依佐美中学校
    小垣江町小道45番地1:
      latlng: 34.96433069,136.99850464
      name:
      - 小垣江市民センター
    小垣江町白沢36番地:
      latlng: 34.95803987,137.00822622
      name:
      - 刈谷市立小垣江東小学校
    小垣江町蚰ヶ坪33番地:
      latlng: ''
      name:
      - 小垣江公園
    小垣江町西王地1番地1:
      latlng: 34.96354472,136.99784638
      name:
      - 刈谷市立小垣江小学校
    山池町1丁目201番地:
      latlng: 34.99837544,136.99460991
      name:
      - 刈谷市立刈谷東中学校
    恩田町一丁目157番地1:
      latlng: 35.00847795,137.02098326
      name:
      - 愛知県産業技術研究所
      - 愛知県技術開発交流センター
    日高町1丁目201番地:
      latlng: 35.00436914,136.99485150
      name:
      - 刈谷市立日高小学校
    日高町5丁目100番地:
      latlng: ''
      name:
      - 日高公園
    東刈谷町2丁目14番地:
      latlng: 34.97902041,137.03832012
      name:
      - 野田公園
    東刈谷町3丁目8番地:
      latlng: 34.97365995,137.03812574
      name:
      - 刈谷市立東刈谷小学校
    東境町住吉78番地2:
      latlng: 35.03815684,137.03957205
      name:
      - 北部市民センター
    東境町吉野55番地:
      latlng: 35.04108445,137.04825960
      name:
      - 岩ケ池公園
    東境町堀池71番地:
      latlng: 35.03336271,137.03590606
      name:
      - 刈谷市立富士松東小学校
    東境町焼田10番地5:
      latlng: 35.04610615,137.04092190
      name:
      - 刈谷市立富士松北小学校
    松栄町2丁目16番地1:
      latlng: 34.97783436,137.03258459
      name:
      - 東刈谷市民センター
    矢場町2丁目210番地:
      latlng: 34.99715074,136.99804580
      name:
      - 愛知県立刈谷工業高等学校
    神田町1丁目39番地3:
      latlng: 34.98813564,137.01296696
      name:
      - 中央児童館
    築地町2丁目15番地1:
      latlng: 35.01378015,137.01810846
      name:
      - 刈谷市立かりがね小学校
    築地町3丁目9番地1:
      latlng: 35.01668252,137.01295596
      name:
      - 刈谷市立雁が音中学校
    築地町5丁目23番地:
      latlng: ''
      name:
      - ついぢ公園
    築地町荒田1番地:
      latlng: 35.01888784,137.01182824
      name:
      - 刈谷市総合運動公園
    衣崎町二丁目20番地:
      latlng: 34.96614103,136.98534734
      name:
      - 境川浄化センター
    野田町西田78番地2:
      latlng: 34.97750656,137.02671850
      name:
      - 南部生涯学習センター
    野田町陣戸池151番地:
      latlng: 34.96998530,137.03174306
      name:
      - 刈谷市立朝日小学校
    野田町陣戸池152番地:
      latlng: 34.96871599,137.02942108
      name:
      - 刈谷市立朝日中学校
    青山町1丁目157番地:
      latlng: ''
      name:
      - 青山公園
  北名古屋市:
    中之郷栗島20番地:
      latlng: 35.24638903,136.84830147
      name:
      - 栗島小学校
    九之坪高田1番地:
      latlng: 35.23494128,136.87533210
      name:
      - 鴨田小学校
    九之坪鴨田1:
      latlng: 35.22903370,136.87849874
      name:
      - 新川東部浄化センター
    二子曙1番地1:
      latlng: 35.23851088,136.89109967
      name:
      - 師勝南小学校
    六ツ師山の前100番地:
      latlng: ''
      name:
      - 師勝東小学校
    弥勒寺西二丁目1番地:
      latlng: 35.25322769,136.86519084
      name:
      - 愛知県立西春高等学校
    徳重中道8番地:
      latlng: 35.25694932,136.86019681
      name:
      - 五条小学校
    沖村井島32番地:
      latlng: 35.23464913,136.85967544
      name:
      - 白木小学校
    熊之庄大畔32番地:
      latlng: 35.26054665,136.88674621
      name:
      - 師勝北小学校
    能田105番地:
      latlng: 35.24752911,136.88713288
      name:
      - 師勝小学校
    西之保八龍8番地:
      latlng: 35.24709506,136.86438283
      name:
      - 西春小学校
    鹿田清水64番地:
      latlng: 35.25315303,136.87530903
      name:
      - 師勝西小学校
  半田市:
    11号地:
      latlng: 34.87949175,136.95124811
      name:
      - 衣浦港半田緑地1-1地区
      - 衣浦港半田緑地1-2地区
      - 衣浦港半田緑地2地区
      - 衣浦港半田緑地3地区
    のぞみが丘1丁目667番地の10:
      latlng: ''
      name:
      - おおぼら公園
    のぞみが丘2丁目82番地:
      latlng: ''
      name:
      - のぞみが丘公園
    のぞみが丘3丁目120番地:
      latlng: ''
      name:
      - にごり池公園
    一ノ草町206番地の1:
      latlng: ''
      name:
      - 長根公園
    上池町2丁目1番地14:
      latlng: ''
      name:
      - 上池北ちびっ子広場
    上池町5丁目43番地の5:
      latlng: 34.92604822,136.94684452
      name:
      - 上池公民館
    中島町11番地の1:
      latlng: 34.88534050,136.93014205
      name:
      - 協和保育園
    中村町2丁目11番地:
      latlng: ''
      name:
      - 中村街園
    乙川八幡町3丁目22番地:
      latlng: 34.90421431,136.94378457
      name:
      - 乙川八幡ちびっ子広場
    乙川北側町1丁目1番地:
      latlng: 34.90997215,136.94559250
      name:
      - 乙川小学校
    乙川太田町1丁目28番地:
      latlng: 34.91247751,136.94768383
      name:
      - 乙川公園
    乙川源内林町1丁目43番地:
      latlng: 34.91209122,136.93913493
      name:
      - 乙川白山公園
    乙川町45番地:
      latlng: ''
      name:
      - 乙川駅前児童遊園
    乙川西ノ宮町3丁目59番地の1:
      latlng: 34.91119689,136.93991541
      name:
      - 乙川公民館
    亀崎月見町3丁目10番地:
      latlng: 34.91959948,136.96540104
      name:
      - 亀崎小学校
    亀崎町10丁目166番地:
      latlng: ''
      name:
      - 三社公園
    亀崎町2丁目92番地:
      latlng: 34.91840528,136.97067005
      name:
      - 亀崎県社児童遊園
    亀崎町5丁目102番地:
      latlng: ''
      name:
      - 亀崎公園
    亀崎町7丁目96番地の1:
      latlng: 34.91473326,136.96299871
      name:
      - 亀崎公民館
    亀崎高根町4丁目15番地の100:
      latlng: ''
      name:
      - 高根ちびっ子広場
    亀崎高根町5丁目40番地:
      latlng: 34.92065199,136.95907937
      name:
      - 亀崎中学校
    住吉町2丁目183番地1:
      latlng: ''
      name:
      - 住吉ちびっ子広場
    住吉町5丁目8番地の1:
      latlng: ''
      name:
      - 住吉東ちびっ子広場
    住吉町8丁目50番地:
      latlng: ''
      name:
      - 住吉南ちびっ子広場
    出口町1丁目30番:
      latlng: 34.90258070,136.92165939
      name:
      - 愛知県立半田高等学校
    出口町1丁目8番1:
      latlng: 34.90356949,136.92047339
      name:
      - 愛知県立ひいらぎ養護学校
    前田町68番地27:
      latlng: ''
      name:
      - 平地児童遊園
    勘内町1番地:
      latlng: 34.90081437,136.93318588
      name:
      - 半田小学校
    北二ツ坂町2丁目9番地:
      latlng: ''
      name:
      - 二ツ坂公園
    南二ツ坂町1丁目10番地:
      latlng: 34.89097580,136.90811625
      name:
      - 任坊山公園
    南二ツ坂町2丁目1番地の1:
      latlng: 34.89232300,136.90961324
      name:
      - 宮池小学校
    南大矢知町4丁目208番地の1:
      latlng: ''
      name:
      - 新池公園
    南末広町27番地:
      latlng: 34.89359265,136.92867813
      name:
      - おおまた公園
    四方木町37番地の1:
      latlng: 34.88401534,136.88843550
      name:
      - 板山小学校
    堀崎町1丁目30番地:
      latlng: 34.89848117,136.93006403
      name:
      - 住吉公民館
    大伝根町1丁目11番地の1:
      latlng: 34.92156528,136.94246749
      name:
      - 横川小学校
    大松町1丁目35番地:
      latlng: 34.90997238,136.95391377
      name:
      - 大松ちびっ子広場
    大池町3丁目1番地:
      latlng: 34.91645494,136.94984176
      name:
      - 乙川中学校
    大高町1丁目37番地:
      latlng: 34.92430394,136.94535034
      name:
      - 上池児童遊園
    宮本町3丁目214番地:
      latlng: 34.88364820,136.91199391
      name:
      - 蓮根公園
    宮本町4丁目106番地の8:
      latlng: 34.88597598,136.91231323
      name:
      - 西成岩公民館
    宮本町4丁目15番地:
      latlng: 34.88748149,136.91178822
      name:
      - 宮本公園
    宮本町5丁目326番地:
      latlng: ''
      name:
      - 坊ヶ峯公園
    岩滑中町5丁目20番地:
      latlng: 34.90827182,136.92207332
      name:
      - 岩滑公民館
    岩滑東町5丁目80番地:
      latlng: 34.90693315,136.92700046
      name:
      - 半田中学校
    岩滑高山町5丁目55番地:
      latlng: 34.90914113,136.91677934
      name:
      - 岩滑小学校
    川崎町四丁目1番地:
      latlng: 34.87301694,136.93954704
      name:
      - 衣浦西部浄化センター
    州の崎町2番地の131:
      latlng: 34.92117999,136.97131432
      name:
      - 州の崎公園
    平井町7丁目43番地:
      latlng: 34.91070185,136.89624248
      name:
      - 修農公民館
    平地町2丁目50番地の1:
      latlng: 34.91669115,136.95401626
      name:
      - 平地公民館
    平地町2丁目51番地:
      latlng: ''
      name:
      - 平地中央公園
    平地町5丁目30番地の2:
      latlng: 34.92069351,136.95411330
      name:
      - 高根保育園
    成岩本町2丁目1番地:
      latlng: 34.88513481,136.92639522
      name:
      - 成岩小学校
    成岩本町4丁目45番地:
      latlng: ''
      name:
      - 成岩公園
    成岩本町4丁目5番地:
      latlng: 34.88308205,136.92408164
      name:
      - 成岩公民館
    成岩本町4丁目66番地:
      latlng: ''
      name:
      - 成岩ちびっ子広場
    成岩東町32番地の9:
      latlng: ''
      name:
      - 成岩東児童遊園
    新居町2丁目63番地:
      latlng: 34.91046408,136.95679399
      name:
      - 新居区民館
    新居町3丁目1番地:
      latlng: 34.90986691,136.95664125
      name:
      - 新居児童遊園
    新居町6丁目263番地:
      latlng: ''
      name:
      - 新居公園
    星崎町2丁目204番地:
      latlng: ''
      name:
      - 星崎公園
    昭和町3丁目8番地:
      latlng: 34.88809556,136.92030686
      name:
      - 成岩中学校
    更生町1丁目10番地:
      latlng: 34.89256211,136.92637283
      name:
      - こうせい公園
    有楽町2丁目366番地:
      latlng: ''
      name:
      - 有楽北ちびっ子広場
    有楽町3丁目229番地の1:
      latlng: ''
      name:
      - 須賀田公園
    有楽町4丁目121番地1:
      latlng: ''
      name:
      - 有楽ちびっ子広場
    有脇町5丁目1番地の1:
      latlng: 34.93277538,136.95443227
      name:
      - 有脇公民館
    有脇町6丁目37番地:
      latlng: 34.93416969,136.95580428
      name:
      - 有脇小学校(校庭)
    本町6丁目8番地の2:
      latlng: ''
      name:
      - 北区児童遊園
    東洋町1丁目10番地:
      latlng: ''
      name:
      - 半田市職員駐車場
    東洋町1丁目12番地の1:
      latlng: 34.89402067,136.94107956
      name:
      - さくら小学校
    東郷町2丁目104番地:
      latlng: 34.88225120,136.91667684
      name:
      - 西成岩区民館
    板山町1丁目100番地の11:
      latlng: 34.88997882,136.89170718
      name:
      - 板山公民館
    板山町2丁目176番地:
      latlng: ''
      name:
      - 小板児童遊園
    柊町1丁目1番:
      latlng: 34.90183629,136.91857078
      name:
      - 愛知県立半田農業高等学校
    柊町3丁目1番地:
      latlng: 34.90085579,136.91441281
      name:
      - 愛知県立半田工業高校
    柊町3丁目6番地:
      latlng: 34.90028363,136.91597933
      name:
      - かねり山公園
    柊町4丁目203番地:
      latlng: ''
      name:
      - 柊公園
    桐ヶ丘3丁目8番地の1:
      latlng: ''
      name:
      - 桐ケ丘公園
    横川町3丁目202番地の1:
      latlng: 34.92152371,136.94532823
      name:
      - 横川公園
    池田町2丁目30番地:
      latlng: 34.89785078,136.87973909
      name:
      - 愛知県立半田養護学校
    清城町1丁目5番地の1:
      latlng: 34.89836713,136.91883740
      name:
      - 雁宿小学校
    清城町2丁目9番地:
      latlng: 34.89714221,136.91189076
      name:
      - 清城公園
    瑞穂町10丁目8番地:
      latlng: 34.88565461,136.93788289
      name:
      - 山方公園
    瑞穂町3丁目1番地の6:
      latlng: 34.89165431,136.94606240
      name:
      - 瑞穂記念館
    瑞穂町3丁目5番地:
      latlng: 34.88916015,136.94862887
      name:
      - 池下公園
    瑞穂町6丁目2番地:
      latlng: 34.88617679,136.93796064
      name:
      - 東部公園
    瑞穂町7丁目7番地:
      latlng: 34.89320695,136.94533467
      name:
      - 六番公園
    瑞穂町8丁目10番地:
      latlng: 34.88567701,136.94532652
      name:
      - 瑞穂公園
    瑞穂町9丁目2番地の1:
      latlng: ''
      name:
      - 昭和公園
    白山町2丁目30番地:
      latlng: 34.89185928,136.92270656
      name:
      - 愛知県立半田商業高等学校
    白山町4丁目122番地:
      latlng: 34.89342584,136.92203993
      name:
      - 協和公民館
    白山町5丁目218番地:
      latlng: ''
      name:
      - 白山公園
    相賀町1丁目115番地:
      latlng: ''
      name:
      - 西古浜街園
    神前町:
      latlng: 34.91723786,136.97076399
      name:
      - 衣浦港亀崎海浜緑地
    美原町1丁目49番地1:
      latlng: ''
      name:
      - 美原ちびっ子広場
    花園町1丁目12番地の2:
      latlng: 34.87533460,136.91556890
      name:
      - 神戸公民館
    花園町1丁目7番地の1:
      latlng: ''
      name:
      - はさま公園
    花園町3丁目5番地の1:
      latlng: 34.87421478,136.91069999
      name:
      - 花園小学校
    花園町4丁目13番地の1:
      latlng: ''
      name:
      - 高峯公園
    花園町5丁目12番地の1:
      latlng: ''
      name:
      - 花園公園
    花園町6丁目9番地:
      latlng: 34.87005672,136.91391653
      name:
      - ふじが丘公園
    花田町3丁目1番地:
      latlng: 34.91258037,136.95090290
      name:
      - 乙川東小学校
    苗代町2丁目57番地:
      latlng: ''
      name:
      - 苗代ちびっ子広場
    西生見町30番地:
      latlng: 34.92904246,136.95204102
      name:
      - 愛知県立半田東高等学校
    長根町2丁目48番地:
      latlng: ''
      name:
      - 長根ちびっ子広場
    雁宿町1丁目22番地の1:
      latlng: 34.89665623,136.92508680
      name:
      - 雁宿ホール
    雁宿町2丁目1番地:
      latlng: 34.89583679,136.91889294
      name:
      - 市営半田球場
    雁宿町3丁目204番地の1:
      latlng: 34.89718112,136.92017340
      name:
      - 雁宿公園
    青山2丁目1番地の1:
      latlng: ''
      name:
      - 青山公園
    青山2丁目1番地の2:
      latlng: 34.88088717,136.91336055
      name:
      - 青山記念武道館
    青山3丁目14番地の1:
      latlng: ''
      name:
      - 山本公園
    青山4丁目22番地の1:
      latlng: ''
      name:
      - 新宮公園
    青山5丁目6番地の1:
      latlng: 34.87961195,136.90781393
      name:
      - 青山中学校
    青山7丁目11番地の1:
      latlng: ''
      name:
      - 稲荷公園
    鴉根町2丁目28番地2:
      latlng: ''
      name:
      - 鴉根ちびっ子広場
  南知多町:
    大字内海字中浜田3番地:
      latlng: 34.73818113,136.87058270
      name:
      - 南知多町立内海小学校体育館及びグランド
    大字内海字先苅248番地:
      latlng: 34.74638861,136.87327931
      name:
      - 南知多町立内海中学校体育館及びグランド
    大字内海字奥鈴ヶ谷1番1:
      latlng: 34.76170736,136.89813538
      name:
      - 愛知県立内海高等学校
    大字内海字柴井1番地の66:
      latlng: 34.74075828,136.86245534
      name:
      - 町民会館グランド
    大字大井字入道17番地:
      latlng: 34.72236432,136.95938285
      name:
      - 南知多町立大井小学校体育館及びグランド
    大字山海字後田32番地の1:
      latlng: 34.72169803,136.89763384
      name:
      - 南知多町山海ふれあい会館体育館及びグランド
    大字師崎字松田7番地の1:
      latlng: 34.70317486,136.96951605
      name:
      - 南知多町立師崎小学校体育館及びグランド
    大字日間賀島字永峯11番地:
      latlng: 34.70315698,137.00550119
      name:
      - 南知多町立日間賀小学校グランド
    大字日間賀島字永峯20番地の1:
      latlng: 34.70264025,137.00378752
      name:
      - 南知多町立日間賀中学校体育館及びグランド
    大字片名字長谷2番地:
      latlng: 34.71709855,136.96858768
      name:
      - 南知多町立師崎中学校体育館及びグランド
    大字篠島字南風崎7番地:
      latlng: 34.67172874,137.00078440
      name:
      - 南知多町立篠島小学校(西側)体育館
    大字篠島字東山1番地の1:
      latlng: 34.67805611,137.00700279
      name:
      - 南知多町立篠島小学校東山グランド
    大字篠島字汐味1番地の5:
      latlng: 34.67173710,137.00128990
      name:
      - 南知多町立篠島中学校グランド
    大字豊丘字有田脇16番地の1:
      latlng: 34.73458138,136.93797672
      name:
      - 南知多町豊丘むくろじ会館及びグランド
    大字豊浜字下大田面4番地の4:
      latlng: 34.70981182,136.93221673
      name:
      - 南知多町立豊浜小学校体育館及びグランド
    大字豊浜字半月:
      latlng: 34.70563169,136.93128920
      name:
      - 豊浜漁港
      - 豊浜漁港
      - 豊浜漁港
    大字豊浜字薬師堂45番地:
      latlng: 34.71591392,136.93274706
      name:
      - 南知多町立豊浜中学校体育館及びグランド
    大字豊浜字豊浦2-1:
      latlng: 34.70115226,136.94780999
      name:
      - 水産試験場 漁業生産研究所
    大字豊浜字須佐ケ丘5番地:
      latlng: 34.71876371,136.93548557
      name:
      - 南知多町総合体育館及び駐車場
  名古屋市:
    中区二の丸1-1:
      latlng: 35.18306733,136.90257569
      name:
      - 愛知県体育館
    中区平和一丁目:
      latlng: 35.14854649,136.90497308
      name:
      - 葉場公園
    中区栄二丁目:
      latlng: ''
      name:
      - 白川公園
    中区橘一丁目7-11:
      latlng: 35.15480760,136.90377106
      name:
      - 中生涯学習センター
    中川区下之一色町字松蔭1-45-1:
      latlng: 35.12795381,136.83942912
      name:
      - 中川学校体育センター
    中川区中島新町二丁目:
      latlng: 35.12806294,136.85160789
      name:
      - 中島中央公園
    中川区中花町:
      latlng: 35.13123370,136.84675547
      name:
      - 丸池公園
    中川区八家町2丁目:
      latlng: 35.13017382,136.87199137
      name:
      - 八家公園
    中川区十一番町3丁目、熱田新田東組字西川縁:
      latlng: 35.12288935,136.87981918
      name:
      - 昭和橋公園
    中川区土野町:
      latlng: 35.14520142,136.84085039
      name:
      - 野田公園
    中川区太平通1丁目:
      latlng: 35.14246482,136.87012120
      name:
      - 松葉公園
    中川区富川町1-2-12:
      latlng: 35.14723516,136.87767069
      name:
      - 中川生涯学習センター
    中川区富田町大字万場字流作、字才宮:
      latlng: ''
      name:
      - 万場大橋緑地
    中川区戸田四丁目2502:
      latlng: 35.13662207,136.80502366
      name:
      - 富田地区会館
    中川区荒子二丁目:
      latlng: 35.13872684,136.85866144
      name:
      - 荒子公園
    中川区荒越町3丁目:
      latlng: 35.13336144,136.88479334
      name:
      - 荒越公園
    中川区露橋二丁目:
      latlng: 35.14707884,136.88627163
      name:
      - 露橋公園
    中川区高畑四丁目:
      latlng: 35.14191755,136.85142533
      name:
      - 高畑公園
    中村区亀島一丁目5-29:
      latlng: 35.17667016,136.87578967
      name:
      - (旧)亀島小学校
    中村区名駅南四丁目:
      latlng: 35.16240888,136.88700723
      name:
      - 六反公園
    中村区押木田町1丁目:
      latlng: 35.16441684,136.85701989
      name:
      - 押木田公園
    中村区日比津町1丁目:
      latlng: 35.18295495,136.85723853
      name:
      - 日比津公園
    中村区松原町1-24:
      latlng: 35.17681441,136.86850146
      name:
      - (旧)本陣小学校
    中村区稲葉地町1丁目、稲葉地本通1丁目:
      latlng: 35.16632360,136.84527592
      name:
      - 稲葉地公園
    中村区鳥居通3-1-3:
      latlng: 35.17466744,136.86480181
      name:
      - 中村生涯学習センター
    北区名城一丁目3-35:
      latlng: 35.19164952,136.90116448
      name:
      - 愛知県スポーツ会館
    北区大我麻町:
      latlng: 35.23139240,136.90752993
      name:
      - 大我麻公園
    北区平手町2丁目:
      latlng: 35.20257238,136.90499015
      name:
      - 志賀公園
    北区成願寺町、安井町、米が瀬町、楠町:
      latlng: ''
      name:
      - 水分橋緑地
    北区若鶴町:
      latlng: ''
      name:
      - 楠公園
    北区黒川本通2-16-3:
      latlng: 35.19796039,136.91273805
      name:
      - 北生涯学習センター
    千種区吹上二丁目、昭和区吹上二丁目:
      latlng: ''
      name:
      - 吹上公園
    千種区振甫町3-34:
      latlng: 35.17475706,136.95236899
      name:
      - 千種生涯学習センター
    千種区若水一丁目:
      latlng: 35.17557385,136.94342067
      name:
      - 千種公園
    南区元塩町、宝生町、神松町、丹後通、他:
      latlng: ''
      name:
      - 大江川緑地一帯
    南区呼続四丁目:
      latlng: 35.10578090,136.93189540
      name:
      - 呼続公園
    南区天白町4丁目:
      latlng: 35.07236882,136.92557346
      name:
      - 千鳥公園
    南区宝生町3丁目:
      latlng: 35.08516540,136.91126266
      name:
      - 宝生公園
    南区忠次一丁目:
      latlng: 35.10107036,136.91778861
      name:
      - 忠道公園
    南区東又兵ヱ町5-1-10:
      latlng: 35.09667925,136.92257146
      name:
      - 南生涯学習センター
    南区白水町、滝春町:
      latlng: ''
      name:
      - 白水公園
    南区神松町3丁目:
      latlng: 35.08364879,136.91991738
      name:
      - 水袋公園
    南区見晴町、白雲町、弥生町、貝塚町:
      latlng: ''
      name:
      - 笠寺公園
    南区道徳新町5丁目:
      latlng: 35.10527241,136.90801163
      name:
      - 道徳公園
    南十一番町1丁目、丸池町1丁目、須成町1丁目:
      latlng: ''
      name:
      - 南郊公園
    名東区一社二丁目:
      latlng: 35.16710216,136.99812721
      name:
      - 西一社中央公園
    名東区上社五丁目:
      latlng: 35.17050021,137.01192557
      name:
      - 上社公園
    名東区上菅二丁目:
      latlng: 35.17950439,136.99874946
      name:
      - 廻間公園
    名東区亀の井三丁目:
      latlng: 35.16370982,137.00389065
      name:
      - 一社公園
    名東区大針二丁目:
      latlng: 35.15150992,137.01915952
      name:
      - 大針中央公園
    名東区明が丘:
      latlng: 35.18311756,137.01827824
      name:
      - 明が丘公園
    名東区本郷一丁目:
      latlng: 35.17991292,137.01508561
      name:
      - 本郷公園
    名東区植園町3丁目:
      latlng: 35.15415797,136.98975421
      name:
      - 植園公園
    名東区猪高町大字上社、大字一社、大字高針:
      latlng: ''
      name:
      - 猪高緑地
    名東区猪高町大字猪子石、大字藤森:
      latlng: ''
      name:
      - 明徳公園
    名東区猪高町高針字梅森坂52-175:
      latlng: 35.14507656,137.01396719
      name:
      - 牧野ヶ池緑地
    名東区社が丘三丁目802:
      latlng: 35.16756798,137.01740730
      name:
      - 名東生涯学習センター
    名東区神丘町3丁目:
      latlng: 35.15736052,136.99731266
      name:
      - 神丘公園
    名東区西山本通2丁目:
      latlng: 35.15641968,136.99422186
      name:
      - 西山中公園
    名東区貴船二丁目:
      latlng: 35.16679765,137.01276345
      name:
      - 貴船公園
    天白区久方三丁目、緑区鳴海町字螺貝:
      latlng: 35.10402953,136.97898324
      name:
      - 戸笠公園
    天白区天白町大字八事:
      latlng: 35.14368096,136.97553555
      name:
      - 天白渓下池公園
    天白区天白町大字島田、大字平針、土原三丁目:
      latlng: ''
      name:
      - 天白公園
    天白区天白町大字島田字黒石4050:
      latlng: 35.11857966,136.98749758
      name:
      - 天白生涯学習センター
    天白区天白町大字平針:
      latlng: 35.11360917,137.01305868
      name:
      - 荒池緑地
    天白区天白町大字野並:
      latlng: 35.10668255,136.96643465
      name:
      - 相生山緑地
    天白区平針南一丁目:
      latlng: 35.10918120,137.00019368
      name:
      - 細口池公園
    天白区植田一丁目:
      latlng: 35.13065712,136.98589418
      name:
      - 稲葉山公園
    天白区植田本町一丁目:
      latlng: 35.13755946,136.99293035
      name:
      - 植田中央公園
    天白区池場一丁目:
      latlng: 35.12467778,136.98066871
      name:
      - 島田公園
    天白区高島二丁目:
      latlng: 35.10385022,137.00064708
      name:
      - 島田緑地
    字川原割、字北甚兵衛浦字新替、字大明神割、字鍋:
      latlng: ''
      name:
      - 富田公園
    守山区下志段味字横堤1390-1:
      latlng: 35.24391047,137.02157181
      name:
      - 志段味地区会館
    守山区城土町:
      latlng: 35.21290172,136.97625371
      name:
      - 城土公園
    守山区大字牛牧字中山1632-1:
      latlng: 35.20969751,136.97535200
      name:
      - 小幡緑地
    守山区守山三丁目2-6:
      latlng: 35.19759603,136.95689004
      name:
      - 守山生涯学習センター
    守山区川宮町:
      latlng: 35.21325022,136.96059307
      name:
      - 川田公園
    守山区幸心二丁目、川宮町:
      latlng: 35.20969525,136.94753020
      name:
      - 松川橋緑地
    守山区御膳洞:
      latlng: 35.21284587,137.00158121
      name:
      - 雨池公園・檀ノ浦公園
    守山区村合町:
      latlng: 35.20678557,136.96318205
      name:
      - 山下公園
    昭和区八事本町:
      latlng: ''
      name:
      - 興正寺公園
    昭和区石仏町1-48:
      latlng: 35.14624116,136.93579099
      name:
      - 昭和生涯学習センター
    昭和区隼人町:
      latlng: 35.14265966,136.95495381
      name:
      - 隼人池公園
    東区徳川町:
      latlng: 35.18516850,136.93523875
      name:
      - 徳川園
    東区矢田三丁目:
      latlng: 35.19630652,136.94298809
      name:
      - 木ヶ崎公園
    東区砂田橋三丁目:
      latlng: 35.18737789,136.96085960
      name:
      - 大幸第二公園
    東区葵一丁目3-21:
      latlng: 35.17283370,136.92044106
      name:
      - 東生涯学習センター
    港区いろは町2丁目:
      latlng: 35.10427284,136.87365506
      name:
      - いろは公園
    港区丸池町1-1-4:
      latlng: 35.11747710,136.86994471
      name:
      - 愛知県武道館
    港区八百島二丁目:
      latlng: 35.11747202,136.81976641
      name:
      - 福田公園
    港区十一屋一丁目、十一屋二丁目:
      latlng: 35.09669262,136.86419162
      name:
      - 十一屋川緑地
    港区善南町:
      latlng: 35.09785617,136.85280668
      name:
      - 善南公園
    港区多加良浦町4丁目:
      latlng: 35.10072062,136.84194098
      name:
      - 維信第一公園
    港区大手町6丁目、熱田前新田字中川西:
      latlng: 35.09535994,136.86797830
      name:
      - 中之島川緑地
    港区宝神五丁目:
      latlng: 35.09113627,136.84749773
      name:
      - 宝神中央公園
    港区小碓四丁目:
      latlng: 35.11858127,136.84902079
      name:
      - 小碓中央公園
    港区当知一丁目:
      latlng: 35.11206941,136.84914921
      name:
      - 当知中央公園
    港区新茶屋三丁目、小川三丁目:
      latlng: 35.10073026,136.81174381
      name:
      - 新茶屋川公園
    港区春田野三丁目101:
      latlng: 35.11247238,136.81655514
      name:
      - 南陽地区会館
    港区正徳町1丁目、中川区正徳町1丁目:
      latlng: 35.12131924,136.86270151
      name:
      - 正徳公園
    港区港明一丁目、港楽一丁目、港栄一丁目:
      latlng: 35.10900098,136.88898327
      name:
      - 港北公園
    港区港陽一丁目10-18:
      latlng: 35.10208074,136.88720833
      name:
      - 港生涯学習センター
    港区港陽二丁目:
      latlng: 35.10025543,136.89044059
      name:
      - 港陽公園
    港区秋葉一丁目:
      latlng: 35.10899288,136.82072954
      name:
      - 秋葉公園
    港区稲永三丁目、五丁目:
      latlng: 35.08401124,136.86039815
      name:
      - 稲永東公園
    港区藤前三丁目:
      latlng: 35.07923962,136.83128324
      name:
      - 藤前公園
    港区藤前五丁目、南陽町大字藤前新田:
      latlng: 35.08621928,136.82211218
      name:
      - 日光川公園
    熱田区六野二丁目、三本松町:
      latlng: ''
      name:
      - 神宮東公園
    熱田区大瀬子町、木之免町、田中町:
      latlng: ''
      name:
      - 大瀬子公園
    熱田区旗屋1丁目10-45:
      latlng: ''
      name:
      - 熱田神宮公園
    熱田区熱田西町2-13:
      latlng: 35.12651650,136.89971691
      name:
      - 熱田生涯学習センター
    熱田区高蔵町901:
      latlng: ''
      name:
      - 高蔵公園
    瑞穂区弥富ヶ丘町3丁目:
      latlng: 35.12320213,136.95376152
      name:
      - 弥富公園
    瑞穂区惣作町2-27-3:
      latlng: 35.12003521,136.92572891
      name:
      - 瑞穂生涯学習センター
    町6丁目、字古新田、山田北町1丁目、2丁目、守山区:
      latlng: ''
      name:
      - 天神橋緑地
    緑区乗鞍三丁目:
      latlng: 35.08938453,136.99327706
      name:
      - 乗鞍公園
    緑区乗鞍二丁目:
      latlng: 35.09321534,136.99666162
      name:
      - 要池公園
    緑区六田二丁目:
      latlng: 35.07870870,136.96244410
      name:
      - 六田公園
    緑区大高町城山、大高町向山:
      latlng: ''
      name:
      - 大高城跡公園
    緑区大高町字鷲津山:
      latlng: 35.06826826,136.94270534
      name:
      - 鷲津砦公園
    緑区大高町高山1-1:
      latlng: 35.06212225,136.95427047
      name:
      - 大高緑地
    緑区平手北一丁目:
      latlng: 35.08452393,136.98832066
      name:
      - 平手北公園
    緑区徳重二丁目:
      latlng: 35.08841707,136.99894150
      name:
      - 通曲公園
    緑区旭出三丁目:
      latlng: 35.08910346,136.97172042
      name:
      - 上朝日出公園
    緑区浦里一丁目:
      latlng: 35.09084673,136.94476793
      name:
      - 浦里公園
    緑区滝ノ水二丁目:
      latlng: 35.08924619,136.98157546
      name:
      - 滝ノ水緑地
    緑区滝ノ水四丁目:
      latlng: 35.08367517,136.97365322
      name:
      - 滝ノ水中央公園
    緑区相川三丁目:
      latlng: 35.10027256,136.97540876
      name:
      - 螺貝公園
    緑区篠の風三丁目:
      latlng: 35.09361342,136.97903847
      name:
      - 滝の水公園
    緑区諸の木一丁目:
      latlng: 35.08263493,137.00680813
      name:
      - 諸の木北公園
    緑区鎌倉台二丁目:
      latlng: 35.07325995,136.98573114
      name:
      - 姥子山中央公園
    緑区鳴子町2丁目:
      latlng: 35.09959819,136.96450199
      name:
      - 鳴子中央公園
    緑区鳴海町三王山:
      latlng: 35.09129922,136.95062746
      name:
      - 千句塚公園
    緑区鳴海町字徳重18-41:
      latlng: 35.09551342,136.99789142
      name:
      - 徳重地区会館
    緑区鳴海町字本町54:
      latlng: 35.07944845,136.95177634
      name:
      - 緑生涯学習センター
    緑区鳴海町笹塚17番地:
      latlng: 35.08671763,137.01131815
      name:
      - みどりが丘公園
    緑区鹿山一丁目、鳴海町字池上:
      latlng: 35.08885706,136.96297745
      name:
      - 新海池公園
    西区中小田井二丁目:
      latlng: 35.21269900,136.87314126
      name:
      - 中小田井公園
    西区八筋町78:
      latlng: 35.22176527,136.88486235
      name:
      - 山田地区会館
    西区天神山町、浄心二丁目:
      latlng: ''
      name:
      - 押切公園
    西区山木二丁目167:
      latlng: 35.22601986,136.87167462
      name:
      - 平田学校体育センター
    西区山田町大字大野木、北区楠町大字味鋺:
      latlng: ''
      name:
      - 洗堰緑地
    西区新福寺町2丁目:
      latlng: 35.20527813,136.88356158
      name:
      - 新福寺公園
    西区枇杷島一丁目:
      latlng: 35.18957645,136.87284403
      name:
      - 枇杷島公園
    西区浄心一丁目1-45:
      latlng: 35.19288228,136.89023234
      name:
      - 西生涯学習センター
    西区西区五才美町:
      latlng: 35.22022191,136.88824933
      name:
      - 五町公園
    西区西原町:
      latlng: 35.22679838,136.86259669
      name:
      - 西原公園
    西区見寄町:
      latlng: 35.21948911,136.86289893
      name:
      - 見寄公園
  大口町:
    上小口二丁目:
      latlng: 35.34643489,136.92764703
      name:
      - 大口町上小口グランド
    下小口六丁目150:
      latlng: 35.32974031,136.90828319
      name:
      - 大口町総合運動場
    中小口三丁目258:
      latlng: 35.33967653,136.92269539
      name:
      - 大口町立北小学校
    丸一丁目20:
      latlng: ''
      name:
      - 大口町野球グランド
    丸一丁目38:
      latlng: 35.33246225,136.90450560
      name:
      - 大口町立中学校
    丸二丁目8:
      latlng: 35.33233159,136.90627491
      name:
      - 大口町民会館
    伝右一丁目35:
      latlng: 35.32842109,136.91005810
      name:
      - 大口町健康文化センター
    余野六丁目440:
      latlng: 35.33832228,136.90468865
      name:
      - 大口町立西小学校
    大字小口字城屋敷123:
      latlng: 35.34139564,136.91672086
      name:
      - 大口町屋内運動場
    奈良子三丁目116:
      latlng: 35.31909787,136.89576537
      name:
      - 大口町立南小学校
  大府市:
    中央町4丁目195:
      latlng: 35.00771738,136.96445370
      name:
      - 大府公民館
    中央町5丁目15番地:
      latlng: 35.01404430,136.96164831
      name:
      - 愛知県立桃陵高等学校
    共和町2丁目8-2:
      latlng: 35.03602756,136.95107415
      name:
      - 共長公民館
    共和町6丁目140:
      latlng: 35.03209465,136.95052699
      name:
      - 共長小学校体育館
      - 共長小学校グラウンド
    共西町1丁目29:
      latlng: 35.03775771,136.94400535
      name:
      - 共和西小学校体育館
      - 共和西小学校グラウンド
    北山町3丁目120:
      latlng: 35.03153423,136.96770585
      name:
      - 北山小学校体育館
      - 北山小学校グラウンド
    北崎町大根2-193:
      latlng: ''
      name:
      - 大府みどり公園
    吉田町4丁目33:
      latlng: 35.00202007,136.93324327
      name:
      - 吉田小学校体育館
      - 吉田小学校グラウンド
    明成町1丁目330:
      latlng: 35.02912281,136.95168522
      name:
      - 大府市勤労文化会館
    明成町2丁目60:
      latlng: 35.02853660,136.94618853
      name:
      - 長草公民館
    月見町6丁目180番:
      latlng: 35.00314824,136.95799325
      name:
      - 愛知県立大府高等学校
    東新町3丁目3-1:
      latlng: 35.03287817,136.95847620
      name:
      - 大府北中学校体育館
      - 大府北中学校グラウンド
    桃山町3丁目216:
      latlng: 35.01896882,136.96443965
      name:
      - 大府中学校体育館
      - 大府中学校グラウンド
    桃山町5丁目44:
      latlng: 35.01372495,136.96331761
      name:
      - 大府小学校体育館
      - 大府小学校グラウンド
    梶田町6丁目274:
      latlng: 35.03386737,136.96876684
      name:
      - 北山公民館
    森岡町4丁目7:
      latlng: 35.00536721,136.95011349
      name:
      - 森岡公民館
    森岡町尾坂田1番11号:
      latlng: 34.99852366,136.95297998
      name:
      - 愛知県立大府養護学校
    森岡町源吾1:
      latlng: 34.99870961,136.94773333
      name:
      - あいち健康の森公園
    横根町平地191:
      latlng: 35.01325608,136.97616096
      name:
      - 大府市民体育館
      - 横根グラウンド
    横根町平地295:
      latlng: 35.01361174,136.97935515
      name:
      - 横根公民館
    横根町膝折1番4:
      latlng: 35.02211909,136.97969383
      name:
      - 愛知県立大府東高等学校
    江端町4丁目1:
      latlng: 35.01178314,136.95098273
      name:
      - 石ヶ瀬会館
    江端町4丁目118:
      latlng: ''
      name:
      - 江端公園
    江端町6丁目99:
      latlng: 35.01004995,136.94891908
      name:
      - 石ヶ瀬小学校体育館
      - 石ヶ瀬小学校グラウンド
    神田町3丁目115:
      latlng: 35.02528313,136.98882927
      name:
      - 神田公民館
    神田町3丁目135:
      latlng: 35.02538862,136.98805985
      name:
      - 神田小学校体育館
      - 神田小学校グラウンド
    追分町2丁目341:
      latlng: 35.02917029,136.95999829
      name:
      - 東山公民館
    長根町3丁目111:
      latlng: 35.02628740,136.96347020
      name:
      - 東山小学校体育館
      - 東山小学校グラウンド
    長草町車池11:
      latlng: 35.02270114,136.94422490
      name:
      - 大府西中学校体育館
      - 大府西中学校グラウンド
    馬池町3丁目21:
      latlng: 34.99444034,136.92667497
      name:
      - 大府南中学校体育館
      - 大府南中学校グラウンド
    高丘町2丁目2:
      latlng: 34.99857050,136.93416273
      name:
      - 吉田公民館
  大治町:
    大字八ツ屋字山畔25番地の1:
      latlng: 35.16745414,136.83074393
      name:
      - 大治町八ツ屋防災コミュニティセンター
    大字北間島字藤田33番地の1:
      latlng: 35.17840527,136.82974375
      name:
      - 大治町スポーツセンター
    大字堀之内字半之返791番地:
      latlng: 35.17732207,136.82646903
      name:
      - 大治町立大治中学校
    大字堀之内字南二反畑606番地:
      latlng: 35.17569170,136.82148058
      name:
      - 大治町立大治小学校
    大字砂子字勇八前320番地:
      latlng: 35.16633745,136.81890880
      name:
      - 大治町立大治南小学校
    大字砂子字柳原78番地の1:
      latlng: 35.15842770,136.83158877
      name:
      - 大治町砂子東部防災ふれあいセンター
    大字砂子字西河原18番地の1:
      latlng: ''
      name:
      - 大治町総合福祉センター希望の家
    大字西條字松下100番地:
      latlng: 35.18088259,136.81200069
      name:
      - 大治町立大治西小学校
    大字西條字西之割60番地の1:
      latlng: 35.17514723,136.81120362
      name:
      - 大治町立西公民館
    大字西條字諏訪24番地の1:
      latlng: 35.18099369,136.81430052
      name:
      - 大治町西條防災コミュニティセンター
    大字馬島字大門西10番地:
      latlng: 35.17476960,136.81970018
      name:
      - 大治町立公民館
  安城市:
    三河安城南町1-2-1:
      latlng: 34.96636137,137.06137350
      name:
      - 三河安城ツインパーク
    三河安城本町1-13-9:
      latlng: 34.97227153,137.05600451
      name:
      - 二本木公民館
    三河安城本町1-35-1:
      latlng: 34.96936364,137.05838208
      name:
      - 長根公園
    三河安城本町2-12-1:
      latlng: ''
      name:
      - 舞山公園
    三河安城東町1-14-1:
      latlng: ''
      name:
      - すりばち公園
    三河安城東町1-2-1:
      latlng: 34.96543380,137.06468153
      name:
      - 箕畔公園
    三河安城東町1-21-1:
      latlng: ''
      name:
      - 管池公園
    三河安城東町2-9-1:
      latlng: 34.96700587,137.06803119
      name:
      - 三河東町公園
    三河安城町1-13-1:
      latlng: ''
      name:
      - 正福田公園
    三河安城町2-5-1:
      latlng: ''
      name:
      - 神楽山公園
    二本木新町二丁目5番1:
      latlng: 34.97721807,137.05532119
      name:
      - 養下公園
    井杭山町高見1-1:
      latlng: ''
      name:
      - 明専公園
    今本町1-9-44:
      latlng: 34.99327799,137.08589070
      name:
      - 安城市立安城北部小学校
    今本町1丁目9-6:
      latlng: 34.99389743,137.08755726
      name:
      - 安城市立あけぼの保育園運動場
    今本町二丁目9-13:
      latlng: 34.99364180,137.08485466
      name:
      - 塔ノ下公園
    今本町四丁目3-14:
      latlng: 34.99347500,137.08084660
      name:
      - 仲畔公園
    今本町四丁目9-15:
      latlng: ''
      name:
      - 代官公園
    今池町2-1-52:
      latlng: 34.98225707,137.08543787
      name:
      - 安城市立今池小学校
    今池町一丁目8:
      latlng: 34.98486788,137.08622116
      name:
      - 前之池公園
    住吉町5丁目32番2:
      latlng: ''
      name:
      - 唐池公園
    住吉町5丁目9番4:
      latlng: ''
      name:
      - 横枕公園
    住吉町6丁目7番8:
      latlng: ''
      name:
      - 住吉公園
    住吉町7丁目83番1:
      latlng: 34.98684480,137.07477759
      name:
      - 大丸山公園
    住吉町一丁目5:
      latlng: 34.98966419,137.07880785
      name:
      - 大西公園
    住吉町小根32-1:
      latlng: ''
      name:
      - 荒曽根公園
    北山崎町大土塚10番地:
      latlng: 34.96579357,137.10285273
      name:
      - 愛知県立安城東高等学校
    南町27:
      latlng: 34.93520520,137.08518042
      name:
      - 南公園
    古井町豊日25:
      latlng: 34.93576653,137.09453214
      name:
      - 安城市立ゆたか保育園
    和泉町北本郷237:
      latlng: 34.92302542,137.04704576
      name:
      - 安城市立和泉保育園運動場
    和泉町南本郷1:
      latlng: 34.91870376,137.04605994
      name:
      - 安城市立丈山小学校
    和泉町大下38:
      latlng: 34.91228791,137.04401042
      name:
      - 南部公民館
    和泉町大海古1:
      latlng: 34.91736807,137.05389534
      name:
      - 和泉公園
    和泉町宮前92番:
      latlng: ''
      name:
      - 弥厚公園
    城ヶ入町丸根3:
      latlng: 34.90481406,137.04975179
      name:
      - 安城市立城ケ入保育園
    城南町2-7-2:
      latlng: ''
      name:
      - 安城市立安城南中学校
    城南町一丁目14-1:
      latlng: 34.95165566,137.07896654
      name:
      - 細田公園
    堀内町安下1-1:
      latlng: 34.92849791,137.09098562
      name:
      - 堀内公園
    大山町1丁目19-15:
      latlng: 34.95145302,137.08313281
      name:
      - 安城市立錦保育園運動場
    大山町1丁目7番1:
      latlng: 34.94957560,137.08653530
      name:
      - 秋葉公園
    大山町二丁目6-1:
      latlng: 34.94910056,137.08296345
      name:
      - 大山公園
    大岡町前畑72-1:
      latlng: 34.95723103,137.10717449
      name:
      - 安城市立安城東部小学校
    大岡町源覚16:
      latlng: 34.96087495,137.10606903
      name:
      - 東部公民館
    大岡町源覚45:
      latlng: 34.96015557,137.10549133
      name:
      - 安城市立東部保育園運動場
    大東町11-30:
      latlng: 34.96391517,137.08440191
      name:
      - 安城市立安城保育園運動場
    大東町12-8:
      latlng: 34.96553719,137.08510460
      name:
      - 安城市立安城中部小学校
    大東町1675番2:
      latlng: ''
      name:
      - 大池公園
    大東町25-40:
      latlng: 34.96856454,137.08539899
      name:
      - 安城市立安城北部幼稚園運動場
    姫小川町遠見塚132番1:
      latlng: ''
      name:
      - 姫西せせらぎ公園
    姫小川町鹿乗1番48:
      latlng: ''
      name:
      - 鹿乗公園
    安城町城堀30:
      latlng: ''
      name:
      - 安祥公民館
    安城町城堀48:
      latlng: 34.94572365,137.09536222
      name:
      - 安城市立安城南部小学校
    安城町天草23:
      latlng: 34.94300710,137.08854918
      name:
      - 安城市立安祥中学校
    安城町小圦22-1:
      latlng: 34.94371277,137.09467903
      name:
      - 安城市立南部保育園運動場
    安城町広美1-1:
      latlng: 34.94632579,137.07614196
      name:
      - 昭林公園
    安城町広美10-1:
      latlng: ''
      name:
      - 昭林公民館
    安城町庚申11:
      latlng: 34.93920191,137.08518304
      name:
      - 安城市立祥南小学校
    寺領町願明85:
      latlng: 34.89724622,137.08620131
      name:
      - 安城市立三ツ川保育園
    小堤町245:
      latlng: ''
      name:
      - 小堤公園
    小川町堂開道1番1:
      latlng: ''
      name:
      - 桜井中央公園
    小川町志茂188:
      latlng: 34.90740893,137.09198373
      name:
      - 安城市立小川保育園運動場
    小川町清水道6-1:
      latlng: 34.90820596,137.08653976
      name:
      - 安城市立桜井小学校
    小川町的場丘1-1:
      latlng: 34.91291931,137.08932263
      name:
      - 安城市立桜井中学校
    小川町的場丘13:
      latlng: 34.91055292,137.08846448
      name:
      - 本城公園
    小川町的場丘8:
      latlng: 34.91071400,137.08781176
      name:
      - 的場公園
    尾崎町北裏49:
      latlng: 34.97969803,137.11519036
      name:
      - 安城市立志貴保育園運動場
    新明町21-1:
      latlng: 34.95999681,137.09638682
      name:
      - 新田公園
    新田町小山西18:
      latlng: 34.97059212,137.08729324
      name:
      - 安城市立安城北中学校
    新田町小山西83:
      latlng: 34.97175026,137.08668218
      name:
      - 中部公民館
    新田町新定山41-8:
      latlng: 34.97183097,137.08997075
      name:
      - 安城市体育館
    新田町新栄100:
      latlng: 34.96890384,137.09498137
      name:
      - 安城市立新田小学校
    新田町新栄84番地1:
      latlng: 34.97035351,137.09228719
      name:
      - 中部福祉センター
    新田町池田上1:
      latlng: 34.97370560,137.08797928
      name:
      - 青少年の家
      - 安城市総合運動公園
    新田町郷西99:
      latlng: 34.96262133,137.09367041
      name:
      - 安城市立新田保育園運動場
    日の出町2:
      latlng: 34.95380026,137.09216791
      name:
      - 日の出公園
    昭和町822:
      latlng: ''
      name:
      - 昭和公園
    朝日町557-1:
      latlng: ''
      name:
      - 追田公園
    木戸町丸池195番:
      latlng: ''
      name:
      - 木戸東公園
    木戸町西屋敷38-6:
      latlng: ''
      name:
      - きどはし公園
    東別所町戌新畑1番94:
      latlng: ''
      name:
      - 別所団地公園
    東新町14番1:
      latlng: 34.95708613,137.09724232
      name:
      - 安城東公園
    東明町11-10:
      latlng: ''
      name:
      - 毘沙門公園
    東栄町一丁目11:
      latlng: 34.98913386,137.08253258
      name:
      - 今村公園
    東栄町三丁目11-5:
      latlng: 34.98801758,137.08803493
      name:
      - 曙公園
    東栄町横根畑59-23:
      latlng: 34.98430191,137.09811735
      name:
      - 北部福祉センター
    東栄町横根畑59番128:
      latlng: ''
      name:
      - 横根畑公園
    東栄町横根畑59番727:
      latlng: ''
      name:
      - 上倉公園
    東栄町野池1-6:
      latlng: 34.98761501,137.09130688
      name:
      - 東栄公園
    東栄町野池4-3:
      latlng: 34.98713456,137.09225124
      name:
      - 安城市立東栄幼稚園運動場
    東栄町野池畑87-1:
      latlng: 34.98926478,137.09059308
      name:
      - 今東公園
    東栄町高根102-2:
      latlng: 34.98809854,137.09645649
      name:
      - 高根公園
    東端町住吉1番地12:
      latlng: 34.90672150,137.02634860
      name:
      - 安城市立明祥中学校
    東端町住吉68:
      latlng: 34.90534388,137.02523211
      name:
      - 安城市立東端保育園運動場
    東端町明和66:
      latlng: 34.90376081,137.02752637
      name:
      - 安城市立明和小学校
    東端町稲荷32:
      latlng: ''
      name:
      - 東端公園
    柿碕町御用地45:
      latlng: 34.98025355,137.11580974
      name:
      - 安城市立志貴小学校
    桜井町三度山68番:
      latlng: ''
      name:
      - ふれあい城西公園
    桜井町中狭間35-1:
      latlng: 34.92351256,137.09661585
      name:
      - 安城市立桜林小学校
    桜井町伝左20番:
      latlng: 34.91889341,137.08181198
      name:
      - 愛知県立安城養護学校
    桜井町城阿原59:
      latlng: 34.92235149,137.09178584
      name:
      - 城山公園
    桜井町塔見塚39番:
      latlng: ''
      name:
      - とうみづか公園
    桜井町大役田1-1:
      latlng: 34.91601337,137.08997243
      name:
      - 桜井公民館
    桜井町宮下14:
      latlng: 34.92630112,137.09738506
      name:
      - 安城市立桜井保育園運動場
    桜井町新田20:
      latlng: 34.91872131,137.08711425
      name:
      - 安城市立さくら保育園運動場
    桜井町新田20番地:
      latlng: 34.91872131,137.08711425
      name:
      - 桜井福祉センター
    桜井町貝戸尻78-2:
      latlng: 34.92035161,137.08478941
      name:
      - 桜井駅西公園
    桜井町門原1番地:
      latlng: 34.91993760,137.07427378
      name:
      - 愛知県立安城南高等学校
    桜町15-5:
      latlng: 34.96062940,137.08023846
      name:
      - 安城市立桜町小学校
    桜町17-11:
      latlng: 34.95972678,137.08106062
      name:
      - 安城文化センター
    桜町289-1:
      latlng: ''
      name:
      - 安城公園
    榎前町北榎10番1:
      latlng: ''
      name:
      - 榎前農村公園
    榎前町北榎5-1:
      latlng: 34.93417358,137.03814067
      name:
      - 安城市立えのき保育園
    横山町浜畔上110:
      latlng: 34.95538841,137.07698053
      name:
      - 横山公園
    池浦町丸田172-1:
      latlng: 34.97152773,137.07826630
      name:
      - 愛知県総合教育センター農業教育共同実習所
    池浦町境目1:
      latlng: 34.97222193,137.07453330
      name:
      - 農業総合試験場 作物研究部水田利用グループ
    池浦町池東13-1:
      latlng: 34.97531652,137.08858201
      name:
      - 池浦公園
    池浦町狐穴15-1:
      latlng: ''
      name:
      - 池浦西公園
    池浦町茶筅木1番地:
      latlng: 34.96803105,137.07913847
      name:
      - 愛知県立安城農林高等学校
    法連町10-1:
      latlng: 34.95664991,137.09332608
      name:
      - 土器田公園
    百石町一丁目10-1:
      latlng: 34.95161949,137.07625013
      name:
      - 石ナ曽根公園
    百石町二丁目7-1:
      latlng: 34.95011965,137.07412815
      name:
      - 百々目木公園
    相生町18-7:
      latlng: 34.95432492,137.08557139
      name:
      - 安城市立安城幼稚園運動場
    相生町318:
      latlng: ''
      name:
      - 朝日公園
    福釜町中根43:
      latlng: 34.95016064,137.04962218
      name:
      - 安城市立安城西中学校
    福釜町猿町128:
      latlng: 34.94482849,137.05845745
      name:
      - 安城市立安城西部小学校
    福釜町笠松102:
      latlng: 34.94542814,137.05290250
      name:
      - 安城市立西部保育園運動場
    福釜町西天12:
      latlng: 34.94768855,137.04410061
      name:
      - 西部福祉センター
    福釜町釜ケ渕20-1:
      latlng: 34.94718306,137.04397564
      name:
      - 西部公民館
    箕輪町屋下35:
      latlng: 34.95627398,137.06026819
      name:
      - 安城市立みのわ保育園
    箕輪町昭和47:
      latlng: 34.95992073,137.06420943
      name:
      - 安城市立三河安城小学校
    篠目町1丁目9番:
      latlng: 34.97708941,137.07056750
      name:
      - 篠目公園
    篠目町3丁目1番8:
      latlng: ''
      name:
      - 段留公園
    篠目町4-22-1:
      latlng: 34.98179835,137.07590810
      name:
      - 安城市立作野小学校
    篠目町4丁目16番:
      latlng: 34.98071707,137.07477515
      name:
      - 新段留公園
    篠目町4丁目22-21:
      latlng: 34.98166509,137.07702190
      name:
      - 安城市立さくの幼稚園運動場
    篠目町4丁目22番20:
      latlng: 34.98224554,137.07653582
      name:
      - 作野公園
    篠目町4丁目7-1:
      latlng: 34.97977910,137.07367775
      name:
      - 安城市立作野保育園運動場
    篠目町二タ又27-1:
      latlng: 34.98177315,137.06840876
      name:
      - 作野福祉センター
    篠目町古林畔26:
      latlng: 34.97831837,137.07773019
      name:
      - 作野公民館
    篠目町溝川38:
      latlng: 34.97517684,137.06572020
      name:
      - 安城市立梨の里小学校
    篠目町竜田151:
      latlng: 34.98274522,137.06586177
      name:
      - 安城市立篠目中学校
    篠目町童子208-1:
      latlng: 34.97136073,137.06613410
      name:
      - のぞみ公園
    緑町1-23-1:
      latlng: 34.97319911,137.05143829
      name:
      - 安城市立二本木小学校
    緑町1-29:
      latlng: 34.97228259,137.05329089
      name:
      - 安城市立二本木保育園運動場
    緑町1-6:
      latlng: 34.97520712,137.04737201
      name:
      - 緑公園
    緑町1丁目30番1:
      latlng: 34.97229091,137.05210768
      name:
      - 若葉公園
    緑町2-16:
      latlng: 34.97067718,137.04943018
      name:
      - 二本木公園
    美園町1-29:
      latlng: 34.97827897,137.04856075
      name:
      - 安城市立みその保育園
    美園町一丁目15:
      latlng: 34.97754572,137.04807470
      name:
      - 中根公園
    美園町二丁目25:
      latlng: ''
      name:
      - 坪田公園
    美園町二丁目8:
      latlng: ''
      name:
      - 美園公園
    藤井町東山106番1:
      latlng: ''
      name:
      - 藤井公園
    赤松町前川70番1:
      latlng: ''
      name:
      - 赤松農村公園
    赤松町大北103番地:
      latlng: 34.94788377,137.07002025
      name:
      - 愛知県立安城高等学校
    赤松町大北78ー1:
      latlng: 34.94572023,137.07236455
      name:
      - 総合福祉センター
    赤松町隅田川55:
      latlng: ''
      name:
      - 安城市立赤松保育園
    里町五郎兵衛18番1:
      latlng: ''
      name:
      - 里町公園
    里町北大道寺7-6:
      latlng: ''
      name:
      - 北大道寺公園
    里町北山畑3-1:
      latlng: 34.99240342,137.09349572
      name:
      - 大道なかよし公園
    里町山崎19:
      latlng: 34.99357811,137.08949324
      name:
      - 柿田公園
    里町山崎35:
      latlng: 34.99281989,137.09018762
      name:
      - 北部公民館
    里町東山1:
      latlng: 34.99432853,137.10056463
      name:
      - 安城市立東山中学校
    里町足取1-5:
      latlng: 34.99758351,137.09771503
      name:
      - 安城市立里町小学校
    里町足取3番86:
      latlng: ''
      name:
      - 石橋公園
    里町重原田23-1:
      latlng: 34.99648351,137.09423466
      name:
      - 重原田公園
    錦町123:
      latlng: ''
      name:
      - 錦公園
    錦町9-39:
      latlng: ''
      name:
      - 安城市立錦町小学校
    高棚町中敷173-2:
      latlng: ''
      name:
      - 高棚宮西公園
    高棚町茨池59番3:
      latlng: ''
      name:
      - 高棚農村公園
    高棚町蛭田44:
      latlng: 34.94478855,137.02746642
      name:
      - 安城市立高棚小学校
    高棚町郷181:
      latlng: 34.94227222,137.02363920
      name:
      - 安城市立高棚保育園運動場
  小牧市:
    下小針中島二丁目170:
      latlng: 35.26945372,136.90332491
      name:
      - 小牧市立北里中学校
    下小針中島二丁目50:
      latlng: 35.27063980,136.90519140
      name:
      - 小牧市立北里小学校
    中央五丁目339:
      latlng: 35.28530564,136.93710215
      name:
      - 小牧市立米野小学校
    光ヶ丘三丁目50:
      latlng: 35.30307490,136.99264925
      name:
      - 小牧市立光ヶ丘小学校
    光ヶ丘三丁目52:
      latlng: 35.30257220,136.99363254
      name:
      - 小牧市立光ヶ丘中学校
    城山三丁目8:
      latlng: 35.29350902,136.98919740
      name:
      - 小牧市立大城小学校
    堀の内四丁目30:
      latlng: 35.28740766,136.91212624
      name:
      - 小牧市立小牧中学校
    大字三ッ渕480:
      latlng: 35.29201769,136.89284456
      name:
      - 小牧市立三ッ渕小学校
    大字上末2233-2:
      latlng: 35.29291666,136.95500312
      name:
      - 小牧勤労センター
    大字上末3450-282:
      latlng: 35.29385293,136.96474669
      name:
      - 小牧市立陶小学校
    大字久保一色1129番2:
      latlng: 35.31734410,136.93983086
      name:
      - 愛知県立小牧養護学校
    大字久保一色3500:
      latlng: 35.31688544,136.93215386
      name:
      - 小牧市立一色小学校
    大字久保一色3737番1:
      latlng: 35.32038176,136.92719859
      name:
      - 愛知県立小牧工業高等学校
    大字小松寺366:
      latlng: 35.30790371,136.94327551
      name:
      - 小牧市立味岡中学校
    大字小松寺585-1:
      latlng: 35.30754536,136.94148125
      name:
      - 小牧市立味岡小学校
    大字小牧原新田1125:
      latlng: 35.30127030,136.92237761
      name:
      - 小牧市立小牧原小学校
    大字岩崎2588:
      latlng: 35.31110515,136.92283273
      name:
      - 小牧市立岩崎中学校
    大字本庄2597-40:
      latlng: 35.31232020,136.95304652
      name:
      - 小牧市立本庄小学校
    大字村中1045:
      latlng: 35.30674961,136.90685099
      name:
      - 小牧市立村中小学校
    大字西之島2200:
      latlng: 35.29120394,136.89672476
      name:
      - 小牧市立小牧西中学校
    小木東2丁目183番地:
      latlng: 35.27644176,136.90205810
      name:
      - 愛知県立小牧南高等学校
    小木西二丁目1:
      latlng: 35.27812193,136.89307828
      name:
      - 小牧市立小木小学校
    小牧1丁目321番地:
      latlng: 35.29297116,136.91875601
      name:
      - 愛知県立小牧高等学校
    小牧三丁目17:
      latlng: 35.29118813,136.92328075
      name:
      - 小牧市立小牧小学校
    小牧二丁目107:
      latlng: 35.29349345,136.92351674
      name:
      - 小牧市市民会館
    応時一丁目130:
      latlng: 35.28340298,136.93251928
      name:
      - 小牧市立応時中学校
    新小木一丁目73:
      latlng: ''
      name:
      - 小牧市さかき運動場
    新小木四丁目47番地:
      latlng: 35.27841913,136.88820651
      name:
      - 五条川左岸浄化センター
    桃ヶ丘二丁目1:
      latlng: 35.29695287,136.97877580
      name:
      - 小牧市立桃陵中学校
    桃ヶ丘二丁目3:
      latlng: 35.29804995,136.97717864
      name:
      - 小牧市立桃ヶ丘小学校
    篠岡二丁目25:
      latlng: 35.30442172,136.98310268
      name:
      - 小牧市立篠岡小学校
    篠岡二丁目28:
      latlng: 35.30549382,136.98243321
      name:
      - 小牧市立篠岡中学校
    若草町82:
      latlng: 35.27989492,136.92392292
      name:
      - 小牧市立小牧南小学校
    間々本町354:
      latlng: ''
      name:
      - 間々公園
  尾張旭市:
    上の山町間口2485:
      latlng: 35.20244731,137.03915091
      name:
      - 市民プール広場
    下井町前の上1602:
      latlng: 35.21017160,137.04514735
      name:
      - 東中学校体育館
    井田町一丁目24:
      latlng: ''
      name:
      - 井田公園
    井田町二丁目176:
      latlng: ''
      name:
      - 前の上公園
    井田町四丁目96:
      latlng: ''
      name:
      - 八反田公園
    北本地ヶ原町一丁目29:
      latlng: ''
      name:
      - 中畑公園
    北本地ヶ原町三丁目32:
      latlng: ''
      name:
      - 本地ヶ原公園
    北本地ヶ原町四丁目56:
      latlng: ''
      name:
      - 白山公園
    南新町中畑252:
      latlng: 35.19832249,137.03042427
      name:
      - 本地原小学校体育館
    南本地ヶ原町三丁目61:
      latlng: ''
      name:
      - 池の端公園
    南本地ヶ原町二丁目38:
      latlng: ''
      name:
      - 本地ヶ原南公園
    南栄町一丁目54:
      latlng: ''
      name:
      - 黒石公園
    南栄町旭ヶ丘173:
      latlng: 35.19605088,137.03843729
      name:
      - 新池公園
    南栄町旭ヶ丘地内:
      latlng: ''
      name:
      - 南グランド
    印場元町一丁目8-9:
      latlng: ''
      name:
      - 印場駅北公園
    印場元町三丁目9-1:
      latlng: ''
      name:
      - 北島公園
    吉岡町二丁目6:
      latlng: ''
      name:
      - 吉岡公園
    向町一丁目9-1:
      latlng: ''
      name:
      - 五反田公園
    向町三丁目12-4:
      latlng: ''
      name:
      - 西向公園
    向町二丁目4-2:
      latlng: 35.21576743,137.03280141
      name:
      - 旭中学校体育館
    向町二丁目4-6:
      latlng: ''
      name:
      - 東向公園
    向町四丁目8-4:
      latlng: ''
      name:
      - 石川公園
    城山町城山13-1:
      latlng: ''
      name:
      - 城山小学校体育館
    城山町城山19-1:
      latlng: 35.22434096,137.02785454
      name:
      - 長池上公園
    城山町長池下地内:
      latlng: ''
      name:
      - 城山野球場
    大久手町上切戸117-1:
      latlng: 35.22334485,137.04363637
      name:
      - 旭丘小学校体育館
    大塚町三丁目5:
      latlng: 35.20109951,137.01972535
      name:
      - 大塚公園
    大塚町二丁目10-1:
      latlng: 35.20158279,137.02038360
      name:
      - 瑞鳳小学校体育館
    平子ヶ丘町二丁目14:
      latlng: ''
      name:
      - とちの木公園
    庄中町二丁目11-1:
      latlng: ''
      name:
      - 南島公園
    庄南町一丁目14:
      latlng: 35.19579187,137.01788679
      name:
      - 庄南公園
    旭ヶ丘町濁池地内:
      latlng: ''
      name:
      - 旭ヶ丘運動広場
    旭台1丁目15:
      latlng: 35.22366221,137.05701575
      name:
      - 旭台第1号公園
    旭台2丁目7-1:
      latlng: ''
      name:
      - 旭台第2号公園
    旭台3丁目18:
      latlng: ''
      name:
      - 旭台第3号公園
    東三郷町280:
      latlng: ''
      name:
      - 角田公園
    東印場町一丁目14-1:
      latlng: ''
      name:
      - 二反田公園
    東印場町三丁目14-1:
      latlng: ''
      name:
      - 印場中央公園
    東印場町三丁目4番地1:
      latlng: 35.21082864,137.01921963
      name:
      - 愛知県立旭野高等学校
    東印場町三丁目5-3:
      latlng: ''
      name:
      - 越水公園
    東印場町二丁目8-3:
      latlng: ''
      name:
      - 一里山公園
    東名西町一丁目49:
      latlng: 35.20722605,137.00821536
      name:
      - 東名西公園
    東大久手町一丁目8-1:
      latlng: ''
      name:
      - 大久手西公園
    東大久手町二丁目11-1:
      latlng: ''
      name:
      - 大久手東公園
    東山町一丁目8:
      latlng: 35.19948299,137.01683125
      name:
      - 東山公園
    東本地ヶ原町二丁目112:
      latlng: 35.19896189,137.04484475
      name:
      - 晴丘運動広場
    東本地ヶ原町二丁目25:
      latlng: ''
      name:
      - 池上公園
    東本地ヶ原町四丁目27:
      latlng: ''
      name:
      - 本地ヶ原東公園
    東栄町一丁目14-1:
      latlng: ''
      name:
      - 出屋敷公園
    東栄町一丁目4-2:
      latlng: ''
      name:
      - 藤池公園
    東栄町三丁目4-1:
      latlng: ''
      name:
      - 東栄公園
    東栄町三丁目5-1:
      latlng: 35.22008467,137.05361597
      name:
      - 東栄小学校体育館
    根の鼻町一丁目18:
      latlng: ''
      name:
      - 旭根の鼻公園
    桜ヶ丘町一丁目93:
      latlng: ''
      name:
      - はんの木公園
    桜ヶ丘町二丁目46:
      latlng: ''
      name:
      - 桜ヶ丘公園
    渋川町一丁目4-1:
      latlng: ''
      name:
      - 渋川公園
    渋川町一丁目5-8:
      latlng: ''
      name:
      - 渋川小学校体育館
    渋川町三丁目2-9:
      latlng: 35.20570444,137.02110009
      name:
      - 西中学校体育館
    渋川町三丁目5-8:
      latlng: ''
      name:
      - 塚坪公園
    渋川町二丁目12-6:
      latlng: ''
      name:
      - 鳥居公園
    瀬戸川町一丁目122:
      latlng: 35.21167757,137.05741258
      name:
      - 三郷小学校体育館
    瀬戸川町一丁目146:
      latlng: ''
      name:
      - 四門公園
    瀬戸川町一丁目43:
      latlng: ''
      name:
      - 山の神公園
    瀬戸川町二丁目103:
      latlng: ''
      name:
      - 土井下公園
    狩宿新町一丁目27:
      latlng: ''
      name:
      - 狩宿新町第1号公園
    狩宿新町二丁目83:
      latlng: ''
      name:
      - 狩宿新町第2号公園
    狩宿新町二丁目96:
      latlng: ''
      name:
      - 下川原公園
    白鳳町一丁目11:
      latlng: ''
      name:
      - 白鳳公園
    白鳳町一丁目12:
      latlng: ''
      name:
      - 白鳳小学校体育館
    白鳳町二丁目42:
      latlng: ''
      name:
      - 北山公園
    西の野町五丁目1:
      latlng: ''
      name:
      - 旭小学校体育館
    西山町二丁目5:
      latlng: ''
      name:
      - 西山公園
  岡崎市:
    上六名三丁目3-7:
      latlng: 34.94729830,137.15718631
      name:
      - 勤労青少年ホーム
    上地三丁目31:
      latlng: 34.91293696,137.16983663
      name:
      - 上地小学校屋内運動場
    上里一丁目10:
      latlng: 34.99416287,137.16425945
      name:
      - 北中学校屋内運動場
    下青野町字井戸尻71:
      latlng: 34.91028116,137.12238937
      name:
      - 六ツ美中部小学校屋内運動場
    下青野町字井戸尻72:
      latlng: 34.90957846,137.12160890
      name:
      - 六ツ美中学校屋内運動場
    下青野町字天神64:
      latlng: 34.91318366,137.12685529
      name:
      - 六ツ美市民センター体育集会室
    中島町字下井ノ上9-1:
      latlng: 34.88903392,137.12461439
      name:
      - 六ツ美南部小学校屋内運動場
    中町字北野東20-1:
      latlng: 34.95972842,137.17891997
      name:
      - 甲山中学校屋内運動場
    丸山町字亀山9-1:
      latlng: 34.94049819,137.20760316
      name:
      - 畜産総合センター
    井内町字六反2:
      latlng: 34.91996641,137.14290301
      name:
      - 六ツ美北中学校屋内運動場
    井田町字茨坪4-3:
      latlng: 34.97539051,137.18016111
      name:
      - 井田小学校屋内運動場
    伊賀新町31-1:
      latlng: 34.97444052,137.17569211
      name:
      - 葵中学校屋内運動場
    六供町字出崎15-1:
      latlng: 34.96277774,137.16812106
      name:
      - 市民会館・甲山会館
    六名南一丁目2-1:
      latlng: 34.94113181,137.15090936
      name:
      - 六名学区市民ホーム会議室
    北野町字山下1-1:
      latlng: 34.98492932,137.13632390
      name:
      - 北野小学校屋内運動場
    千万町町字大平田17-5:
      latlng: 34.98239357,137.39235010
      name:
      - 愛知県野外教育センター
    土井町字炭焼2:
      latlng: 34.92241343,137.14091693
      name:
      - 六ツ美北部小学校屋内運動場
    城北町3-1:
      latlng: 34.96380789,137.15716341
      name:
      - 城北中学校屋内運動場
    城北町4:
      latlng: 34.96523553,137.15743000
      name:
      - 連尺小学校屋内運動場
    城南町一丁目11:
      latlng: 34.93405460,137.15393447
      name:
      - 城南小学校屋内運動場
    大和町字西島13:
      latlng: 34.94726365,137.12620851
      name:
      - 矢作南小学校屋内運動場
    大平町字中道17:
      latlng: 34.93998111,137.19703215
      name:
      - 男川小学校屋内運動場
    大平町字皿田6:
      latlng: 34.93831199,137.20040404
      name:
      - 大平市民センター体育集会室
    大門四丁目4-1:
      latlng: 34.98846877,137.15560768
      name:
      - 大門小学校屋内運動場
    奥殿町字仲西73-2:
      latlng: ''
      name:
      - 奥殿小学校屋内運動場
    宇頭町字長合40:
      latlng: 34.97316295,137.11797323
      name:
      - 矢作西小学校屋内運動場
    山綱町字天神2-9:
      latlng: 34.89734564,137.24213427
      name:
      - 東部市民センター体育集会室
    岡町字南石原30:
      latlng: 34.92944891,137.20293743
      name:
      - 美合小学校屋内運動場
    広幡町11-1:
      latlng: 34.96996012,137.16078236
      name:
      - 広幡小学校屋内運動場
    恵田町字三月ケ入71-1:
      latlng: 35.01014920,137.20981130
      name:
      - 恵田小学校屋内運動場
    戸崎町字藤狭13-5:
      latlng: 34.92889474,137.17299948
      name:
      - 小豆坂小学校屋内運動場
    戸崎町字野畔8-1:
      latlng: 34.93570227,137.16324185
      name:
      - 南中学校屋内運動場
    日名南町7番地:
      latlng: 34.96811571,137.15433286
      name:
      - 愛知県立岡崎西高等学校
    明大寺町字伝馬1番地:
      latlng: 34.94663791,137.17057680
      name:
      - 愛知県立岡崎高等学校
    明大寺町字栗林48-1:
      latlng: 34.94540446,137.16589116
      name:
      - 竜海中学校屋内運動場
    明大寺町字池上1:
      latlng: 34.94639914,137.17248495
      name:
      - 三島小学校屋内運動場
    暮戸町字蓮代18:
      latlng: 34.96698672,137.13003555
      name:
      - 矢作中学校屋内運動場
    朝日町三丁目36-5:
      latlng: 34.95367072,137.17678699
      name:
      - 岡崎市せきれいホール
    本宿町字三本松入14-1:
      latlng: 34.89599640,137.26308537
      name:
      - 本宿小学校屋内運動場
    本宿町字古新田11-1:
      latlng: 34.89148859,137.26389660
      name:
      - 本宿学区市民ホーム会議室
    東大友町字筆屋43-1:
      latlng: 34.97386702,137.13842060
      name:
      - 矢作北中学校屋内運動場
    東蔵前町字馬場5番地:
      latlng: 34.99933769,137.17376107
      name:
      - 愛知県立岩津高等学校
    栄町3丁目76番地:
      latlng: 34.94759368,137.17918410
      name:
      - 愛知県立岡崎商業高等学校
    桑原町字大沢20-86:
      latlng: 35.02499648,137.18353060
      name:
      - 新香山中学校屋内運動場
    橋目町字西遠山9-2:
      latlng: 34.98086326,137.13747641
      name:
      - 矢作北小学校屋内運動場
    欠町字栗宿18:
      latlng: 34.95143542,137.19443480
      name:
      - 県立愛知看護専門学校
    欠町字石ケ崎1-2:
      latlng: 34.95562086,137.18794385
      name:
      - 根石小学校屋内運動場
    生平町字鶸場25-1:
      latlng: 34.93673625,137.25694562
      name:
      - 生平小学校屋内運動場
    真伝町亀山12-2:
      latlng: 34.98072614,137.18848807
      name:
      - 愛知県岡崎総合運動場
    矢作町字切戸28:
      latlng: 34.96290196,137.14481719
      name:
      - 矢作東小学校屋内運動場
    矢作町尊所45-1:
      latlng: 34.96234897,137.14021495
      name:
      - 西部地域交流センター
    石神町17番1:
      latlng: 34.97127148,137.17728648
      name:
      - 愛知県立岡崎北高等学校
    福岡町字井杭3:
      latlng: 34.89763299,137.15641078
      name:
      - 福岡中学校屋内運動場
    福岡町字西市仲3:
      latlng: 34.90335162,137.15339982
      name:
      - 福岡小学校屋内運動場
    竜泉寺町字後山27番地:
      latlng: 34.91219769,137.20884572
      name:
      - 愛知県立岡崎東高等学校
    竜泉寺町字松本34-4:
      latlng: 34.90115659,137.20386061
      name:
      - 竜谷小学校屋内運動場
    竜美台一丁目1:
      latlng: 34.93891385,137.17429335
      name:
      - 竜美丘小学校屋内運動場
    竜美西1丁目11番5:
      latlng: 34.94085218,137.16729956
      name:
      - 愛知県立岡崎盲学校
    細川町字石田45:
      latlng: 35.02594864,137.17379284
      name:
      - 細川小学校屋内運動場
    緑丘二丁目17:
      latlng: 34.91655664,137.18026027
      name:
      - 竜南中学校屋内運動場
    美合町並松1-2:
      latlng: 34.92261533,137.19160303
      name:
      - 愛知県青年の家
    美合町並松1-51:
      latlng: 34.92362892,137.18715910
      name:
      - 愛知県立みあい養護学校
    美合町字並松1-2:
      latlng: 34.92261533,137.19160303
      name:
      - 農業大学校
    美合町字五本松68-1:
      latlng: 34.93081456,137.18425081
      name:
      - 総合検査センター多目的ホール
    美合町字平端24:
      latlng: 34.92610396,137.18977810
      name:
      - 愛知県立岡崎高等技術専門校
    美合町字沢渡12:
      latlng: 34.91883190,137.18702323
      name:
      - 緑丘小学校屋内運動場
    羽根町字池脇24-2:
      latlng: 34.92788868,137.16443100
      name:
      - 羽根小学校屋内運動場
    羽根町字貴登野15:
      latlng: 34.93022165,137.16002023
      name:
      - 南部市民センター体育集会室
    羽根町字陣場47番地:
      latlng: 34.92606977,137.17215248
      name:
      - 愛知県立岡崎工業高等学校
    羽根西新町5-3:
      latlng: 34.92681885,137.15454315
      name:
      - 南部市民センター分館体育集会室
    舞木町字天神越1:
      latlng: 34.89857322,137.24062880
      name:
      - 山中小学校屋内運動場
    藤川台三丁目112:
      latlng: ''
      name:
      - 藤川学区市民ホーム会議室
    藤川町西町北44:
      latlng: 34.91264830,137.21864178
      name:
      - 藤川小学校屋内運動場
    西蔵前町季平45-1:
      latlng: 34.99984857,137.17009194
      name:
      - 北部地域交流センター
    西阿知和町字御用田1番23:
      latlng: 34.99695757,137.17801927
      name:
      - 愛知県立岡崎聾学校
    赤渋町字道本33:
      latlng: 34.92878230,137.13708351
      name:
      - 六ツ美西部小学校屋内運動場
    針崎町字フロ1:
      latlng: 34.91712222,137.15288548
      name:
      - 岡崎小学校屋内運動場
    高隆寺町字峠1:
      latlng: 34.94738634,137.21309142
      name:
      - 中央総合公園総合体育館
    魚町一丁目4:
      latlng: 34.96035557,137.16041609
      name:
      - 連尺学区市民ホーム会議室
    鴨田町字広元31:
      latlng: 34.98328363,137.16448177
      name:
      - 大樹寺小学校屋内運動場
    鴨田町字田起64-18:
      latlng: 34.98258666,137.17003961
      name:
      - 大樹寺学区市民ホーム会議室
  岩倉市:
    下本町下寺廻107-1:
      latlng: 35.27363095,136.87538849
      name:
      - 岩倉市立下寺保育園
    下本町下市場128:
      latlng: ''
      name:
      - 岩倉市第三児童館
    中央町二丁目20:
      latlng: 35.27788883,136.86762499
      name:
      - 岩倉市地域交流センター(みどりの家)
    中本町西出口15-1:
      latlng: 35.28163830,136.87510476
      name:
      - 岩倉市地域交流センター(くすのきの家)
    八剱町下池田806-1:
      latlng: 35.28752370,136.87581834
      name:
      - 岩倉市多世代交流センター(さくらの家)
    北島町川田1番:
      latlng: 35.27804142,136.85377338
      name:
      - 愛知県立岩倉総合高等学校
    北島町権現山7番地1号:
      latlng: 35.26738112,136.84987506
      name:
      - 五条川右岸浄化センター
    大地町小森93-1:
      latlng: 35.27297825,136.86600053
      name:
      - 岩倉市立岩倉南小学校
    大地町郷前32:
      latlng: 35.27189783,136.86820319
      name:
      - 南部老人憩の家
    川井町江崎3819-1:
      latlng: 35.26523970,136.85121682
      name:
      - 希望の家
    旭町一丁目20:
      latlng: 35.27679727,136.87094704
      name:
      - 岩倉市保健センター
    昭和町二丁目17:
      latlng: 35.27381428,136.87347478
      name:
      - 岩倉市民プラザ
    曽野町井森1:
      latlng: 35.26734839,136.88011055
      name:
      - 岩倉市立曽野小学校
    曽野町江毛1:
      latlng: 35.27098121,136.88249624
      name:
      - 岩倉市立南部中学校
    本町南新溝廻間2:
      latlng: 35.28556841,136.87011327
      name:
      - 岩倉市立岩倉北小学校
    本町畑中65:
      latlng: 35.28550729,136.87296864
      name:
      - 岩倉市立中部保育園
    東新町南江迎24-5:
      latlng: ''
      name:
      - 岩倉市第五児童館
    東町掛目1:
      latlng: 35.28531279,136.88376780
      name:
      - 岩倉市立岩倉東小学校
    神野町郷浦18:
      latlng: 35.29526166,136.87408763
      name:
      - 岩倉市立五条川小学校
    稲荷町羽根24-3:
      latlng: 35.26873158,136.87153919
      name:
      - 岩倉市第四児童館
    西市町無量寺2-1:
      latlng: 35.28106066,136.86576660
      name:
      - 岩倉市ふれあいセンター
    西市町竹之宮24:
      latlng: 35.28089125,136.86313901
      name:
      - 岩倉市立岩倉中学校
    鈴井町下新田123:
      latlng: 35.28469908,136.86369985
      name:
      - 岩倉市総合体育文化センター
  常滑市:
    久米字諏訪山183番地:
      latlng: 34.92758170,136.85665273
      name:
      - 三和小学校
    井戸田町3丁目177番地:
      latlng: 34.87403295,136.85707286
      name:
      - 西浦北小学校
    住吉町2丁目56番地:
      latlng: 34.92474479,136.82565614
      name:
      - 鬼崎北小学校
    古場字栗下前5番地:
      latlng: 34.85802117,136.86271419
      name:
      - 西浦南小学校
    大塚町177番地:
      latlng: 34.93107504,136.84242096
      name:
      - 青海公民館
    大谷字井戸尻2番地の2:
      latlng: 34.83638541,136.86925569
      name:
      - 小鈴谷小学校
    大野町10丁目70番地:
      latlng: 34.93301025,136.82829461
      name:
      - 大野小学校
    字二ノ田16番地の14:
      latlng: 34.89917303,136.86089138
      name:
      - 常滑中学校
    明和町2丁目47番地:
      latlng: 34.90588401,136.83168632
      name:
      - 鬼崎南小学校
    本町3丁目136番地:
      latlng: 34.88433152,136.84275205
      name:
      - 常滑西小学校
    港町3丁目1番地:
      latlng: 34.90782489,136.82404266
      name:
      - 鬼崎中学校
    瀬木町4丁目100番地:
      latlng: 34.88882610,136.84869021
      name:
      - 常滑東小学校
    神明町3丁目35番地:
      latlng: 34.91551023,136.82831989
      name:
      - 鬼崎公民館
    苅屋字加茂30番地:
      latlng: ''
      name:
      - 南陵公民館
    苅屋町5丁目50番地:
      latlng: 34.85241533,136.86340868
      name:
      - 南陵中学校
    金山字下砂原78番地の1:
      latlng: 34.91603030,136.84029083
      name:
      - 常滑市体育館
    金山字南平井13番地の1:
      latlng: 34.92647296,136.83969077
      name:
      - 青海中学校
    金山字四井池10番:
      latlng: 34.91409446,136.83958259
      name:
      - 愛知県立常滑高等学校
  幸田町:
    坂崎字揚り山31番地:
      latlng: 34.89270058,137.17687819
      name:
      - 幸田町立坂崎小学校
    大字高力字神山78番:
      latlng: 34.88218271,137.16859608
      name:
      - 愛知県立幸田高等学校
    大草字三ツ石18番地:
      latlng: 34.87844757,137.17288822
      name:
      - 幸田町立幸田小学校
    横落字北門1番地:
      latlng: 34.86951273,137.17148222
      name:
      - 幸田町立中央小学校
    深溝字南道祖神11番地:
      latlng: 34.83470650,137.17538660
      name:
      - 幸田町立深溝小学校
    芦谷字東山1番地:
      latlng: 34.86025014,137.17334610
      name:
      - 幸田町立荻谷小学校
    野場字鶏嶋55番地:
      latlng: 34.86578776,137.15382043
      name:
      - 幸田町立豊坂小学校
  弥富市:
    上野町2-1:
      latlng: 35.04389285,136.78028708
      name:
      - 上野グランド
    上野町2-28:
      latlng: 35.04214584,136.78171754
      name:
      - 日光川下流浄化センター
    五之三川平三丁目1:
      latlng: ''
      name:
      - 川平北公園
    五之三川平三丁目151:
      latlng: ''
      name:
      - 五反波公園
    五之三川平二丁目199:
      latlng: ''
      name:
      - 川平南公園
    五明一丁目67:
      latlng: 35.11808600,136.71147321
      name:
      - 弥富市立西部保育所
    五明一丁目68:
      latlng: ''
      name:
      - 五明公園
    五明三丁目1:
      latlng: ''
      name:
      - 五月公園
    五明三丁目16:
      latlng: ''
      name:
      - 水明公園
    佐古木一丁目72:
      latlng: ''
      name:
      - 竜頭公園
    六條町大山94:
      latlng: 35.10676621,136.75196151
      name:
      - 弥富市立十四山西部小学校
    六條町大崎22番:
      latlng: 35.10332763,136.75567249
      name:
      - 愛知県立海翔高等学校
    前ケ須町南本田347:
      latlng: 35.10949852,136.72454214
      name:
      - 弥富市市民ホール
    前ケ須町野方732-26、中山町松山1-20:
      latlng: ''
      name:
      - 水郷公園
    前ケ須町野方802-1:
      latlng: 35.10525438,136.72208423
      name:
      - 弥富市立南部保育所
    前ケ須町野方802-20:
      latlng: 35.10523491,136.72138151
      name:
      - 弥富市総合社会教育センター
    前ヶ平2丁目49:
      latlng: 35.12881970,136.74547992
      name:
      - 農業総合試験場 演芸研究部特産野菜グループ
    前ヶ平三丁目198-1:
      latlng: ''
      name:
      - 楽荘公園
    前ヶ平二丁目1896-3:
      latlng: 35.12580889,136.74698002
      name:
      - 弥富市立白鳥小学校
    前ヶ須町南本田425:
      latlng: 35.10989845,136.72376721
      name:
      - 弥富市立桜小学校
    坂中地一丁目34:
      latlng: 35.11360731,136.75407750
      name:
      - 弥富市立十四山保育所
    境町307-1:
      latlng: 35.05772969,136.76448331
      name:
      - 弥富市立のびのび園
    大谷三丁目37:
      latlng: ''
      name:
      - 大谷公園
    子宝六丁目80:
      latlng: 35.10153890,136.76513836
      name:
      - 弥富市十四山総合福祉センター
    寛延二丁目17:
      latlng: 35.08423204,136.75115143
      name:
      - 弥富市立大藤保育所
    平島中二丁目59:
      latlng: ''
      name:
      - 平島北公園
    平島中四丁目266:
      latlng: 35.10750482,136.73982383
      name:
      - 弥富市立ひので保育所
    平島東三丁目139:
      latlng: ''
      name:
      - 平島東公園
    平島東三丁目155:
      latlng: ''
      name:
      - 作左山公園
    平島町喜右味名69-1:
      latlng: 35.11009055,136.73364380
      name:
      - 弥富市立桜保育所
    操出九丁目15:
      latlng: 35.06446541,136.78004546
      name:
      - 弥富市立栄南保育所
    東中地二丁目56:
      latlng: 35.12338410,136.74104750
      name:
      - 弥富市白鳥コミュニティセンター
    狐地二丁目163:
      latlng: 35.06892843,136.76894130
      name:
      - 弥富市立栄南小学校
    神戸三丁目20:
      latlng: 35.10017511,136.77336822
      name:
      - 弥富市十四山スポーツセンター
    神戸二丁目4:
      latlng: 35.10142222,136.77034344
      name:
      - 弥富市立十四山東部小学校
    稲吉一丁目31:
      latlng: 35.07898260,136.75439287
      name:
      - 弥富市農村環境改善センター
    稲狐町114:
      latlng: ''
      name:
      - 稲狐農村公園
    稲狐町151:
      latlng: 35.06692587,136.76726922
      name:
      - 弥富市南部コミュニティセンター
    芝井十四丁目1175:
      latlng: 35.08446812,136.74986265
      name:
      - 弥富市立大藤小学校
    荷之上町下り14-1:
      latlng: ''
      name:
      - 北西公園
    荷之上町川田56:
      latlng: 35.12749641,136.71583865
      name:
      - 弥富市農村多目的センター
    鍋田町稲山100:
      latlng: ''
      name:
      - 二葉グランド
    鎌倉町62:
      latlng: 35.11956489,136.73528178
      name:
      - 弥富市立弥富北中学校
    鎌島七丁目52-2:
      latlng: 35.09344505,136.74710431
      name:
      - 弥富市立弥富中学校
    駒野町3:
      latlng: ''
      name:
      - 亀の子グランド
    鯏浦町上巳52-1:
      latlng: 35.12113916,136.72330795
      name:
      - 弥富市立弥生保育所
    鯏浦町上本田95-1:
      latlng: 35.11950296,136.71918629
      name:
      - 弥富市総合福祉センター
    鯏浦町下与太142:
      latlng: 35.12155849,136.72184696
      name:
      - 弥富市立弥生小学校
    鯏浦町下六16:
      latlng: ''
      name:
      - 中六公園
    鯏浦町下本田11-2:
      latlng: ''
      name:
      - 中之割公園
    鯏浦町南前新田111:
      latlng: 35.11135399,136.72632796
      name:
      - 弥富市産業会館
    鳥ケ地一丁目176:
      latlng: 35.10118616,136.75867787
      name:
      - 弥富市立十四山中学校
  愛西市:
    内佐屋町河原136番地:
      latlng: 35.15557825,136.71645014
      name:
      - 佐屋西小学校
    勝幡町五俵入2227番地:
      latlng: 35.19638422,136.75031769
      name:
      - 勝幡小学校
    北河田町郷前406番地:
      latlng: 35.18794067,136.74282427
      name:
      - 北河田小学校
    善太新田町七草平111番地1:
      latlng: 35.13214116,136.75816179
      name:
      - 永和中学校
    大井町弥八115番地:
      latlng: 35.13341593,136.75995319
      name:
      - 永和小学校
    山路町小割7番地:
      latlng: 35.15243084,136.69650271
      name:
      - 立田南部小学校
    新右ェ門新田町郷前83番地:
      latlng: ''
      name:
      - 立田北部小学校
    東條町西田面77番地:
      latlng: 35.13756550,136.72613939
      name:
      - 市江小学校
    東條町高田39番地:
      latlng: 35.13688573,136.73234988
      name:
      - 愛知県立佐屋高等学校
    江西町川原11番地:
      latlng: 35.21997428,136.69928277
      name:
      - 八開中学校
    渕高町蔭島1番地:
      latlng: 35.21809554,136.72394455
      name:
      - 愛知県立佐織工業高等学校
    石田町宮東1番地:
      latlng: 35.17238672,136.69462975
      name:
      - 立田中学校(新)
    立石町宮西39番地:
      latlng: 35.21562998,136.69071718
      name:
      - 八輪小学校
    草平町北田名57番地:
      latlng: 35.19966960,136.71736799
      name:
      - 草平小学校
    草平町阿原86番地:
      latlng: 35.20610232,136.71917037
      name:
      - 佐織西中学校
    落合町上通21番地:
      latlng: 35.14770296,136.73931798
      name:
      - 親水公園芝生広場
      - 親水公園多目的広場
      - 親水公園総合体育館
    西川端町中東山37番地:
      latlng: 35.21757622,136.72221140
      name:
      - 愛知県立佐織養護学校
    西川端町寺東15番地:
      latlng: 35.21473489,136.71999779
      name:
      - 西川端小学校
    諏訪町郷東167番地:
      latlng: 35.19199564,136.74140205
      name:
      - 佐織中学校
    須依町東田面17番地:
      latlng: 35.15478730,136.72707146
      name:
      - 佐屋小学校
    須依町東田面2番地:
      latlng: 35.15474281,136.72598545
      name:
      - 佐屋中学校
    鵜多須町中道248番地:
      latlng: 35.22255147,136.70798198
      name:
      - 開治小学校
  扶桑町:
    南山名字宮西135:
      latlng: 35.36899418,136.90581787
      name:
      - 山名保育園
    南山名字山神前79:
      latlng: 35.37119945,136.90980635
      name:
      - 山名学習等供用施設
    南山名字山神浦152:
      latlng: 35.37091918,136.90581502
      name:
      - 山名小学校
    南山名字本郷185:
      latlng: 35.36917778,136.90295421
      name:
      - 山名西学習等供用施設
    大字高雄字柳前95番:
      latlng: 35.35093721,136.92519193
      name:
      - 愛知県立丹羽高等学校
    斉藤字山神102:
      latlng: ''
      name:
      - 斉藤学習等供用施設
    斉藤字県149:
      latlng: ''
      name:
      - 斉藤保育園
    柏森字丙寺裏40:
      latlng: 35.35184806,136.90349095
      name:
      - 柏森小学校
    柏森字中切254:
      latlng: 35.35396306,136.91102642
      name:
      - 保健センター
    柏森字中島293-1:
      latlng: 35.34466427,136.89505574
      name:
      - 柏森南保育園
    柏森字乙西屋敷69:
      latlng: 35.34883775,136.90127179
      name:
      - 柏森中央学習等供用施設
    柏森字辻田399:
      latlng: 35.35292810,136.90543521
      name:
      - 柏森保育園
    柏森字辻田473:
      latlng: 35.35230036,136.90574633
      name:
      - 柏森学習等供用施設
    柏森字辻田670:
      latlng: 35.35508009,136.90906263
      name:
      - 扶桑中学校
    高木字稲葉63:
      latlng: 35.36316031,136.91009276
      name:
      - 中央公民館
    高雄字北東川102:
      latlng: 35.36071753,136.92308614
      name:
      - 高雄保育園
    高雄字北東川73:
      latlng: 35.36111190,136.92171683
      name:
      - 高雄学習等供用施設
    高雄字北海道61:
      latlng: 35.36393752,136.92412753
      name:
      - 高雄小学校
    高雄字南屋敷205:
      latlng: 35.35378870,136.92090344
      name:
      - 高雄南保育園
    高雄字堂子276:
      latlng: 35.36482393,136.91492837
      name:
      - 高雄西学習等供用施設
    高雄字定松郷114-9:
      latlng: 35.35780648,136.91743127
      name:
      - 扶桑東学習等供用施設
    高雄字定松郷58:
      latlng: 35.35626731,136.91824517
      name:
      - 扶桑東小学校
    高雄字平塚370:
      latlng: ''
      name:
      - 総合体育館
    高雄字福塚10:
      latlng: 35.36433804,136.91131483
      name:
      - 扶桑北中学校
    高雄字福塚43:
      latlng: 35.36371847,136.91268695
      name:
      - 老人憩の家
  新城市:
    上吉田字乙新多43-1:
      latlng: 34.89648532,137.59908048
      name:
      - 森林・林業技術センター
    下吉田字紺屋平101番地:
      latlng: 34.90525665,137.60872919
      name:
      - 新城市立山吉田小学校
    作手杉平字本郷73番地:
      latlng: 34.94240787,137.45531151
      name:
      - 新城市立協和小学校
    作手清岳字ココメ沢9番地:
      latlng: 34.96819014,137.42240305
      name:
      - 新城市立巴小学校
    作手田原字朴橋3番地:
      latlng: 34.99050993,137.42733779
      name:
      - 新城市立開成小学校
    作手菅沼字マンゼ18番地:
      latlng: 35.03040374,137.46118972
      name:
      - 新城市作手農村集落多目的共同利用施設
      - 新城市立菅守小学校
    作手高松字柿平9番地7:
      latlng: 34.94770445,137.45500030
      name:
      - 新城市作手農村環境改善センター
    作手高里字ブック田5番地:
      latlng: 34.97991105,137.42383578
      name:
      - 新城市立作手中学校
    作手高里字木戸口1番2:
      latlng: 34.97768078,137.42585233
      name:
      - 愛知県立作手高等学校
    作手高里字縄手上60番地:
      latlng: 34.97602815,137.42339986
      name:
      - 新城市作手開発センター
    八束穂字四反田404番地2:
      latlng: ''
      name:
      - 新城市立東郷東小学校
    四谷字前田3番地2:
      latlng: 35.04416665,137.56222410
      name:
      - 新城市立連谷小学校
    大野字小林70番地:
      latlng: 34.94892914,137.60859973
      name:
      - 新城市立東陽小学校
    字東入船119番:
      latlng: 34.89902899,137.49791174
      name:
      - 新城市民体育館
    字滝ノ上1番地:
      latlng: 34.89905413,137.50146704
      name:
      - 新城市立新城中学校
    字西入船76番地:
      latlng: 34.89770412,137.49704239
      name:
      - 新城市立新城小学校
    富岡字半ノ木15番地1:
      latlng: 34.86162800,137.50617365
      name:
      - 新城市立八名小学校
    富岡字萩平野3番地:
      latlng: 34.86387216,137.50533199
      name:
      - 新城市立八名中学校
    川合字コシ75番地1:
      latlng: 35.00301657,137.66511302
      name:
      - 新城市立鳳来東小学校
    市場台1-10-9:
      latlng: ''
      name:
      - 新城市市場台北公園
    布里字小松ヶ根50番地:
      latlng: 34.98906331,137.52064010
      name:
      - 新城市立鳳来西小学校
    平井字東原37番地1:
      latlng: 34.90929217,137.50824404
      name:
      - 新城市立東郷西小学校
    庭野地内:
      latlng: ''
      name:
      - 新城市桜淵公園グラウンド
    庭野字川大田33番地:
      latlng: 34.88970229,137.49749821
      name:
      - 新城市立庭野小学校
    日吉字小袋13番地:
      latlng: 34.90259062,137.52368468
      name:
      - 新城市立舟着小学校
    有海字鳥影1番地2:
      latlng: ''
      name:
      - 新城市有海緑地公園
    杉山字前野4番地1:
      latlng: 34.89652876,137.48311553
      name:
      - 新城市立千郷小学校
    杉山字道目記24番地:
      latlng: 34.89628432,137.48211007
      name:
      - 新城市立千郷中学校
    桜渕中野合併地:
      latlng: ''
      name:
      - 愛知県立新城高等学校
    浅谷字ヒヨイタ40番地:
      latlng: 34.93571777,137.53823499
      name:
      - 新城総合公園
    玖老勢字大栗平1番地:
      latlng: 34.97865215,137.56180533
      name:
      - 新城市立鳳来寺小学校
    矢部字広見100番地:
      latlng: 34.91410550,137.50755232
      name:
      - 愛知県立新城東高等学校
    竹広字宮川162番地2:
      latlng: ''
      name:
      - 新城市立東郷中学校
    豊島字馬渡11番地2:
      latlng: 34.88083312,137.46686194
      name:
      - 新城市立千郷西保育園
    長篠字下り筬1番地2:
      latlng: 34.93356339,137.57467324
      name:
      - 新城市鳳来総合支所
      - 新城市鳳来開発センター
    長篠字仲野1番地:
      latlng: 34.93573534,137.57437040
      name:
      - 新城市立鳳来中学校
    長篠字竹田14番地:
      latlng: 34.93149958,137.56781012
      name:
      - 新城市立鳳来中部小学校
    黄柳野字池田684番地23:
      latlng: 34.87470138,137.57931617
      name:
      - 新城市立黄柳野小学校
  日進市:
    北新町二段場920番地の8:
      latlng: 35.15634008,137.05720009
      name:
      - 相野山福祉会館
    北新町相野山1331番地の1:
      latlng: 35.15259887,137.05870290
      name:
      - 日進市立相野山小学校
    北新町西口論義323-8:
      latlng: 35.16474712,137.04885628
      name:
      - 愛知県口論義運動公園
    岩崎町兼場96番地の1:
      latlng: ''
      name:
      - 日進市立日進中学校第2グラウンド
    岩崎町大塚1034番地:
      latlng: 35.14324130,137.04319660
      name:
      - 北部福祉会館
    岩崎町市場67番地:
      latlng: 35.14508551,137.04254660
      name:
      - 岩崎城歴史記念館
    岩崎町芝内2番地の1:
      latlng: 35.14950184,137.04800672
      name:
      - 日進市立北小学校
    岩藤町大清水919番地の1:
      latlng: 35.14684439,137.07047977
      name:
      - 日進市総合運動公園
    折戸町中屋敷70番地の3:
      latlng: 35.12430484,137.04495805
      name:
      - 日進市立南小学校
    折戸町寺脇123番地の6:
      latlng: 35.12320500,137.04506360
      name:
      - 南部福祉会館
    折戸町梨子ノ木28番地の31:
      latlng: 35.12060015,137.05740395
      name:
      - 日進市立梨の木小学校
    本郷町西原中通980番地:
      latlng: 35.13585874,137.03990014
      name:
      - 日進市立日進中学校
    栄四丁目1002番地の2:
      latlng: 35.12041677,137.05453757
      name:
      - にっしん子育て総合支援センター
    梅森町向江1597番地:
      latlng: 35.12952313,137.01756128
      name:
      - 日進市立日進西中学校
    浅田町上小深田8番4:
      latlng: 35.12029950,137.03312910
      name:
      - 愛知県立日進西高等学校
    浅田町東田面76番地:
      latlng: 35.12866772,137.02888232
      name:
      - 日進市立西小学校
    浅田町西田面155番地1:
      latlng: 35.12577641,137.01638364
      name:
      - 上納池スポーツ公園
    米野木町三ヶ峯4番18:
      latlng: 35.14586210,137.09321088
      name:
      - 愛知県立日進高等学校
    米野木町仲田35番地の23:
      latlng: 35.13294864,137.06153106
      name:
      - 東部福祉会館
    米野木町北畑8番地の3:
      latlng: 35.13758422,137.06391405
      name:
      - 日進市立東小学校
    藤島町相山77番地:
      latlng: 35.13647578,137.05618155
      name:
      - 日進市立東中学校
    蟹甲町家布58番地の1:
      latlng: 35.12966779,137.03945042
      name:
      - 日進市スポーツセンター
    蟹甲町池下277番地1:
      latlng: ''
      name:
      - にぎわい交流館
    赤池三丁目101番地7:
      latlng: ''
      name:
      - 日進市立赤池小学校
    赤池町下郷208番地:
      latlng: 35.12686236,137.01394499
      name:
      - むつみ会館
    赤池町下郷222番地:
      latlng: 35.12611802,137.01456438
      name:
      - 西部福祉会館
    香久山五丁目1701番地:
      latlng: 35.14212441,137.02868747
      name:
      - 日進市立香久山小学校
    香久山四丁目201番地の14:
      latlng: 35.14410750,137.02867074
      name:
      - 岩崎台・香久山福祉会館
  春日井市:
    上田楽町1958番地1:
      latlng: ''
      name:
      - 上田楽運動広場
    下市場町2丁目5番地:
      latlng: 35.26171026,137.00043452
      name:
      - 下市場公園
    下条町1丁目4番地:
      latlng: ''
      name:
      - 西津公園
    下条町2丁目8番地:
      latlng: ''
      name:
      - 下中公園
    下条町3丁目7番地:
      latlng: ''
      name:
      - 下条公園
    下条町666番地6:
      latlng: 35.22730554,136.97607350
      name:
      - 南部ふれあいセンター
    不二ガ丘2丁目49番地:
      latlng: ''
      name:
      - 出川公園
    中切町2丁目3番8号:
      latlng: 35.22654450,136.97257659
      name:
      - 愛知県立春日井高等養護学校
    中切町2丁目7番地:
      latlng: 35.22547809,136.97364321
      name:
      - 中切公園
    中央台2丁目2番地1:
      latlng: 35.28619860,137.04883094
      name:
      - 東部市民センター
    中央台8丁目3番地:
      latlng: 35.28391566,137.05150292
      name:
      - 春日井市立中央台小学校
    中新町1丁目18番地:
      latlng: ''
      name:
      - 戸田公園
    中新町2丁目20番地1:
      latlng: ''
      name:
      - 春日山公園
    乙輪町3丁目2番地:
      latlng: ''
      name:
      - 乙輪公園
    二子町2丁目11番地1:
      latlng: ''
      name:
      - 二子山公園
    八田町2丁目39番地:
      latlng: ''
      name:
      - 八田地区ふれあい広場
    六軒屋町5丁目177番地:
      latlng: 35.25783926,136.97760561
      name:
      - 六軒屋公園
    六軒屋町西1丁目15番地1:
      latlng: 35.25828009,136.97083098
      name:
      - 春日井市立丸田小学校
    出川町3丁目14番地1:
      latlng: 35.26687163,137.02512391
      name:
      - 春日井市立不二小学校
    出川町5丁目33番地:
      latlng: 35.26415514,137.02172156
      name:
      - 出川南公園
    出川町8丁目3番地1:
      latlng: 35.26405491,137.01443047
      name:
      - 春日井市立出川小学校
    勝川新町1丁目49番地:
      latlng: 35.23328965,136.94877531
      name:
      - 春日井市立山王小学校
    勝川新町3丁目100番地:
      latlng: ''
      name:
      - 川添公園
    勝川町1丁目3番地1:
      latlng: 35.22023383,136.94519556
      name:
      - 地蔵ケ池公園
    勝川町3丁目48番地:
      latlng: 35.22732707,136.95478621
      name:
      - 勝川公園
    勝川町5丁目107番地:
      latlng: ''
      name:
      - 勝川北山公園
    味美町3丁目41番地:
      latlng: 35.23651412,136.94310344
      name:
      - 春日井市立味美小学校
    味美白山町2丁目3番地1:
      latlng: 35.23120428,136.93154075
      name:
      - 春日井市立白山小学校
    坂下町4丁目250番地1:
      latlng: 35.29313531,137.02160308
      name:
      - 坂下公民館
    坂下町5丁目324番地:
      latlng: 35.29169399,137.02568053
      name:
      - 春日井市立坂下小学校
    坂下町7丁目760番地978:
      latlng: ''
      name:
      - かすが台中央公園
    堀ノ内町2丁目7番地:
      latlng: 35.25640570,137.00715083
      name:
      - 堀ノ内公園
    大和通1丁目7番地2:
      latlng: ''
      name:
      - 大和公園
    大手田酉町1丁目24番地:
      latlng: 35.26027061,136.95776513
      name:
      - 田酉公園
    大手町1丁目20番地:
      latlng: 35.26924265,136.95630670
      name:
      - 泉公園
    大手町3丁目24番地1:
      latlng: 35.26397051,136.95842887
      name:
      - 春日井市立大手小学校
    大泉寺町1059ー1:
      latlng: 35.26620688,137.00106199
      name:
      - 愛知県立春日井商業高等学校
    如意申町1丁目8番地1:
      latlng: 35.24608175,136.94241982
      name:
      - 春日井市立松山小学校
    如意申町3丁目4番地1:
      latlng: ''
      name:
      - 如意申公園
    如意申町3丁目5番地1:
      latlng: 35.24647307,136.94674717
      name:
      - 愛知県立春日井南高等学校
    如意申町5丁目5番地1:
      latlng: ''
      name:
      - 原田公園
    妙慶町123番地1:
      latlng: ''
      name:
      - 妙慶公園
    宮町3丁目8番地2:
      latlng: 35.25381086,136.94502207
      name:
      - 西部ふれあいセンター
    宮町字宮町3番地:
      latlng: 35.25333357,136.93945875
      name:
      - 春日井市立春日井小学校
    小野町2丁目64番地:
      latlng: ''
      name:
      - はなのき公園
    小野町3丁目53番地:
      latlng: ''
      name:
      - 巾川公園
    小野町5丁目70番地:
      latlng: 35.22913254,136.96608251
      name:
      - 春日井市立小野小学校
    岩成台10丁目11番地:
      latlng: 35.27759056,137.03751628
      name:
      - 岩成公園
    岩成台6丁目3番地:
      latlng: 35.27611902,137.04574858
      name:
      - 春日井市立岩成台小学校
    岩成台8丁目1番地:
      latlng: 35.27869044,137.03733845
      name:
      - 春日井市立岩成台西小学校
    廻間町字神屋洞703番地73:
      latlng: ''
      name:
      - 愛知県立春日井東高等学校
    弥生町2丁目70番地:
      latlng: 35.24305530,136.97742561
      name:
      - 弥生公園
    弥生町5277番地:
      latlng: 35.23992281,136.98054496
      name:
      - 春日井市立上条小学校
    惣中町2丁目97番地:
      latlng: 35.22979039,136.94660340
      name:
      - 寺地公園
    押沢台2丁目7番地:
      latlng: 35.28389128,137.06545657
      name:
      - 春日井市立押沢台小学校
    押沢台6丁目9番地:
      latlng: 35.28060841,137.06665939
      name:
      - 押沢公園
    明知町463番地1:
      latlng: 35.31190620,137.03991394
      name:
      - 市民球場
    春見町23番地:
      latlng: 35.24916792,136.97527273
      name:
      - 春見公園
    春見町23番地2:
      latlng: 35.24916792,136.97527273
      name:
      - 春日井市立八幡小学校
    月見町45番地:
      latlng: 35.24036643,136.97168719
      name:
      - 春日井市立鳥居松小学校
    朝宮公園から落合公園までの区間:
      latlng: ''
      name:
      - ふれあい緑道
    朝宮町4丁目1番2:
      latlng: 35.25669835,136.95991778
      name:
      - 朝宮公園
    東山町3丁目2345番地1549:
      latlng: ''
      name:
      - 桃花園中央公園
    東野町1丁目9番地:
