千葉:
  いすみ市:
    下布施2187番地2:
      latlng: 35.23148831,140.35142565
      name:
      - いすみ市布施公民館
    国府台1552:
      latlng: 35.28498492,140.31317407
      name:
      - いすみ市立国吉中学校
    大原10774番地:
      latlng: 35.24717173,140.40072094
      name:
      - いすみ市大原公園
    大原1595番地:
      latlng: 35.23767854,140.39225195
      name:
      - いすみ市立第2保育所
    大原6588:
      latlng: ''
      name:
      - いすみ市大原グランド
    大原6763番地:
      latlng: 35.24547220,140.38210582
      name:
      - いすみ市農村環境改善センター
    大原7400番地1:
      latlng: 35.25396014,140.38456133
      name:
      - いすみ市役所大原庁舎
    大原7400番地12:
      latlng: 35.25355748,140.38069501
      name:
      - いすみ市立大原中学校
    大原7838番地:
      latlng: 35.24827735,140.38653606
      name:
      - いすみ市大原文化センター
    大原7985番地:
      latlng: 35.24553316,140.38749982
      name:
      - 千葉県立大原高等学校
    大原8530番地3:
      latlng: 35.24539144,140.39001073
      name:
      - いすみ市立大原小学校
    大原9942番地:
      latlng: 35.25254615,140.39725745
      name:
      - いすみ市立第3保育所
    大原台323番地:
      latlng: 35.20514988,140.36408745
      name:
      - いすみ市立浪花保育所
    小沢1157番地:
      latlng: 35.22263068,140.38476312
      name:
      - いすみ市立浪花小学校
    山田460番地:
      latlng: 35.26070440,140.33504995
      name:
      - いすみ市立東小学校
    山田478番地1:
      latlng: 35.25998504,140.33627759
      name:
      - いすみ市立東保育所
    岬町中滝954:
      latlng: 35.29873270,140.37297677
      name:
      - いすみ市立中根小学校
    岬町中滝980:
      latlng: 35.29953540,140.37324063
      name:
      - いすみ市立中根保育所
    岬町岩熊563:
      latlng: 35.32026426,140.34068434
      name:
      - いすみ市立古沢小学校
    岬町岩熊573:
      latlng: 35.32054478,140.34118708
      name:
      - いすみ市立古沢保育所
    岬町東中滝720番地1:
      latlng: 35.30112411,140.38776713
      name:
      - いすみ市岬ふれあい会館
    岬町椎木1278:
      latlng: 35.31833924,140.37398485
      name:
      - いすみ市みさき児童館
    岬町椎木1370:
      latlng: 35.32044460,140.37614577
      name:
      - いすみ市立岬中学校
    岬町椎木1417:
      latlng: 35.32180005,140.37625408
      name:
      - いすみ市立太東保育所
    岬町椎木408:
      latlng: 35.31891684,140.38695327
      name:
      - いすみ市立太東小学校
    岬町長者22:
      latlng: 35.29949654,140.38462852
      name:
      - いすみ市岬町公民館
    岬町長者330:
      latlng: 35.29568028,140.39303330
      name:
      - いすみ市立長者保育所
      - いすみ市立長者小学校
    岬町長者366番地:
      latlng: 35.29768006,140.38981415
      name:
      - 千葉県立岬高等学校
    松丸3226:
      latlng: 35.31184039,140.32404444
      name:
      - いすみ市立千町小学校
    楽町30番地1:
      latlng: 35.28717364,140.31747921
      name:
      - 千葉県立夷隅特別支援学校
    深谷127:
      latlng: 35.28889003,140.31327958
      name:
      - いすみ市立国吉小学校
    若山1042番地:
      latlng: 35.26423970,140.38490868
      name:
      - いすみ市立東海小学校
    若山238番地1:
      latlng: 35.26337306,140.38735012
      name:
      - いすみ市立東海保育所
    行川506番地5:
      latlng: 35.28466825,140.28087154
      name:
      - いすみ市立中川小学校
    行川721番地1:
      latlng: 35.28371280,140.28244363
      name:
      - いすみ市夷隅地区多目的研修センター
  一宮町:
    一宮2460:
      latlng: 35.37208398,140.36853654
      name:
      - 一宮町中央公民館
    一宮2461:
      latlng: 35.37240894,140.36851709
      name:
      - 一宮町保健センター
    一宮3287番地:
      latlng: 35.37540825,140.35905703
      name:
      - 千葉県立一宮商業高等学校
    一宮3351:
      latlng: 35.37358633,140.36155956
      name:
      - 一宮町立一宮小学校
    一宮3404:
      latlng: 35.37286141,140.36139293
      name:
      - 一宮町振武館
    一宮5052:
      latlng: 35.37524988,140.35589072
      name:
      - 一宮町立一宮中学校
    一宮5072:
      latlng: 35.37398334,140.35466312
      name:
      - 一宮町GSSセンター
    東浪見1516ー2:
      latlng: 35.34890063,140.37961362
      name:
      - 一宮町立東浪見小学校
    東浪見6767番地7:
      latlng: 35.35901074,140.38691542
      name:
      - 千葉県立長生特別支援学校
  九十九里町:
    不動堂126:
      latlng: 35.51768762,140.41619712
      name:
      - つくも学遊館
    不動堂161-1:
      latlng: 35.51914578,140.41569714
      name:
      - 九十九里町立豊海幼稚園
    不動堂306:
      latlng: 35.51737370,140.41853559
      name:
      - 九十九里町立豊海小学校
    作田1681:
      latlng: 35.55423742,140.45426757
      name:
      - ちどりの里
    小関1797-1:
      latlng: 35.54769624,140.44487417
      name:
      - 九十九里町立九十九里小学校
    片貝1899-4:
      latlng: 35.53743279,140.42356014
      name:
      - 九十九里町立九十九里中学校
    片貝1910番地:
      latlng: 35.53885481,140.42189649
      name:
      - 千葉県立九十九里高等学校
    片貝2915:
      latlng: 35.53535865,140.44139958
      name:
      - 九十九里町立中央公民館
    片貝3193:
      latlng: 35.53480576,140.43801940
      name:
      - 九十九里町立片貝小学校
    片貝4268:
      latlng: 35.53823053,140.44105795
      name:
      - 九十九里町立片貝幼稚園
  佐倉市:
    ユーカリが丘5丁目5番1号:
      latlng: 35.73796534,140.15676389
      name:
      - 佐倉市立小竹小学校
    上座1156番地2:
      latlng: 35.72585300,140.16201714
      name:
      - 佐倉市立志津小学校
    上志津1752番地:
      latlng: 35.71512864,140.14993350
      name:
      - 佐倉市立上志津小学校
    上志津866番地:
      latlng: 35.70543510,140.14975405
      name:
      - 佐倉市立上志津中学校
    下志津263番地:
      latlng: 35.71776532,140.17028068
      name:
      - 千葉県立佐倉西高等学校
    下志津原164番地2:
      latlng: 35.70375498,140.15588393
      name:
      - 佐倉市立南志津小学校
    中志津4丁目26番10号:
      latlng: 35.70911845,140.15821361
      name:
      - 佐倉市立下志津小学校
    井野1376番地:
      latlng: 35.72383053,140.14760221
      name:
      - 佐倉市立志津中学校
    井野834番地:
      latlng: ''
      name:
      - 佐倉市立井野小学校
    印南223番地1:
      latlng: 35.72675951,140.20716831
      name:
      - 佐倉市立印南小学校
    吉見553番地:
      latlng: 35.71071689,140.18824266
      name:
      - 佐倉市立千代田小学校
    城454番地:
      latlng: 35.69323717,140.23137447
      name:
      - 佐倉市立根郷小学校
    城内町117番地10:
      latlng: 35.71988637,140.22280290
      name:
      - 佐倉市立佐倉中学校
    城内町278番地:
      latlng: 35.71853647,140.22091419
      name:
      - 千葉県立佐倉東高等学校
    大崎台4丁目4番地1:
      latlng: 35.70578794,140.21826739
      name:
      - 佐倉市立寺崎小学校
    太田1956番地:
      latlng: 35.69771106,140.21471516
      name:
      - 千葉県立佐倉南高等学校
    宮ノ台1丁目17番1号:
      latlng: 35.74621417,140.15007217
      name:
      - 佐倉市立青菅小学校
    宮ノ台3丁目9番1号:
      latlng: 35.74146473,140.14656721
      name:
      - 佐倉市立井野中学校
    将門町7番地:
      latlng: 35.72562506,140.24632872
      name:
      - 佐倉市立佐倉東小学校
    山王1丁目44番地:
      latlng: 35.68758433,140.20769140
      name:
      - 佐倉市立山王小学校
    山王2丁目37番地1:
      latlng: 35.68527102,140.21596824
      name:
      - 佐倉市立根郷中学校
    岩名870番地:
      latlng: 35.73741717,140.22311677
      name:
      - 佐倉市立内郷小学校
    岩富町145番地:
      latlng: 35.64971213,140.23726272
      name:
      - 佐倉市立弥富小学校
    新町78番地4:
      latlng: 35.72088917,140.23406316
      name:
      - 佐倉市立佐倉小学校
    染井野1丁目19番地:
      latlng: 35.72174899,140.19854961
      name:
      - 佐倉市立染井野小学校
    染井野4丁目1番地:
      latlng: 35.71664390,140.18873405
      name:
      - 佐倉市立臼井南中学校
    王子台2丁目18番地:
      latlng: 35.72743412,140.18683379
      name:
      - 佐倉市立間野台小学校
    王子台5丁目19番地:
      latlng: 35.72370371,140.17515748
      name:
      - 佐倉市立王子台小学校
    白銀1丁目4番地:
      latlng: 35.71490980,140.24720355
      name:
      - 佐倉市立白銀小学校
    直弥59番地1:
      latlng: 35.69569033,140.25883612
      name:
      - 佐倉市立和田小学校
    神門432番地1:
      latlng: 35.67928070,140.23695183
      name:
      - 佐倉市立南部中学校
    臼井1530番地:
      latlng: 35.73047272,140.19182765
      name:
      - 佐倉市立臼井中学校
    臼井台1588番地:
      latlng: 35.73556051,140.17046841
      name:
      - 佐倉市立臼井西中学校
    臼井田2395番地:
      latlng: 35.73660789,140.18266425
      name:
      - 佐倉市立臼井小学校
    西志津4丁目18番1号:
      latlng: 35.71102589,140.14102959
      name:
      - 佐倉市立西志津中学校
    西志津7丁目2番1号:
      latlng: 35.70582348,140.13868332
      name:
      - 佐倉市立西志津小学校
    鍋山町18番地:
      latlng: 35.72300838,140.23647686
      name:
      - 千葉県立佐倉高等学校
    馬渡829番地:
      latlng: 35.67123437,140.22650385
      name:
      - 佐倉市立馬渡保育園
    高岡423番地1:
      latlng: 35.71318204,140.23864876
      name:
      - 佐倉市立佐倉東中学校
  八千代市:
    ゆりのき台3丁目7番地3:
      latlng: 35.72942846,140.10003802
      name:
      - 八千代市立萱田南小学校
    ゆりのき台6丁目20番地:
      latlng: 35.73533357,140.10550022
      name:
      - 八千代市立萱田小学校
    ゆりのき台7丁目8番地1:
      latlng: 35.73665287,140.10222833
      name:
      - 八千代市立萱田中学校
    上高野640番地2:
      latlng: 35.73770961,140.13721811
      name:
      - 八千代市ふれあいプラザ
    保品1060番地2:
      latlng: 35.76009553,140.14291367
      name:
      - 八千代市少年自然の家
    八千代台北14丁目9番地1:
      latlng: 35.71239668,140.09644277
      name:
      - 八千代市立八千代中学校
    八千代台北3丁目9番地1:
      latlng: 35.70413079,140.09182964
      name:
      - 八千代台第1公園
    八千代台南1丁目11番地6:
      latlng: 35.69973953,140.08930780
      name:
      - 八千代市立八千代台東南公民館
    八千代台南3丁目:
      latlng: 35.69581682,140.08768863
      name:
      - 八千代台南市民の森
    八千代台東2丁目5番地1:
      latlng: 35.69860370,140.09573504
      name:
      - 八千代市立八千代台東小学校
    八千代台東6丁目26番地1:
      latlng: 35.70585031,140.10283968
      name:
      - 八千代市立八千代台東第二小学校
    八千代台西1丁目8番地:
      latlng: 35.70193650,140.08824115
      name:
      - 八千代市立八千代台小学校
      - 八千代市立八千代台公民館
    八千代台西7丁目23番地1:
      latlng: 35.70310296,140.08476919
      name:
      - 八千代市立八千代台西小学校
    八千代台西7丁目23番地3:
      latlng: 35.70089200,140.08050021
      name:
      - 八千代市立八千代台西中学校
    八千代台西9丁目:
      latlng: 35.69616257,140.08269487
      name:
      - 八千代台西市民の森
    勝田735番地7:
      latlng: 35.70438439,140.12807076
      name:
      - 八千代市立勝田台公民館
    勝田台2丁目14番地:
      latlng: 35.71146152,140.12803948
      name:
      - 八千代市立勝田台小学校
    勝田台3丁目1番地:
      latlng: 35.70686464,140.12482082
      name:
      - 八千代市立勝田台中学校
    勝田台3丁目31番地:
      latlng: 35.70807296,140.12880642
      name:
      - 勝田台中央公園
    勝田台5丁目9番地:
      latlng: 35.70574824,140.13180916
      name:
      - 八千代市立勝田台南小学校
    勝田台南一丁目1番1号:
      latlng: 35.71436384,140.12171212
      name:
      - 千葉県立八千代高等学校
    吉橋2405番地1:
      latlng: 35.74516565,140.07582293
      name:
      - 千葉県立八千代西高等学校
    吉橋3088番地4:
      latlng: 35.74247385,140.06672173
      name:
      - 千葉県立八千代特別支援学校
    大和田628番地:
      latlng: 35.71410772,140.10115615
      name:
      - 八千代市立大和田南小学校
    大和田792番地:
      latlng: 35.71894614,140.10238634
      name:
      - 八千代市立大和田公民館
    大和田新田312番地5:
      latlng: 35.72216246,140.10021949
      name:
      - 八千代市福祉センター
    大和田新田409番地3:
      latlng: 35.72633965,140.09087285
      name:
      - 八千代市立大和田西小学校
    島田台756番地:
      latlng: 35.75692915,140.08760859
      name:
      - 八千代市立睦中学校
      - 八千代市立睦公民館
    村上1113番地1:
      latlng: 35.72993198,140.12332648
      name:
      - 八千代市立村上東小学校
      - 八千代市立村上小学校
      - 八千代市立村上北小学校
      - 八千代市立村上東中学校
      - 八千代市立村上公民館
    村上1643番地55:
      latlng: 35.72579612,140.12104407
      name:
      - 八千代市立村上中学校
    村上881番地1:
      latlng: 35.73524266,140.12372012
      name:
      - 千葉県立八千代東高等学校
    桑納176番地:
      latlng: 35.75735977,140.09787687
      name:
      - 八千代市立睦小学校
    米本1359番地:
      latlng: 35.75544902,140.11330588
      name:
      - 八千代市立阿蘇公民館
    米本1386番地6:
      latlng: 35.76222881,140.11166930
      name:
      - 八千代市立米本小学校
    米本1914番地:
      latlng: 35.74513062,140.12378305
      name:
      - 八千代市立阿蘇中学校
    米本2301番地:
      latlng: 35.75329368,140.11745552
      name:
      - 八千代市立米本南小学校
    米本2586番地:
      latlng: 35.74803306,140.12132203
      name:
      - 八千代市立阿蘇小学校
    緑が丘2丁目4番地:
      latlng: 35.72604200,140.07173079
      name:
      - 八千代市立新木戸小学校
    萱田町628番地:
      latlng: 35.72116536,140.10203892
      name:
      - 八千代市立大和田小学校
    萱田町645番地:
      latlng: 35.72178756,140.10379146
      name:
      - 八千代市立大和田中学校
    萱田町地内:
      latlng: ''
      name:
      - 八千代総合運動公園
    高津1092番地:
      latlng: 35.71910698,140.09028463
      name:
      - 八千代市立東高津中学校
    高津421番地3:
      latlng: 35.71657095,140.08170507
      name:
      - 八千代市立南高津小学校
    高津738番地6:
      latlng: 35.71937621,140.08150219
      name:
      - 八千代市立高津小学校
    高津832番地1:
      latlng: 35.71808186,140.07978299
      name:
      - 八千代市立高津公民館
    高津832番地38:
      latlng: 35.71810118,140.07416135
      name:
      - 八千代市立西高津小学校
    高津880番地4:
      latlng: 35.72097879,140.07938290
      name:
      - 八千代市立高津中学校
  八街市:
    八街い213番地:
      latlng: 35.65203093,140.28902099
      name:
      - 八街市中央公民館松林分館
    八街い55番地:
      latlng: 35.65323678,140.26523696
      name:
      - 神田集会場
    八街い84番地10:
      latlng: 35.64897329,140.27584447
      name:
      - 八街市スポーツプラザ
    八街に112番地:
      latlng: 35.65873098,140.32040760
      name:
      - 八街市立八街保育園
    八街は12番地:
      latlng: 35.69769700,140.30820183
      name:
      - 八街市中央公民館住野分館
    八街は18番地2:
      latlng: 35.69135302,140.30473018
      name:
      - 八街市立八街北中学校
    八街は19番地2:
      latlng: 35.69162255,140.30798544
      name:
      - 八街市立朝陽小学校
    八街は21番地:
      latlng: 35.68847851,140.31194352
      name:
      - 八街市立朝陽保育園
    八街へ199番地133:
      latlng: 35.63032871,140.31045632
      name:
      - 八街市立笹引小学校
    八街ほ215番地:
      latlng: 35.66416039,140.31066120
      name:
      - 八街市立実住保育園
    八街ほ245番地1:
      latlng: ''
      name:
      - けやきの森公園
    八街ほ301番地:
      latlng: 35.65830003,140.31500260
      name:
      - 八街市立実住小学校
    八街ほ35番地:
      latlng: 35.66554664,140.31576072
      name:
      - 八街市立八街中学校
    八街ほ35番地29:
      latlng: 35.66593284,140.31854936
      name:
      - 八街市役所・総合保健福祉センター
    八街ほ40番地1:
      latlng: 35.66737154,140.31768831
      name:
      - 八街市立八街東小学校
    八街ほ591番地:
      latlng: 35.65890530,140.31203067
      name:
      - 八街市立八街中央中学校
    八街ほ796番地1:
      latlng: 35.65621636,140.30749782
      name:
      - 八街市中央公民館
    八街ろ111番地:
      latlng: 35.65906085,140.28596819
      name:
      - 八街市立交進保育園
    八街ろ111番地33:
      latlng: 35.66394375,140.28369330
      name:
      - 八街市立交進小学校
    八街ろ145の3番地:
      latlng: 35.67225967,140.28963180
      name:
      - 千葉県立八街高等学校
    吉倉590番地1:
      latlng: 35.61683344,140.29965030
      name:
      - 八街市立八街南中学校
    大谷流867番地1:
      latlng: 35.62477662,140.28850354
      name:
      - 八街市立川上小学校
    山田台1番地:
      latlng: 35.57819524,140.30252572
      name:
      - 八街市立二州小学校
    沖1033番地:
      latlng: 35.59768755,140.27732455
      name:
      - 八街市立二州小学校沖分校
    泉台3丁目17番地:
      latlng: 35.68299785,140.29731442
      name:
      - 八街市立八街北小学校
    用草1044番地1:
      latlng: 35.63662214,140.26866283
      name:
      - 八街市中央公民館用草分館
  勝浦市:
    出水1120-1:
      latlng: 35.15421053,140.31683546
      name:
      - 勝浦市立勝浦中学校
    墨名733-1:
      latlng: 35.15161632,140.31527183
      name:
      - 勝浦市立勝浦小学校
    小羽戸58-2:
      latlng: 35.18008433,140.26602159
      name:
      - 勝浦市立北中学校
    新官1343-1:
      latlng: 35.15221094,140.32086826
      name:
      - 勝浦市役所
    新官1380番地:
      latlng: 35.15574936,140.32108770
      name:
      - 千葉県立勝浦若潮高等学校
    新官65:
      latlng: 35.15380527,140.32698704
      name:
      - 勝浦市立豊浜小学校
    松部1000-1:
      latlng: 35.14958231,140.29403296
      name:
      - 勝浦市立郁文小学校
    植野元宮田72:
      latlng: 35.15420746,140.25181454
      name:
      - 勝浦市立上野小学校
    沢倉523-1:
      latlng: ''
      name:
      - 勝浦市営野球場
    浜行川808:
      latlng: 35.12148156,140.23036967
      name:
      - 元行川小学校
    興津1222-1:
      latlng: 35.13543794,140.24442084
      name:
      - 勝浦市立興津中学校
    興津1700:
      latlng: 35.13259108,140.24287941
      name:
      - 勝浦市立興津小学校
    興津847-1:
      latlng: 35.13708197,140.25158686
      name:
      - 勝浦市立興津公民館
    蟹田222-1:
      latlng: 35.20041474,140.27657617
      name:
      - 勝浦市立総野小学校
    鵜原142-2:
      latlng: 35.13985566,140.27105217
      name:
      - 勝浦市立清海小学校
  匝瑳市:
    みどり平13番地2:
      latlng: ''
      name:
      - みどり平東公園
    みどり平1番地2:
      latlng: ''
      name:
      - みどり平西公園
    上谷中2240番地8:
      latlng: ''
      name:
      - 匝瑳市営グラウンド
    上谷中2270番地5:
      latlng: 35.71224983,140.57226575
      name:
      - 匝瑳市立八日市場第一中学校
    今泉5323番地3:
      latlng: 35.66689130,140.56951846
      name:
      - 匝瑳市立野栄中学校
    今泉6489番地1:
      latlng: 35.66027836,140.56852744
      name:
      - 生涯学習センター
    今泉6536番地1:
      latlng: 35.65933122,140.57039117
      name:
      - のさかアリーナ
    八日市場イ1630番地:
      latlng: 35.70782170,140.54214944
      name:
      - 千葉県立匝瑳高等学校
    八日市場イ1687番地:
      latlng: 35.70504145,140.54336335
      name:
      - 匝瑳市立八日市場第二中学校
    八日市場イ2311番地:
      latlng: 35.70510824,140.55012393
      name:
      - 匝瑳市立八日市場小学校
    八日市場イ2353番地1:
      latlng: 35.70336118,140.54872687
      name:
      - 匝瑳市立八日市場保育所
    八日市場イ2394番地:
      latlng: 35.70368896,140.55053504
      name:
      - 匝瑳市立八日市場幼稚園
    八日市場イ2402番地:
      latlng: 35.70345568,140.55168217
      name:
      - 匝瑳市立八日市場公民館
    八日市場ハ793番地1:
      latlng: 35.70776950,140.56533626
      name:
      - 八日市場ドーム
    八日市場ハ793番地35:
      latlng: 35.70860273,140.56511127
      name:
      - 市民ふれあいセンター
    八日市場ホ2016番地:
      latlng: 35.69673392,140.53651989
      name:
      - 匝瑳市立八日市場小学校米倉分校(跡地)
    吉崎4861番地:
      latlng: 35.67303347,140.61956323
      name:
      - 吉崎浜野外活動施設
    吉田4010番地4:
      latlng: 35.72156645,140.50540195
      name:
      - 匝瑳市立吉田保育所
    吉田4020番地:
      latlng: 35.72115541,140.50602691
      name:
      - 匝瑳市立吉田小学校
    大寺1428番地:
      latlng: 35.74189309,140.55529874
      name:
      - 匝瑳市立豊和保育所
    大寺1492番地:
      latlng: 35.74257075,140.55422105
      name:
      - 匝瑳市立豊和小学校
    小高446番地16:
      latlng: 35.74970252,140.52484646
      name:
      - 匝瑳市立飯高保育所(跡地)
    山桑125番地:
      latlng: ''
      name:
      - 山桑公園
    平木1487番地1:
      latlng: ''
      name:
      - 平和東公園
    平木1819番地:
      latlng: 35.70027407,140.58926426
      name:
      - 匝瑳市立平和小学校
    平木930番地1:
      latlng: 35.70013806,140.59966881
      name:
      - 千葉県立八日市場特別支援学校
    東小笹1160番地:
      latlng: 35.68138449,140.59553142
      name:
      - 匝瑳市立共興小学校
    松山1122番地:
      latlng: 35.71296825,140.53292483
      name:
      - 匝瑳市立匝瑳小学校
    栢田823番地:
      latlng: 35.65137473,140.55516324
      name:
      - 匝瑳市立栄小学校
    椿969番地1:
      latlng: 35.72062403,140.57835044
      name:
      - 椿海公園
    椿973番地:
      latlng: 35.72192390,140.57877803
      name:
      - 匝瑳市立椿海小学校
    野手13034番地:
      latlng: 35.66440553,140.57287660
      name:
      - 匝瑳市立野田小学校
    飯倉1615番地1:
      latlng: 35.69726672,140.51705505
      name:
      - 匝瑳市立豊栄保育所
    飯倉1847番地:
      latlng: 35.69668621,140.51652459
      name:
      - 匝瑳市立豊栄小学校
    飯倉台17番地:
      latlng: 35.68991770,140.52127465
      name:
      - 平台公園
    飯倉台37番地1:
      latlng: ''
      name:
      - 鈴歌公園
    飯高1692番地:
      latlng: 35.74994969,140.52397155
      name:
      - 匝瑳市立飯高小学校
    高1956番地:
      latlng: 35.67886427,140.54954757
      name:
      - 匝瑳市立須賀小学校
  千葉市:
    中央区中央4丁目5番1号:
      latlng: 35.60741775,140.12263380
      name:
      - 千葉市子ども交流館
      - 千葉市ビジネス支援センター
      - 千葉市科学館
      - 千葉市子育て支援館
    中央区仁戸名町380番地:
      latlng: 35.59227537,140.15836334
      name:
      - 千葉市立仁戸名小学校
    中央区今井1丁目14番43号:
      latlng: 35.58360870,140.12924064
      name:
      - 千葉市蘇我勤労市民プラザ体育館
      - 千葉市蘇我勤労市民プラザ体育館
    中央区今井3丁目15番32号:
      latlng: 35.57838698,140.13101489
      name:
      - 千葉市立蘇我小学校
    中央区今井町1478番地:
      latlng: 35.57139071,140.14048454
      name:
      - 千葉県立千葉工業高等学校
    中央区千葉寺町1208番地2:
      latlng: 35.59479201,140.13445389
      name:
      - 千葉市ハーモニープラザ
    中央区千葉港2番1号:
      latlng: 35.60670805,140.10817632
      name:
      - 千葉市中央コミュニティセンター
    中央区南生実町258番地:
      latlng: 35.55712241,140.14410779
      name:
      - 千葉市立生浜中学校
    中央区問屋町1番20号:
      latlng: 35.60296725,140.11178205
      name:
      - 千葉ポートアリーナ
    中央区問屋町1番73号:
      latlng: 35.60434457,140.10910982
      name:
      - 千葉市立新宿中学校
    中央区塩田町316番地の1:
      latlng: 35.55895818,140.13128582
      name:
      - 千葉市立生浜西小学校
    中央区塩田町372番地:
      latlng: 35.56064688,140.12944727
      name:
      - 千葉県立生浜高等学校
    中央区大巌寺町375番地:
      latlng: 35.57304647,140.14918004
      name:
      - 千葉市立大巌寺小学校
    中央区大森町268番地:
      latlng: 35.58062626,140.14434008
      name:
      - 千葉市立大森小学校
    中央区宮崎2丁目3番13号:
      latlng: 35.58366170,140.13654256
      name:
      - 千葉市立宮崎小学校
    中央区宮崎2丁目4:
      latlng: 35.58356996,140.13523734
      name:
      - 菰池公園
    中央区宮崎2丁目5番22号:
      latlng: 35.58059810,140.13682535
      name:
      - 千葉市宮崎公民館
    中央区富士見1丁目3番2号:
      latlng: 35.61318020,140.11743617
      name:
      - 京葉銀行文化プラザ
    中央区寒川町1丁目205番地:
      latlng: 35.59693539,140.12122941
      name:
      - 千葉市立寒川小学校
    中央区川戸町403番地の1:
      latlng: 35.58189016,140.16687572
      name:
      - 千葉市川戸公民館
    中央区川戸町443番地:
      latlng: 35.58395373,140.16785364
      name:
      - 千葉市立川戸中学校
    中央区川戸町450番地:
      latlng: 35.58474528,140.16828979
      name:
      - 千葉市立川戸小学校
    中央区市場町2:
      latlng: 35.60457951,140.12438685
      name:
      - 羽衣公園
    中央区弁天1丁目21番2号:
      latlng: 35.61647081,140.11260833
      name:
      - 千葉市立弁天小学校
    中央区弁天3丁目1番1号:
      latlng: 35.61767381,140.11714672
      name:
      - 千葉公園体育館
    中央区新宿2丁目15番1号:
      latlng: 35.60798348,140.11443139
      name:
      - 千葉市立新宿小学校
    中央区新宿2丁目16番14号:
      latlng: 35.60685024,140.11379544
      name:
      - 千葉市新宿公民館
    中央区星久喜町1060番地:
      latlng: 35.59681143,140.14655448
      name:
      - 千葉市立星久喜小学校
    中央区星久喜町278番地:
      latlng: 35.60180811,140.15159551
      name:
      - 千葉市都市緑化植物園
    中央区星久喜町615番地の7:
      latlng: 35.59770288,140.15115935
      name:
      - 千葉市星久喜公民館
    中央区星久喜町823番地:
      latlng: 35.60078594,140.15211763
      name:
      - 千葉市立星久喜中学校
    中央区末広2丁目10番1号:
      latlng: 35.59673308,140.12659583
      name:
      - 千葉市立末広中学校
    中央区末広2丁目11番24号:
      latlng: 35.59560259,140.12687925
      name:
      - 千葉市武道館
    中央区末広3丁目2番2号:
      latlng: 35.59399421,140.12518223
      name:
      - 千葉市末広公民館
    中央区本町2丁目6番23号:
      latlng: 35.60932085,140.12811388
      name:
      - 千葉市立本町小学校
    中央区松ヶ丘町257番地の2:
      latlng: 35.58814528,140.15182525
      name:
      - 千葉市松ヶ丘公民館
    中央区松ヶ丘町440番地:
      latlng: 35.58757033,140.15317215
      name:
      - 千葉市立松ヶ丘中学校
    中央区松ヶ丘町580番地:
      latlng: 35.58643433,140.15542712
      name:
      - 千葉市立松ヶ丘小学校
    中央区松波2丁目22番48号:
      latlng: 35.62120571,140.10807767
      name:
      - 千葉県立千葉商業高等学校
    中央区椿森4丁目1番1号:
      latlng: 35.62242878,140.12086517
      name:
      - 千葉市立椿森中学校
    中央区椿森6丁目1番11号:
      latlng: 35.62014063,140.12382928
      name:
      - 千葉市椿森公民館
    中央区浜野町1335番地:
      latlng: 35.55932497,140.14020051
      name:
      - 千葉市立生浜小学校
    中央区生実町1928番地:
      latlng: 35.55985286,140.14791288
      name:
      - 千葉市立生浜東小学校
    中央区生実町67番地の1:
      latlng: 35.55961664,140.14182237
      name:
      - 千葉市生浜公民館
    中央区登戸2丁目11番1号:
      latlng: 35.61243216,140.10765914
      name:
      - 千葉市立登戸小学校
    中央区白旗1丁目3番16号:
      latlng: 35.57898999,140.13854412
      name:
      - 千葉市南部青少年センター
    中央区白旗1丁目5番3号:
      latlng: 35.57721789,140.13790795
      name:
      - 千葉市立蘇我中学校
    中央区祐光1丁目25番3号:
      latlng: 35.61502239,140.12632156
      name:
      - 千葉市立院内小学校
    中央区花輪町45番地3:
      latlng: 35.57687422,140.16358366
      name:
      - 千葉県立千葉南高等学校
    中央区葛城1丁目5番2号:
      latlng: 35.59997760,140.12851489
      name:
      - 千葉県立千葉高等学校
    中央区葛城2丁目9番1号:
      latlng: 35.60081118,140.13085914
      name:
      - 千葉市立葛城中学校
    中央区葛城2丁目9番2号:
      latlng: 35.59962508,140.13088425
      name:
      - 千葉市葛城公民館
    中央区蘇我2丁目:
      latlng: 35.57186282,140.13146498
      name:
      - そが野ふれあい公園
    中央区要町1番1号:
      latlng: 35.61541340,140.12027178
      name:
      - 千葉市民会館
    中央区都町1129番地:
      latlng: 35.61252939,140.14449317
      name:
      - 千葉市立都小学校
    中央区都町2丁目14:
      latlng: 35.61150725,140.13906302
      name:
      - 都公園
    中央区鶴沢町21番1号:
      latlng: 35.60983802,140.13361634
      name:
      - 千葉市立鶴沢小学校
    稲毛区作草部2丁目8番53号:
      latlng: 35.62547236,140.11767061
      name:
      - 千葉市都賀公民館
    稲毛区作草部町1298番地の1:
      latlng: 35.63147711,140.12299414
      name:
      - 千葉市立千草台東小学校
    稲毛区作草部町1306番地の1:
      latlng: 35.63101055,140.12304700
      name:
      - 千葉市立都賀中学校
    稲毛区作草部町938番地:
      latlng: 35.62917180,140.12008365
      name:
      - 千葉市立都賀小学校
    稲毛区六方町55番地の29:
      latlng: 35.65770208,140.14525495
      name:
      - 千葉市山王公民館
    稲毛区千草台2丁目3番1号:
      latlng: 35.63659512,140.11747469
      name:
      - 千葉市立千草台中学校
    稲毛区園生町1385番地:
      latlng: ''
      name:
      - 千葉市立草野小学校
    稲毛区園生町1397番地:
      latlng: ''
      name:
      - 千葉市立草野中学校
    稲毛区園生町384番地の93:
      latlng: 35.65410081,140.11978701
      name:
      - 千葉市草野公民館
    稲毛区園生町446番の1:
      latlng: 35.64664619,140.11579265
      name:
      - 千葉市立あやめ台小学校
    稲毛区園生町588番地:
      latlng: 35.64859556,140.10714936
      name:
      - 千葉市立柏台小学校
    稲毛区天台3丁目16番5号:
      latlng: 35.63378732,140.11683630
      name:
      - 千葉市千草台公民館
    稲毛区天台5丁目11番1号:
      latlng: 35.63820034,140.11609183
      name:
      - 千葉市立千草台小学校
    稲毛区宮野木町1807番地の3:
      latlng: 35.65783885,140.10723255
      name:
      - 千葉市緑が丘公民館
    稲毛区宮野木町2100番地:
      latlng: 35.65896100,140.10974065
      name:
      - 千葉市立宮野木小学校
    稲毛区宮野木町2150番地の4:
      latlng: 35.66293269,140.10607977
      name:
      - 千葉市宮野木スポーツセンター
    稲毛区小中台町400-1:
      latlng: ''
      name:
      - 小中台西公園
    稲毛区小仲台4丁目2:
      latlng: 35.63709151,140.10132486
      name:
      - 小園公園
    稲毛区小仲台5丁目1:
      latlng: 35.63931050,140.09788920
      name:
      - 仲よし公園
    稲毛区小仲台5丁目10番1号:
      latlng: 35.64076316,140.10071109
      name:
      - 千葉県立千葉女子高等学校
    稲毛区小仲台5丁目7番1号:
      latlng: 35.63936331,140.09906683
      name:
      - 千葉市小中台公民館
    稲毛区小仲台6丁目34番1号:
      latlng: 35.63966315,140.09575055
      name:
      - 千葉市立小中台小学校
    稲毛区小仲台8丁目15番1号:
      latlng: 35.64657596,140.08935661
      name:
      - 千葉市立小中台南小学校
    稲毛区小仲台9丁目30番1号:
      latlng: 35.64728162,140.09791414
      name:
      - 千葉市立園生小学校
    稲毛区小仲台9丁目46番1号:
      latlng: 35.64480421,140.09997509
      name:
      - 千葉市立千葉高等学校
    稲毛区小仲台9丁目46番2号:
      latlng: 35.64640123,140.09997784
      name:
      - 千葉市立小中台中学校
    稲毛区山王町121番地:
      latlng: 35.66538118,140.14262987
      name:
      - 千葉市立山王小学校
    稲毛区山王町182他:
      latlng: ''
      name:
      - 山王ふれあい公園
    稲毛区弥生町3番18号:
      latlng: 35.62580445,140.10116421
      name:
      - 千葉市立弥生小学校
    稲毛区稲丘町19番30号:
      latlng: 35.63263328,140.08807650
      name:
      - 千葉市立稲丘小学校
    稲毛区稲毛1丁目10:
      latlng: 35.63613543,140.08307413
      name:
      - 稲毛公園
    稲毛区稲毛1丁目10番17号:
      latlng: 35.63655205,140.08335742
      name:
      - 千葉市稲毛公民館
    稲毛区稲毛東5丁目8:
      latlng: ''
      name:
      - 稲毛東公園
    稲毛区稲毛町5丁目120番地:
      latlng: ''
      name:
      - 千葉市立稲毛中学校
    稲毛区稲毛町5丁目525番地:
      latlng: ''
      name:
      - 千葉市立稲毛小学校
    稲毛区穴川4丁目11番32号:
      latlng: 35.63806651,140.10507994
      name:
      - 千葉県立京葉工業高等学校
    稲毛区穴川4丁目12番3号:
      latlng: 35.63624741,140.10641306
      name:
      - 千葉市穴川コミュニティセンター
    稲毛区緑町2丁目13番1号:
      latlng: 35.62345462,140.09772866
      name:
      - 千葉市立緑町小学校
    稲毛区緑町2丁目3番1号:
      latlng: 35.62264358,140.09682881
      name:
      - 千葉市立緑町中学校
    稲毛区轟町1丁目12番3号:
      latlng: 35.62468576,140.10970494
      name:
      - 千葉市轟公民館
    稲毛区轟町1丁目18番52号:
      latlng: 35.62549682,140.11094916
      name:
      - 千葉県立千葉東高等学校
    稲毛区轟町3丁目4番30号:
      latlng: 35.63029299,140.10828525
      name:
      - 千葉市立轟町小学校
    稲毛区轟町3丁目5番14号:
      latlng: 35.63114005,140.10801859
      name:
      - 千葉市立轟町中学校
    稲毛区轟町3丁目6番25号:
      latlng: 35.63138177,140.10968223
      name:
      - 千葉市立第二養護学校
    稲毛区長沼原町304番地1:
      latlng: 35.66838846,140.12993337
      name:
      - 千葉市長沼原勤労市民プラザ
    稲毛区長沼町153:
      latlng: 35.66215798,140.11365694
      name:
      - 千葉県立千葉北高等学校
    稲毛区長沼町255-1:
      latlng: ''
      name:
      - 長沼町公園
    稲毛区長沼町461番地8:
      latlng: 35.66362777,140.12612261
      name:
      - 千葉市長沼コミュニティセンター
    稲毛区黒砂2丁目4番18号:
      latlng: 35.62647891,140.09402333
      name:
      - 千葉市黒砂公民館
    稲毛区黒砂台3丁目1:
      latlng: 35.63057016,140.09813659
      name:
      - 西千葉公園
    緑区あすみが丘4丁目16番地:
      latlng: 35.52318300,140.26511910
      name:
      - 千葉市立土気南小学校
    緑区あすみが丘4丁目38番地:
      latlng: 35.52472717,140.26174720
      name:
      - 千葉市立土気南中学校
    緑区あすみが丘6丁目1:
      latlng: 35.52060819,140.26370252
      name:
      - あすみが丘ふれあいの広場公園
    緑区あすみが丘6丁目2番地:
      latlng: 35.51972772,140.26371085
      name:
      - 千葉市立あすみが丘小学校
    緑区あすみが丘6丁目38番地:
      latlng: 35.51429497,140.26272486
      name:
      - 千葉市立大椎小学校
    緑区あすみが丘7丁目2番地4:
      latlng: 35.52126374,140.26527183
      name:
      - 千葉市土気あすみが丘プラザ
    緑区あすみが丘8丁目26番地:
      latlng: 35.51651708,140.27015171
      name:
      - 千葉市立大椎中学校
    緑区あすみが丘9丁目13:
      latlng: 35.51207856,140.26454403
      name:
      - あすみが丘やすらぎの広場公園
    緑区おゆみ野1丁目53番地:
      latlng: 35.56142260,140.16602133
      name:
      - 千葉市立有吉小学校
    緑区おゆみ野2丁目41番地:
      latlng: 35.56015609,140.17064398
      name:
      - 千葉市立有吉中学校
    緑区おゆみ野2丁目42:
      latlng: 35.56060606,140.17168571
      name:
      - おゆみ野さくら公園
    緑区おゆみ野3丁目15番地2:
      latlng: 35.56002555,140.17564733
      name:
      - 千葉市鎌取コミュニティセンター
    緑区おゆみ野4丁目45番地:
      latlng: 35.55535097,140.18211452
      name:
      - 千葉市立小谷小学校
    緑区おゆみ野5丁目25番地:
      latlng: 35.55400655,140.18735879
      name:
      - 千葉市立おゆみ野南中学校
    緑区おゆみ野中央1丁目26番地:
      latlng: 35.55750623,140.16420752
      name:
      - 千葉市立扇田小学校
    緑区おゆみ野中央2丁目7番地6:
      latlng: 35.55608413,140.16420205
      name:
      - 千葉市おゆみ野公民館
    緑区おゆみ野中央4丁目2番地:
      latlng: 35.55482325,140.17148876
      name:
      - 千葉市立泉谷中学校
    緑区おゆみ野中央4丁目3番地:
      latlng: 35.55433163,140.17454454
      name:
      - 千葉市立泉谷小学校
    緑区おゆみ野南4丁目26番地:
      latlng: 35.54462968,140.16845574
      name:
      - 千葉市立おゆみ野南小学校
    緑区おゆみ野南5丁目31番地:
      latlng: 35.54747949,140.17300295
      name:
      - 千葉市立金沢小学校
    緑区古市場町474番地の277:
      latlng: 35.54988972,140.14623270
      name:
      - 千葉市古市場公園体育館・野球場
    緑区土気町1400番地:
      latlng: 35.54102355,140.27319062
      name:
      - 千葉市立土気中学校
    緑区土気町1631番地の7:
      latlng: 35.53074666,140.27361299
      name:
      - 千葉市土気公民館
    緑区土気町1634番地:
      latlng: 35.53075497,140.27323523
      name:
      - 千葉市土気市民センター
    緑区土気町1634番地の2:
      latlng: 35.53174654,140.27297689
      name:
      - 千葉市立土気小学校
    緑区土気町1807番地:
      latlng: ''
      name:
      - 千葉県立土気高等学校
    緑区大木戸町317番地:
      latlng: 35.53102043,140.25031233
      name:
      - 千葉市立大木戸小学校
    緑区大野台1丁目6-2:
      latlng: ''
      name:
      - 大野台中央公園
    緑区富岡町290番地の1:
      latlng: 35.54369913,140.16385019
      name:
      - 千葉市椎名公民館
    緑区茂呂町582番地:
      latlng: 35.54180764,140.16339482
      name:
      - 千葉市立椎名小学校
    緑区誉田町1丁目138番地:
      latlng: 35.55247296,140.20276577
      name:
      - 千葉市立誉田中学校
    緑区誉田町1丁目27番地:
      latlng: 35.54965662,140.20410997
      name:
      - 千葉市立誉田小学校
    緑区誉田町1丁目780:
      latlng: 35.54878181,140.20061027
      name:
      - 誉田南公園
    緑区誉田町1丁目789番地49:
      latlng: 35.54985661,140.20320173
      name:
      - 千葉市誉田公民館
    緑区誉田町2丁目21番地の84:
      latlng: 35.54952592,140.21820294
      name:
      - 千葉市立誉田東小学校
    緑区越智町651番地:
      latlng: 35.53353079,140.24113006
      name:
      - 千葉市立越智中学校
    緑区越智町705番地の359:
      latlng: 35.53212790,140.23708326
      name:
      - 千葉市立越智小学校
    緑区越智町810番地の7:
      latlng: ''
      name:
      - 越智中央公園
    緑区越智町822番地の7:
      latlng: 35.53486374,140.23640010
      name:
      - 千葉市越智公民館
    緑区辺田町141番地:
      latlng: 35.56886617,140.18007743
      name:
      - 千葉市立平山小学校
    美浜区幕張西2丁目6番2号:
      latlng: 35.66559250,140.03636397
      name:
      - 千葉市幕張西公民館
    美浜区幕張西2丁目8番1号:
      latlng: 35.66482039,140.03789162
      name:
      - 千葉市立幕張西小学校
    美浜区幕張西2丁目9番1号:
      latlng: 35.66348444,140.03746114
      name:
      - 千葉市立幕張西中学校
    美浜区幕張西3丁目4:
      latlng: 35.66303454,140.04101636
      name:
      - 幕張西第2公園
    美浜区幕張西6丁目2-1:
      latlng: ''
      name:
      - 幕張西第3公園
    美浜区幸町1丁目10番1号:
      latlng: 35.61181492,140.09894601
      name:
      - 千葉市立幸町第三小学校
    美浜区幸町1丁目10番2号:
      latlng: 35.61257584,140.09811547
      name:
      - 千葉市立幸町第二中学校
    美浜区幸町2丁目12番12号:
      latlng: 35.62183782,140.09078500
      name:
      - 千葉市立幸町第四小学校
    美浜区幸町2丁目12番14号:
      latlng: 35.62073530,140.09234046
      name:
      - 千葉市幸町公民館
    美浜区幸町2丁目12番7号:
      latlng: 35.62116289,140.09018232
      name:
      - 千葉市立幸町第一中学校
    美浜区幸町2丁目17番4号:
      latlng: 35.62425119,140.08837679
      name:
      - 千葉市立幸町第一小学校
    美浜区幸町2丁目9番4号:
      latlng: 35.61795810,140.09483484
      name:
      - 千葉市立幸町第二小学校
    美浜区打瀬1丁目3番地1:
      latlng: 35.64207882,140.04731631
      name:
      - 千葉市立打瀬小学校
    美浜区打瀬2丁目13番地:
      latlng: 35.64008462,140.04707195
      name:
      - 千葉市打瀬公民館
    美浜区打瀬2丁目18番地1:
      latlng: 35.63828204,140.04445558
      name:
      - 千葉市立美浜打瀬小学校
    美浜区打瀬3丁目12番地1:
      latlng: 35.63677666,140.04333905
      name:
      - 千葉市立打瀬中学校
    美浜区打瀬3丁目3番地1:
      latlng: 35.64042063,140.04162249
      name:
      - 千葉市立海浜打瀬小学校
    美浜区浜田2丁目126:
      latlng: ''
      name:
      - 浜田公園
    美浜区真砂1丁目11:
      latlng: 35.63485484,140.06811454
      name:
      - 真砂公園
    美浜区真砂1丁目12番15号:
      latlng: 35.63269678,140.06929227
      name:
      - 千葉市立真砂第五小学校
    美浜区真砂2丁目13番1号:
      latlng: 35.63769336,140.06684791
      name:
      - 千葉市立真砂中学校
    美浜区真砂2丁目3番1号:
      latlng: 35.64074300,140.06961979
      name:
      - 千葉市立旧真砂第一小学校
    美浜区真砂3丁目14番1号:
      latlng: 35.63722675,140.06596189
      name:
      - 千葉市立真砂西小学校
    美浜区真砂4丁目17番1号:
      latlng: 35.64012358,140.05708765
      name:
      - 千葉県立検見川高等学校
    美浜区真砂4丁目1番7号:
      latlng: 35.63917094,140.06064568
      name:
      - 千葉市真砂コミュニティセンター
    美浜区真砂4丁目5番1号:
      latlng: 35.64238164,140.05896519
      name:
      - 千葉市立旧真砂第三小学校
    美浜区真砂5丁目18番1号:
      latlng: 35.64399257,140.06153712
      name:
      - 千葉市立真砂西小学校
    美浜区真砂5丁目18番2号:
      latlng: 35.64522298,140.06321748
      name:
      - 千葉市立旧真砂第一中学校
    美浜区磯辺1丁目25番1号:
      latlng: 35.62983047,140.06419563
      name:
      - 千葉市立磯辺第三小学校
    美浜区磯辺1丁目26:
      latlng: 35.62949441,140.06501223
      name:
      - 磯辺公園
    美浜区磯辺1丁目48番1号:
      latlng: 35.62823067,140.06170980
      name:
      - 千葉市磯辺公民館
    美浜区磯辺1丁目50番1号:
      latlng: 35.62743078,140.06231255
      name:
      - 千葉市立磯辺第二中学校
    美浜区磯辺2丁目7番1号:
      latlng: 35.62603650,140.05834074
      name:
      - 千葉県立磯辺高等学校
    美浜区磯辺3丁目30番3号:
      latlng: 35.62748905,140.05347171
      name:
      - 千葉県立千葉西高等学校
    美浜区磯辺4丁目16番1号:
      latlng: 35.63156078,140.05822947
      name:
      - 千葉市立磯辺第四小学校
    美浜区磯辺4丁目27:
      latlng: 35.63011096,140.05682409
      name:
      - 中磯辺公園
    美浜区磯辺5丁目2番1号:
      latlng: 35.63203018,140.06129028
      name:
      - 千葉市立磯辺第一小学校
    美浜区磯辺6丁目4:
      latlng: 35.63727114,140.05450187
      name:
      - 北磯辺公園
    美浜区磯辺7丁目17番1号:
      latlng: 35.63589907,140.05141054
      name:
      - 千葉市立磯辺第二小学校
    美浜区磯辺7丁目1番1号:
      latlng: 35.63283837,140.05398817
      name:
      - 千葉市立磯辺第一中学校
    美浜区稲毛海岸2丁目3番2号:
      latlng: 35.62993901,140.08434918
      name:
      - 千葉市立稲浜小学校
    美浜区稲毛海岸2丁目3番3号:
      latlng: 35.63279416,140.08185213
      name:
      - 千葉市立稲浜中学校
    美浜区稲毛海岸3丁目4番1号:
      latlng: 35.63198312,140.07948295
      name:
      - 千葉市稲浜公民館
    美浜区稲毛海岸5丁目7番1号:
      latlng: 35.63698519,140.07491381
      name:
      - 千葉市立稲毛第二小学校
    美浜区若葉2丁目10番地2:
      latlng: 35.65143607,140.05409316
      name:
      - 千葉県立幕張総合高等学校(看護科校舎)
    美浜区若葉3丁目1番地6:
      latlng: 35.64781983,140.05288505
      name:
      - 千葉県立幕張総合高等学校
    美浜区若葉3丁目1番地8:
      latlng: 35.64893634,140.05022972
      name:
      - 千葉市幕張勤労市民プラザ
    美浜区高洲1丁目15番1号:
      latlng: 35.63083324,140.07801369
      name:
      - 千葉市立高洲第四小学校
    美浜区高洲2丁目2番20号:
      latlng: 35.62511740,140.07984427
      name:
      - 千葉市立高洲第一小学校
    美浜区高洲2丁目3番18号:
      latlng: 35.62324818,140.07747235
      name:
      - 千葉市立高洲第一中学校
    美浜区高洲2丁目5番13号:
      latlng: 35.62200665,140.07581701
      name:
      - 千葉市立高洲第二小学校
    美浜区高洲3丁目12番1号:
      latlng: 35.62698086,140.07115617
      name:
      - 千葉市高洲コミュニティセンター
    美浜区高洲3丁目2:
      latlng: 35.62730591,140.07678060
      name:
      - 高洲公園
    美浜区高洲3丁目3番11号:
      latlng: 35.62669761,140.07412255
      name:
      - 千葉市立高洲第三小学校
    美浜区高洲4丁目2番1号:
      latlng: 35.63360507,140.07550552
      name:
      - 千葉市高洲市民プール体育館
    美浜区高洲4丁目4番3号:
      latlng: 35.63261069,140.07176982
      name:
      - 千葉市立高洲第二中学校
    美浜区高浜1丁目4番1号:
      latlng: 35.62006250,140.07602539
      name:
      - 千葉市立高浜第一小学校
    美浜区高浜1丁目8:
      latlng: 35.61962082,140.07361453
      name:
      - 高浜公園
    美浜区高浜1丁目8番3号:
      latlng: 35.62024572,140.07339786
      name:
      - 千葉市高浜公民館
    美浜区高浜3丁目1番1号:
      latlng: 35.62040952,140.06802335
      name:
      - 千葉市立稲毛高等学校・同附属中学校
    美浜区高浜3丁目2:
      latlng: 35.61943463,140.06499033
      name:
      - 南高浜公園
    美浜区高浜3丁目3番1号:
      latlng: 35.62112608,140.06726506
      name:
      - 千葉市立高浜第二小学校
    美浜区高浜4丁目6:
      latlng: 35.62211485,140.06858157
      name:
      - 中高浜公園
    美浜区高浜4丁目8番1号:
      latlng: 35.62373686,140.07093686
      name:
      - 千葉市立高浜中学校
    美浜区高浜4丁目8番2号:
      latlng: 35.62318971,140.06985642
      name:
      - 千葉市立高浜第三小学校
    美浜区高浜5丁目19:
      latlng: 35.62602263,140.06383467
      name:
      - 北高浜公園
    花見川区こてはし台2丁目28番1号:
      latlng: 35.68788877,140.12253601
      name:
      - 千葉市立こてはし台小学校
    花見川区こてはし台4丁目21:
      latlng: 35.68724710,140.11959181
      name:
      - こてはし台公園
    花見川区こてはし台5丁目15番1号:
      latlng: 35.69154664,140.11889165
      name:
      - 千葉市立こてはし台中学校
    花見川区さつきが丘1丁目18番地:
      latlng: 35.66390737,140.09620559
      name:
      - 犢橋貝塚公園
    花見川区さつきが丘1丁目32番4号:
      latlng: 35.66508504,140.09692493
      name:
      - 千葉市さつきが丘公民館
    花見川区さつきが丘1丁目7番地:
      latlng: 35.66432128,140.09914977
      name:
      - 千葉市立さつきが丘東小学校
    花見川区さつきが丘2丁目:
      latlng: 35.66654393,140.09270305
      name:
      - 神場公園
    花見川区さつきが丘2丁目14番地:
      latlng: 35.66712638,140.09131426
      name:
      - 千葉市立さつきが丘西小学校
    花見川区さつきが丘2丁目15番地:
      latlng: 35.66897062,140.09144197
      name:
      - 千葉市立さつきが丘中学校
    花見川区三角町656番地の2:
      latlng: 35.67769249,140.11677297
      name:
      - 千葉市立犢橋中学校
    花見川区作新台7丁目2番1号:
      latlng: 35.68780459,140.08444197
      name:
      - 千葉市立作新小学校
    花見川区千種町381-1:
      latlng: 35.67800368,140.12087544
      name:
      - 千葉県立犢橋高等学校
    花見川区天戸町1428番地の1:
      latlng: 35.68276908,140.08781129
      name:
      - 千葉市立花見川第二中学校
    花見川区天戸町1429番地:
      latlng: 35.68111924,140.08691698
      name:
      - 千葉市立天戸中学校
    花見川区宇那谷町2115:
      latlng: ''
      name:
      - 宇那谷み春野公園
    花見川区幕張本郷2丁目19番33号:
      latlng: 35.66818668,140.03918583
      name:
      - 千葉市幕張本郷公民館
    花見川区幕張本郷2丁目33:
      latlng: 35.66864778,140.04222717
      name:
      - 一本松公園
    花見川区幕張本郷3丁目22番6号:
      latlng: 35.66619258,140.04594633
      name:
      - 千葉市立西の谷小学校
    花見川区幕張本郷4丁目8番1号:
      latlng: 35.66812575,140.05042636
      name:
      - 千葉市立上の台小学校
    花見川区幕張本郷5丁目18番1号:
      latlng: 35.67196415,140.04772928
      name:
      - 千葉市立幕張本郷中学校
    花見川区幕張本郷7丁目23:
      latlng: 35.67495272,140.04929013
      name:
      - 幕張台公園
    花見川区幕張町3丁目:
      latlng: 35.66502614,140.05245960
      name:
      - 幕張舟溜跡公園
    花見川区幕張町3丁目7718番地:
      latlng: 35.65682426,140.04725202
      name:
      - 千葉市立幕張南小学校
    花見川区幕張町3丁目7730番地の4:
      latlng: 35.65651596,140.04759089
      name:
      - 千葉市幕張コミュニティセンター
    花見川区幕張町4丁目45番地:
      latlng: 35.66287092,140.05905345
      name:
      - 千葉市立幕張中学校
    花見川区幕張町4丁目602番地:
      latlng: 35.66024339,140.05541779
      name:
      - 千葉市幕張公民館
    花見川区幕張町4丁目681番地:
      latlng: 35.66536229,140.05814234
      name:
      - 千葉市立幕張東小学校
    花見川区幕張町4丁目781番地:
      latlng: 35.66205428,140.05391511
      name:
      - 千葉市立幕張小学校
    花見川区朝日ヶ丘1丁目1番30号:
      latlng: 35.65562209,140.08916477
      name:
      - 千葉市朝日ヶ丘公民館
    花見川区朝日ヶ丘2丁目4番1号:
      latlng: 35.65646918,140.08759544
      name:
      - 千葉市立朝日ヶ丘中学校
    花見川区朝日ヶ丘2丁目6番1号:
      latlng: 35.65916605,140.08544557
      name:
      - 千葉市立朝日ヶ丘小学校
    花見川区柏井4丁目48番1号:
      latlng: 35.70902506,140.10660589
      name:
      - 千葉市立柏井小学校
    花見川区柏井町1452番地:
      latlng: 35.69829571,140.10789219
      name:
      - 千葉県立柏井高等学校
    花見川区柏井町1590番地の8:
      latlng: 35.69557080,140.09963198
      name:
      - 千葉市花見川公民館
    花見川区検見川町3丁目322番地23:
      latlng: 35.64892535,140.06863353
      name:
      - 千葉市立検見川小学校
    花見川区検見川町3丁目322番地25:
      latlng: 35.64930308,140.06735031
      name:
      - 千葉市検見川公民館
    花見川区横戸町1005番地:
      latlng: 35.69619618,140.12038577
      name:
      - 千葉市立横戸小学校
    花見川区横戸町861番地の4:
      latlng: 35.69294098,140.12103033
      name:
      - 千葉市こてはし台公民館
    花見川区犢橋町162番地の1:
      latlng: 35.66681302,140.11357628
      name:
      - 千葉市犢橋公民館
    花見川区犢橋町213番地の4:
      latlng: 35.66430766,140.11096544
      name:
      - 千葉市立緑が丘中学校
    花見川区犢橋町774番地:
      latlng: 35.67352047,140.10802375
      name:
      - 千葉市立犢橋小学校
    花見川区瑞穂1丁目2番地:
      latlng: 35.66397365,140.06868028
      name:
      - 千葉市立瑞穂小学校
    花見川区畑町1336番地の2:
      latlng: 35.66708453,140.07934310
      name:
      - 千葉市畑コミュニティセンター
    花見川区畑町1385番地:
      latlng: 35.66533194,140.07889598
      name:
      - 千葉市立畑小学校
    花見川区花園3丁目12番8号:
      latlng: 35.65778824,140.06965539
      name:
      - 千葉市花園公民館
    花見川区花園4丁目1番1号:
      latlng: 35.65458586,140.07373011
      name:
      - 千葉市立花園中学校
    花見川区花園4丁目1番2号:
      latlng: 35.65650509,140.07387170
      name:
      - 千葉市立花園小学校
    花見川区花島町308番地:
      latlng: 35.68148883,140.09693830
      name:
      - 千葉市花島コミュニティセンター
    花見川区花島町493番地1:
      latlng: ''
      name:
      - 花島公園
    花見川区花見川1番1号:
      latlng: 35.68544660,140.08914163
      name:
      - 千葉市立花見川第三小学校
    花見川区花見川4番1号:
      latlng: 35.69425144,140.09790443
      name:
      - 千葉市立花見川第一小学校
    花見川区花見川6番1号:
      latlng: 35.68875207,140.10101266
      name:
      - 千葉市立花見川第二小学校
    花見川区花見川6番2号:
      latlng: 35.68902153,140.10246252
      name:
      - 千葉市立花見川第一中学校
    花見川区花見川8番1号:
      latlng: 35.68366634,140.09498006
      name:
      - 千葉市立花島小学校
    花見川区西小中台3番1号:
      latlng: 35.65097536,140.08636512
      name:
      - 千葉市立西小中台小学校
    花見川区長作町1273番地:
      latlng: 35.68408816,140.07385415
      name:
      - 千葉市立長作小学校
    花見川区長作町1722番地の1:
      latlng: 35.68041363,140.07905659
      name:
      - 千葉市長作公民館
    若葉区みつわ台1丁目17番1号:
      latlng: 35.63408010,140.13056632
      name:
      - 千葉市立みつわ台南小学校
    若葉区みつわ台1丁目18:
      latlng: 35.63556332,140.13241906
      name:
      - みつわ台第1公園
    若葉区みつわ台1丁目28:
      latlng: 35.63115835,140.12944160
      name:
      - みつわ台公園
    若葉区みつわ台2丁目41番1号:
      latlng: 35.63508830,140.13126903
      name:
      - 千葉市立みつわ台中学校
    若葉区みつわ台3丁目12番17号:
      latlng: 35.63926293,140.13550246
      name:
      - 千葉市みつわ台公民館
    若葉区みつわ台3丁目2:
      latlng: 35.64043497,140.13586079
      name:
      - みつわ台第2公園
    若葉区みつわ台3丁目3番1号:
      latlng: 35.64095713,140.13628302
      name:
      - 千葉市みつわ台体育館
    若葉区みつわ台3丁目5番1号:
      latlng: 35.64129607,140.13748581
      name:
      - 千葉市立みつわ台北小学校
    若葉区下田町573番地:
      latlng: 35.64002077,140.21470251
      name:
      - 千葉市立旧更科小学校下田分校
    若葉区加曽利町1538番地:
      latlng: 35.61392895,140.16874052
      name:
      - 千葉県立桜が丘特別支援学校
    若葉区加曽利町892番地の6:
      latlng: 35.61213774,140.15204262
      name:
      - 千葉市加曽利公民館
    若葉区加曽利町961番地の5:
      latlng: 35.61390976,140.15753385
      name:
      - 千葉市立加曽利中学校
    若葉区千城台北1丁目4番1号:
      latlng: 35.62884469,140.18392128
      name:
      - 千葉市立千城台北小学校
    若葉区千城台北2丁目1:
      latlng: 35.62780294,140.18664844
      name:
      - 城北公園
    若葉区千城台南1丁目19番1号:
      latlng: 35.61831985,140.18944697
      name:
      - 千葉市立千城台南小学校
    若葉区千城台南1丁目20番1号:
      latlng: 35.61868648,140.19081912
      name:
      - 千葉市立千城台南中学校
    若葉区千城台東1丁目15番1号:
      latlng: 35.62235020,140.19146937
      name:
      - 千葉市立千城台東小学校
    若葉区千城台東2丁目45:
      latlng: 35.62304997,140.19716867
      name:
      - 御成公園
    若葉区千城台東3丁目18番1号:
      latlng: 35.61736423,140.19611311
      name:
      - 千葉市立千城台旭小学校
    若葉区千城台西1丁目15:
      latlng: 35.62274514,140.18081869
      name:
      - 千城台西公園
    若葉区千城台西2丁目1番1号:
      latlng: 35.62215036,140.18696161
      name:
      - 千葉県立千城台高等学校
      - 千葉市千城台公民館
      - 千葉市千城台コミュニティセンター
    若葉区千城台西2丁目20番1号:
      latlng: 35.62158101,140.18466461
      name:
      - 千葉市立千城台西中学校
    若葉区千城台西2丁目21番1号:
      latlng: 35.62273391,140.18240985
      name:
      - 千葉市立千城台西小学校
    若葉区坂月町298番地:
      latlng: 35.61204776,140.18154697
      name:
      - 千葉市立坂月小学校
    若葉区大宮台7丁目8番1号:
      latlng: 35.59620170,140.18236341
      name:
      - 千葉市立大宮小学校
    若葉区大宮町1066番地の1:
      latlng: 35.59754372,140.16704625
      name:
      - 千葉市立養護学校
    若葉区大宮町2077番地:
      latlng: 35.58629714,140.18671986
      name:
      - 千葉市立大宮中学校
    若葉区大宮町2082番地:
      latlng: 35.58508619,140.18608392
      name:
      - 千葉市立大宮台小学校
    若葉区大宮町2655番地:
      latlng: 35.60002107,140.16865737
      name:
      - 千葉市立千城小学校
    若葉区大宮町2699-1:
      latlng: 35.60287059,140.16992968
      name:
      - 千葉県立千葉大宮高等学校
    若葉区大宮町3221番地の2:
      latlng: 35.59656558,140.18106080
      name:
      - 千葉市大宮公民館
    若葉区富田町83番地:
      latlng: 35.60015018,140.23770693
      name:
      - 千葉市立更科小学校富田分校
    若葉区小倉台4丁目7:
      latlng: 35.62914856,140.17081971
      name:
      - 小倉台公園
    若葉区小倉台5丁目1番1号:
      latlng: 35.63188964,140.17298559
      name:
      - 千葉市立小倉小学校
    若葉区御成台3丁目1182-2:
      latlng: ''
      name:
      - 御成台公園
    若葉区愛生町102-1:
      latlng: ''
      name:
      - 愛生運動広場
    若葉区更科町2073番地:
      latlng: 35.61969576,140.22766197
      name:
      - 千葉市立更科小学校
    若葉区更科町2112番地:
      latlng: 35.61755138,140.22623997
      name:
      - 千葉市立更科中学校
    若葉区更科町2254番地の1:
      latlng: 35.61783200,140.22780931
      name:
      - 千葉市更科公民館
    若葉区桜木1丁目423:
      latlng: ''
      name:
      - 桜木公園
    若葉区桜木3丁目17番29号:
      latlng: 35.62277586,140.16035039
      name:
      - 千葉市桜木公民館
    若葉区桜木3丁目26番1号:
      latlng: 35.62116208,140.15938104
      name:
      - 千葉市立桜木小学校
    若葉区源町541番地の6:
      latlng: 35.64865812,140.13166651
      name:
      - 千葉市立源小学校
    若葉区若松台2丁目25番1号:
      latlng: 35.65034977,140.17151427
      name:
      - 千葉市立若松台小学校
    若葉区若松町2106番地の2:
      latlng: 35.63575265,140.16972996
      name:
      - 千葉市立若松中学校
    若葉区若松町2117番地の2:
      latlng: 35.63508873,140.16756073
      name:
      - 千葉市若松公民館
    若葉区若松町360番地の1:
      latlng: 35.64102086,140.16762952
      name:
      - 千葉市立若松小学校
    若葉区若松町429番地:
      latlng: 35.64284493,140.15880789
      name:
      - 千葉県立若松高等学校
    若葉区若松町774番地:
      latlng: 35.65301660,140.14261070
      name:
      - 千葉市立山王中学校
    若葉区貝塚町1093番地:
      latlng: 35.62864910,140.14508102
      name:
      - 千葉市立北貝塚小学校
    若葉区貝塚町1340番地の1:
      latlng: ''
      name:
      - 千葉市立貝塚中学校
    若葉区都賀2丁目5:
      latlng: 35.63399837,140.14763075
      name:
      - 美しの森公園
    若葉区都賀4丁目20番1号:
      latlng: 35.63435448,140.15463073
      name:
      - 千葉市都賀コミュニティセンター
    若葉区都賀の台2丁目13番1号:
      latlng: 35.64381820,140.14152193
      name:
      - 千葉市立都賀の台小学校
    若葉区野呂町215番地:
      latlng: 35.58079528,140.23113706
      name:
      - 千葉市立白井小学校
    若葉区野呂町622番地10:
      latlng: 35.58389792,140.23027861
      name:
      - 千葉市白井公民館
    若葉区野呂町623番地:
      latlng: 35.58571167,140.22855922
      name:
      - 千葉市立白井中学校
    若葉区高根町875-1:
      latlng: 35.60210729,140.21005038
      name:
      - 千葉県立泉高等学校
  南房総市:
    上滝田1463番地2:
      latlng: 35.06224072,139.89969911
      name:
      - 南房総市上滝田公民館
    久枝327番地:
      latlng: 35.09909099,139.84542837
      name:
      - 南房総市富山公民館
    千代4番地:
      latlng: 35.04408765,139.89665815
      name:
      - 南房総市滝田公民館
    千倉町北朝夷2905番地:
      latlng: 34.95946974,139.95797962
      name:
      - 南房総市千倉公民館
    千倉町北朝夷630番地:
      latlng: 34.96761324,139.95328530
      name:
      - 南房総市立千倉中学校
    千倉町南朝夷:
      latlng: 34.95363424,139.93466706
      name:
      - 渡辺正剛宅前道路
      - 南房総市千倉清掃センター入口
    千倉町南朝夷1265番地1:
      latlng: 34.96027521,139.95788793
      name:
      - 千倉郵便局前駐車場
    千倉町南朝夷1400番地:
      latlng: 34.96117509,139.95479931
      name:
      - 南房総市立朝夷小学校
    千倉町南朝夷164番地:
      latlng: 34.96247215,139.94961645
      name:
      - 南房総市千倉社会福祉センター
    千倉町大川638番地:
      latlng: 34.93198082,139.94524308
      name:
      - 南房総市立七浦小学校
    千倉町川戸544番地8:
      latlng: 34.97086840,139.94526933
      name:
      - 南房総市千倉総合運動公園
    千倉町忽戸250番地:
      latlng: 34.94970972,139.96008818
      name:
      - 南房総市立忽戸小学校
    千倉町瀬戸1616番地:
      latlng: 34.98206680,139.95364002
      name:
      - 南房総市立健田小学校
    千倉町瀬戸2294番地:
      latlng: 34.97507892,139.95574575
      name:
      - 南房総市千倉支所
    千倉町瀬戸2340番地5:
      latlng: 34.97586771,139.95869816
      name:
      - 南房総市立千倉図書館
    千倉町白子313番地:
      latlng: 34.98788275,139.96640230
      name:
      - 福原商店前広場
    合戸22番地:
      latlng: 35.09532234,139.86256882
      name:
      - 南房総市立富山中学校
    和田町下三原360番地:
      latlng: 35.02815857,139.99042451
      name:
      - 南房総市立南三原小学校
    和田町下三原97番地:
      latlng: 35.02864739,139.99012731
      name:
      - 南房総市立和田保育所
    和田町仁我浦206番地:
      latlng: 35.04223482,140.02032422
      name:
      - 南房総市和田コミュニティセンター
      - 南房総和田公民館
    和田町仁我浦8番地1:
      latlng: 35.04068778,140.01750783
      name:
      - 南房総市立和田小学校
    和田町松田828番地:
      latlng: 35.02624767,139.98982735
      name:
      - 南房総市和田地域福祉センターやすらぎ
    和田町海発1602番地:
      latlng: 35.02272862,139.98843860
      name:
      - 南房総市立和田中学校
    和田町海発1604番地:
      latlng: 35.02046493,139.98538329
      name:
      - 千葉県立安房拓心高等学校
    和田町黒岩386番地:
      latlng: ''
      name:
      - 南房総市北三原多目的研修集会施設
    富浦町原岡931番地:
      latlng: 35.04813942,139.83455534
      name:
      - 南房総市立富浦小学校
    富浦町深名710番地:
      latlng: 35.04132373,139.85253508
      name:
      - 南房総市立八束小学校
    富浦町青木249番地1:
      latlng: 35.04383722,139.84064680
      name:
      - 南房総市立富浦中学校
    富浦町青木28番地:
      latlng: 35.04269014,139.83983298
      name:
      - 南房総市富浦体育館
    岩糸2489番地:
      latlng: 35.02177782,139.96255711
      name:
      - 南房総市丸山公民館
      - 南房総市丸山児童体育館
    岩糸2504番地:
      latlng: 35.02211660,139.96072391
      name:
      - 南房総市丸山体育館
    市部250番地:
      latlng: 35.09215867,139.85308910
      name:
      - 南房総市立岩井小学校
    平久里中220番地:
      latlng: 35.10085825,139.91675527
      name:
      - 南房総市立平群小学校
    御庄255番地:
      latlng: 35.02897334,139.92355565
      name:
      - 南房総市稲都公民館
    本織60番地:
      latlng: 35.02466280,139.89559465
      name:
      - 南房総市立三芳中学校
    沓見2705番地:
      latlng: 35.02106385,139.95600494
      name:
      - 南房総市立丸山中学校
    沓見98番地1:
      latlng: ''
      name:
      - 南房総市立南小学校
    珠師ケ谷1289番地20:
      latlng: ''
      name:
      - 南房総市農業者トレーニングセンター
    白浜町滝口5185番地2:
      latlng: 34.91031287,139.86034807
      name:
      - 南房総市立長尾小学校
    白浜町滝口5580番地57:
      latlng: 34.90979917,139.86800573
      name:
      - 南房総市立白浜中学校
    白浜町白浜3061番地:
      latlng: 34.90987728,139.89645602
      name:
      - 南房総市立白浜小学校
    白浜町白浜3467番地1:
      latlng: 34.90817749,139.89924196
      name:
      - 南房総市白浜支所
    石堂312番地:
      latlng: 35.05026257,139.95737431
      name:
      - 南房総市立丸小学校
    谷向150番地:
      latlng: 35.02688468,139.89605568
      name:
      - 南房総市立三芳小学校
  印西市:
    中央南1-2:
      latlng: 35.80029878,140.11914219
      name:
      - 中央駅前公民館
    中根1281番地2:
      latlng: 35.80664698,140.19473986
      name:
      - 印西市立本埜第一小学校
    中根1375:
      latlng: 35.81017452,140.19949505
      name:
      - 本埜ふれあいプラザ
      - もとのスポーツプラザ
    中根1403番地8:
      latlng: 35.81117437,140.19929504
      name:
      - 印西市立もとの幼稚園
    内野1-1:
      latlng: 35.79787972,140.12450822
      name:
      - 印西市立内野小学校
    原3-4:
      latlng: 35.79982151,140.16535804
      name:
      - そうふけ公民館
    原3-5:
      latlng: 35.79919655,140.16366933
      name:
      - 印西市立原小学校
    原山1-12-1:
      latlng: 35.80005442,140.12351118
      name:
      - 千葉県立北総花の丘公園
    原山1-2:
      latlng: 35.79874355,140.12762190
      name:
      - 印西市立原山中学校
    原山3-3:
      latlng: 35.79862415,140.12942730
      name:
      - 中央駅南コミュニティセンター
    原山3-4:
      latlng: 35.79946852,140.13041614
      name:
      - 印西市立原山小学校
    大森2244:
      latlng: 35.82813478,140.14741248
      name:
      - 印西市立印西中学校
    大森3350:
      latlng: 35.83652464,140.14086822
      name:
      - 印西市立大森小学校
    大森3934-1:
      latlng: 35.84141557,140.14661491
      name:
      - 中央公民館
    小倉台2-3:
      latlng: 35.80466746,140.10901858
      name:
      - 印西市立小倉台小学校
    小林2554:
      latlng: 35.83101549,140.18700099
      name:
      - 印西市立小林小学校
    小林北5-1-5:
      latlng: 35.83164093,140.19862495
      name:
      - 印西市立小林北小学校
    小林北5-1-6:
      latlng: 35.83194084,140.19767225
      name:
      - 小林公民館
    小林大門下1-4-1:
      latlng: 35.82323052,140.18653726
      name:
      - 印西市立小林中学校
    岩戸1271番地:
      latlng: ''
      name:
      - 印西市立岩戸幼稚園
    岩戸1742番地:
      latlng: 35.76279810,140.16693144
      name:
      - 印旛歴史民俗資料館
    平賀1160番地2:
      latlng: 35.75341692,140.24738368
      name:
      - 千葉県立印旛特別支援学校
    平賀1161番地2:
      latlng: 35.75505287,140.24696146
      name:
      - 印西市立平賀小学校
    平賀928番地:
      latlng: 35.75736367,140.24486990
      name:
      - 平賀地区構造改善センター
    木下1502:
      latlng: 35.83949909,140.15372290
      name:
      - 印西市立木下小学校
    木刈2-1:
      latlng: 35.80790862,140.10963261
      name:
      - 印西市立木刈中学校
    木刈2-6:
      latlng: 35.80996108,140.10699401
      name:
      - 印西市立木刈小学校
    木刈4-3-1:
      latlng: 35.80901680,140.10495518
      name:
      - 中央駅北コミュニティセンター
    武西学園台2-1200:
      latlng: 35.79660758,140.10788219
      name:
      - 東京電機大学千葉NTキャンパス
    浦部275:
      latlng: 35.82475498,140.11377903
      name:
      - 松山下公園
    浦部411-3:
      latlng: 35.82524232,140.10911278
      name:
      - 永治コミュニティセンター
    浦部557:
      latlng: 35.82408136,140.10793236
      name:
      - 印西市立永治小学校
    滝野3丁目2:
      latlng: 35.80735725,140.17824883
      name:
      - 印西市立本埜保育園
    滝野4丁目2:
      latlng: 35.80709038,140.17167123
      name:
      - 滝野公園
    滝野5丁目1:
      latlng: 35.80930143,140.17562672
      name:
      - 印西市立滝野小学校
    滝野5丁目2:
      latlng: 35.80875423,140.17463230
      name:
      - 印西市立滝野中学校
    瀬戸1510番地:
      latlng: ''
      name:
      - 印旛中央公園
    瀬戸1580番地:
      latlng: 35.77767199,140.22773186
      name:
      - 印西市立六合小学校
    竹袋614-9:
      latlng: 35.83277559,140.15046499
      name:
      - 総合福祉センター
    笠神1745:
      latlng: 35.82741994,140.21471804
      name:
      - 印西市立本埜第二小学校
    笠神250:
      latlng: 35.81646251,140.19901155
      name:
      - 印西市立本埜中学校
    笠神2587:
      latlng: 35.81667648,140.20140303
      name:
      - 印西市役所本埜支所
    美瀬1-25:
      latlng: 35.77907912,140.20523091
      name:
      - 印西市役所印旛支所
    舞姫2丁目2番地:
      latlng: 35.78342039,140.20555031
      name:
      - 印西市立印旛中学校
    船尾1292:
      latlng: 35.78366479,140.12889108
      name:
      - 印西市立船穂小学校
    船尾786-1:
      latlng: 35.78159838,140.12941061
      name:
      - 船穂コミュニティセンター
    若萩3丁目9番地1:
      latlng: ''
      name:
      - 印西市立いにはの小学校
    草深924:
      latlng: 35.79570788,140.15082313
      name:
      - そうふけふれあいの里
    西の原1-3:
      latlng: 35.80333225,140.15598098
      name:
      - 印西市立西の原中学校
    西の原2-7:
      latlng: 35.80012417,140.15292571
      name:
      - 印西市立西の原小学校
    高花1-3:
      latlng: 35.79507181,140.13225477
      name:
      - 印西市立船穂中学校
    高花2-1-5:
      latlng: 35.79802709,140.13888775
      name:
      - 保健福祉センター
    高花2-4:
      latlng: 35.79657723,140.13878218
      name:
      - 印西市立高花小学校
  君津市:
    三直1305:
      latlng: 35.32367873,139.93707681
      name:
      - 君津市立八重原中学校
    三直622:
      latlng: 35.31773789,139.93431611
      name:
      - 君津市民文化ホール
    上957番地:
      latlng: 35.30830326,139.96172561
      name:
      - 千葉県立上総高等学校
    上湯江1287-3:
      latlng: 35.31959856,139.90011328
      name:
      - 君津市貞元コミュニティセンター
    上湯江1655:
      latlng: 35.32084004,139.89986049
      name:
      - 君津市立貞元小学校
    上湯江1716-1:
      latlng: 35.32049566,139.90132427
      name:
      - 君津市立上湯江保育園
    中島252-1:
      latlng: 35.30485927,139.95669548
      name:
      - 君津市立中保育園
    中島678:
      latlng: 35.30435102,139.95854536
      name:
      - 君津市立中小学校
    中野2-30-1:
      latlng: 35.32704185,139.89714392
      name:
      - 君津市立周西南中学校
    中野3-14-1:
      latlng: 35.32955239,139.88884457
      name:
      - 君津市立周西小学校
    久保2-13-2:
      latlng: 35.33006647,139.90130462
      name:
      - 君津市生涯学習交流センター
    久保5-1-1:
      latlng: ''
      name:
      - 君津中央公園
    久留里474:
      latlng: 35.29605325,140.08211799
      name:
      - 君津市立久留里小学校
      - 君津市立久留里中学校
    久留里市場192-5:
      latlng: 35.29555877,140.07610746
      name:
      - 君津市上総地域交流センター
    久留里市場368-1:
      latlng: ''
      name:
      - 君津市久留里スポーツ広場
    人見1-5-47:
      latlng: 35.33577315,139.87091534
      name:
      - 君津市立周西幼稚園
    人見1154-1:
      latlng: 35.34294709,139.86604904
      name:
      - 君津市立神門保育園
    人見1462-41:
      latlng: 35.34460513,139.85951909
      name:
      - 君津市神門コミュニティセンター
    人見4-11-21:
      latlng: 35.33038801,139.87438471
      name:
      - 君津市周西公民館
    人見4-11-3:
      latlng: ''
      name:
      - 君津市人見グラウンド
    俵田1110:
      latlng: 35.32273515,140.05353087
      name:
      - 君津市立小櫃中学校
    俵田1416:
      latlng: 35.32207979,140.05923040
      name:
      - 君津市立小櫃小学校
    内箕輪1-1-1:
      latlng: 35.32447303,139.92773305
      name:
      - 君津市内みのわ運動公園
    内蓑輪61-1:
      latlng: 35.32268996,139.93193000
      name:
      - 君津市立内箕輪保育園
    北子安853:
      latlng: 35.33680454,139.91836961
      name:
      - 君津市立北子安小学校
    北子安六丁目14番1号:
      latlng: 35.33127482,139.92153612
      name:
      - 千葉県立君津特別支援学校
    南子安3-27-1:
      latlng: 35.32600889,139.91592567
      name:
      - 君津市立南子安保育園
    南子安5-10-1:
      latlng: 35.32487016,139.91613680
      name:
      - 君津市立南子安小学校
    南子安9-17-1:
      latlng: 35.32786700,139.92844398
      name:
      - 君津市立八重原小学校
    南子安9-17-2:
      latlng: 35.32788366,139.93008551
      name:
      - 君津市八重原公民館
    台2-15-16:
      latlng: 35.32643646,139.90180465
      name:
      - 君津市立久保保育園
    坂田454番地:
      latlng: 35.34169215,139.88689726
      name:
      - 千葉県立君津高等学校
    坂田523:
      latlng: 35.34253364,139.88505573
      name:
      - 君津市立坂田小学校
    坂田560:
      latlng: 35.34109769,139.88287815
      name:
      - 君津市立周西中学校
    坂田601:
      latlng: 35.34328071,139.88338363
      name:
      - 君津市緩衝緑地スポーツ広場
    坂畑223-1:
      latlng: 35.23455197,140.09720613
      name:
      - 君津市立亀山中学校
    坂畑223-2:
      latlng: 35.23415760,140.09748666
      name:
      - 君津市立坂畑小学校
    坂畑310-1:
      latlng: 35.23465481,140.09956704
      name:
      - 君津市立亀山保育園
    坂畑321-1:
      latlng: 35.23280500,140.09660896
      name:
      - 君津市亀山コミュニティセンター
    塚原120:
      latlng: 35.30002651,139.97963276
      name:
      - 君津市立小糸中学校
    塚原51:
      latlng: ''
      name:
      - 君津市小糸スポーツ広場
    外箕輪1-34-1:
      latlng: 35.31515211,139.92239493
      name:
      - 君津市立外箕輪小学校
    外箕輪1039:
      latlng: 35.32023475,139.92994415
      name:
      - 君津市社会福祉センター
    大井戸1061:
      latlng: 35.29063336,139.98711837
      name:
      - 君津市立小糸小学校
    大井戸467-2:
      latlng: 35.29074444,139.98535745
      name:
      - 君津市立小糸保育園
    大和田425:
      latlng: 35.34091987,139.88048668
      name:
      - 君津市立大和田小学校
    大山野26:
      latlng: 35.29551035,139.93019237
      name:
      - 君津市周南公民館
    宮下1-4-1:
      latlng: 35.30093461,139.92769785
      name:
      - 君津市立周南中学校
    宮下2-25-1:
      latlng: 35.29837662,139.92885622
      name:
      - 君津市立宮下保育園
    宮下2-25-5:
      latlng: 35.29853494,139.93056717
      name:
      - 君津市立周南小学校
    常代2-15-1:
      latlng: 35.30913349,139.92152302
      name:
      - 君津市立常代保育園
    広岡1000:
      latlng: 35.25284831,140.05960110
      name:
      - 君津市立松丘小学校
    広岡1840-1:
      latlng: ''
      name:
      - 君津市松丘コミュニティセンター
    広岡945:
      latlng: ''
      name:
      - 君津市立あけぼの保育園
    広岡994:
      latlng: 35.25281496,140.05863731
      name:
      - 君津市立松丘中学校
    怒田923:
      latlng: 35.26706356,140.11710989
      name:
      - 旧君津市立福野小学校
    末吉1005-1:
      latlng: ''
      name:
      - 君津市小櫃スポーツ広場
    末吉128:
      latlng: 35.32792348,140.05912188
      name:
      - 君津市小櫃公民館
    末吉437-1:
      latlng: ''
      name:
      - 君津市立小櫃保育園
    杢師1-10-1:
      latlng: 35.32707260,139.90978174
      name:
      - 君津市立君津中学校
    東日笠515:
      latlng: ''
      name:
      - 君津市立清和保育園
    東日笠522:
      latlng: 35.23469301,140.00182040
      name:
      - 君津市立清和中学校
    正木149:
      latlng: 35.21910065,140.02539633
      name:
      - 君津市立三島小学校
    糠田55:
      latlng: 35.30532862,139.96951674
      name:
      - 君津市小糸公民館
    蔵玉1052:
      latlng: 35.22902808,140.12679281
      name:
      - 旧君津市立蔵玉小学校
    西坂田2-11:
      latlng: 35.33692608,139.88245325
      name:
      - 堺田公園
    西粟倉35:
      latlng: 35.25392269,139.99600944
      name:
      - 君津市立秋元小学校
    西粟倉57:
      latlng: 35.25346724,139.99735099
      name:
      - 君津市清和公民館
    西粟倉60:
      latlng: ''
      name:
      - 君津市清和スポーツ広場
    貞元290-1:
      latlng: ''
      name:
      - 君津市貞元グラウンド
    青柳48番地:
      latlng: 35.30114954,140.07181882
      name:
      - 千葉県立君津青葉高等学校
    香木原269:
      latlng: 35.17380715,140.05968519
      name:
      - 旧君津市立香木原小学校
  四街道市:
    つくし座3丁目1番8号:
      latlng: 35.67246303,140.17975519
      name:
      - 四街道市立栗山小学校
    みそら2丁目13番:
      latlng: 35.66919799,140.19907971
      name:
      - 四街道市立みそら小学校
    めいわ1丁目3番:
      latlng: 35.65580431,140.17260803
      name:
      - 四街道市立四街道中学校
    千代田5丁目27番:
      latlng: 35.69252725,140.18460254
      name:
      - 四街道市立千代田中学校
    千代田5丁目4番:
      latlng: 35.69205500,140.18306672
      name:
      - 四街道市立八木原小学校
    南波佐間267番地:
      latlng: 35.66255437,140.19590048
      name:
      - 四街道市立旭中学校
    和田161番地:
      latlng: 35.65356650,140.19141886
      name:
      - 四街道市総合公園
    和田54番地10:
      latlng: 35.66812567,140.19371679
      name:
      - 旭公民館
    和良比228番地:
      latlng: 35.66001154,140.16833609
      name:
      - 四街道市立四和小学校
    四街道1532番地:
      latlng: 35.66661225,140.15782325
      name:
      - 四街道公民館
    四街道1557番地:
      latlng: 35.66221312,140.15799563
      name:
      - 四街道市立四街道小学校
    大日23番地:
      latlng: 35.66583721,140.15374301
      name:
      - 四街道市立四街道西中学校
    大日468番地1:
      latlng: 35.67815817,140.16357418
      name:
      - 千葉県立千葉盲学校
    大日978番地:
      latlng: 35.68369867,140.15598864
      name:
      - 四街道市立大日小学校
    山梨1485番地:
      latlng: 35.66813397,140.19310580
      name:
      - 四街道市立旭小学校
    旭ヶ丘1丁目9番12号:
      latlng: 35.66361189,140.18317212
      name:
      - 四街道市立山梨小学校
    栗山1055番地:
      latlng: 35.67570620,140.16946789
      name:
      - 四街道市立四街道北中学校
    栗山1055番地の4:
      latlng: 35.67467290,140.16802657
      name:
      - 千葉県立四街道北高等学校
    物井1263番地2:
      latlng: ''
      name:
      - 千代田公民館
    物井1536番地:
      latlng: 35.69205254,140.18971854
      name:
      - 四街道市立南小学校
    美しが丘3丁目12番:
      latlng: 35.65423994,140.16071522
      name:
      - 四街道市立和良比小学校
    鷹の台3丁目2番3号:
      latlng: ''
      name:
      - 四街道市立吉岡小学校
    鹿渡809番地の2:
      latlng: 35.66688270,140.17070464
      name:
      - 千葉県立四街道高等学校
    鹿渡917番地:
      latlng: 35.66910155,140.16850204
      name:
      - 四街道市立中央小学校
    鹿渡934番地45:
      latlng: 35.66511875,140.16625547
      name:
      - 千葉県立四街道特別支援学校
    鹿渡無番地:
      latlng: 35.66980976,140.16853809
      name:
      - 四街道中央公園
  多古町:
    南中349番地2:
      latlng: 35.73978324,140.49035539
      name:
      - 多古町立中村小学校
    南玉造162番地:
      latlng: 35.77028284,140.51861914
      name:
      - 多古町立常磐小学校
    喜多305番地:
      latlng: ''
      name:
      - 多古町立多古第二小学校
    多古2547番地:
      latlng: 35.73474989,140.46466642
      name:
      - 多古町立多古第一小学校
    多古2920番地:
      latlng: 35.74418783,140.47100156
      name:
      - 多古町立多古中学校
    多古3236番地:
      latlng: 35.74210738,140.46575497
      name:
      - 千葉県立多古高等学校
    大門205番地:
      latlng: 35.77889430,140.46069603
      name:
      - 多古町立久賀小学校
    牛尾3034番地3:
      latlng: ''
      name:
      - 旧多古町立多古第三小学校
  大多喜町:
    三条440番地1:
      latlng: 35.25435287,140.22190003
      name:
      - 大多喜町農村コミュニテイ―センター
    下大多喜100:
      latlng: 35.29961938,140.25317050
      name:
      - 大多喜町立上瀑小学校
    中野260:
      latlng: 35.25147256,140.20158511
      name:
      - 大多喜町立つぐみの森保育園
    中野589:
      latlng: 35.25034218,140.20382666
      name:
      - 大多喜町立西中学校
    大多喜12:
      latlng: 35.28416858,140.24420514
      name:
      - 大多喜町立大多喜小学校
    大多喜481番地:
      latlng: 35.28654602,140.23986647
      name:
      - 千葉県立大多喜高等学校
    大多喜486番地10:
      latlng: 35.28515169,140.23533081
      name:
      - 大多喜町立中央公民館
    大多喜486番地12:
      latlng: 35.28430456,140.23519199
      name:
      - B&G海洋センター
    大戸433:
      latlng: 35.25675800,140.24732537
      name:
      - 大多喜町立総元小学校
    小田代524番地1:
      latlng: 35.24261490,140.16871487
      name:
      - 大多喜町立老川小学校
    弓木55-1:
      latlng: ''
      name:
      - 旧西畑小学校田代分校
    新丁163:
      latlng: 35.28038575,140.24818277
      name:
      - 大多喜老人福祉センター
    松尾277:
      latlng: 35.25181430,140.21606730
      name:
      - 大多喜町立西畑小学校
    筒森1791:
      latlng: ''
      name:
      - 旧老川小学校会所分校
    船子197:
      latlng: 35.28761817,140.24876574
      name:
      - 大多喜町立大多喜中学校
    船子838番地2:
      latlng: 35.28935962,140.25041000
      name:
      - 大多喜町立みつば保育園
  大網白里町:
    みどりが丘3丁目17:
      latlng: ''
      name:
      - みどりが丘近隣公園
    上貝塚160:
      latlng: ''
      name:
      - 大網白里アリーナ
    上貝塚317:
      latlng: ''
      name:
      - 大網白里町立増穂北小学校
    上貝塚337:
      latlng: ''
      name:
      - 大網白里町立増穂保育所
    上貝塚71-1:
      latlng: ''
      name:
      - 柔剣道場
    北吉田184-1:
      latlng: ''
      name:
      - 北吉田町有地
    北飯塚200-1:
      latlng: ''
      name:
      - 大網白里町立増穂中学校
    北飯塚281:
      latlng: ''
      name:
      - 大網白里町立増穂小学校
    南今泉1088-1:
      latlng: ''
      name:
      - 白里公民館
    南今泉3344:
      latlng: ''
      name:
      - 大網白里町立白里幼稚園
    南今泉3349:
      latlng: ''
      name:
      - 大網白里町立白里小学校
    南今泉637:
      latlng: ''
      name:
      - 大網町立第二保育所
    南飯塚299-1:
      latlng: ''
      name:
      - 大網白里町立増穂幼稚園
    南飯塚477-1:
      latlng: ''
      name:
      - 町運動広場
    四天木甲2982-1:
      latlng: ''
      name:
      - 四天木町有地
    大網121-2:
      latlng: ''
      name:
      - 大網白里町中央公民館
    大網391-1:
      latlng: ''
      name:
      - 大網白里町立大網幼稚園
    大網416:
      latlng: ''
      name:
      - 大網白里町立大網小学校
    大網435番地1:
      latlng: ''
      name:
      - 千葉県立大網高等学校
    季美の森南1丁目28:
      latlng: ''
      name:
      - 大網白里町立季美の森小学校
    富田32-2:
      latlng: ''
      name:
      - 大網白里町立大網東小学校
    柿餅26-1:
      latlng: ''
      name:
      - 中部コミュニティセンター
    永田1055:
      latlng: ''
      name:
      - 大網白里町立瑞穂小学校
    永田1117:
      latlng: ''
      name:
      - 大網白里町立瑞穂幼稚園
    細草1385-1:
      latlng: ''
      name:
      - 大網白里町立白里中学校
    細草新山1398番地:
      latlng: ''
      name:
      - 千葉県立大網高等学校
    金谷郷1356-2:
      latlng: ''
      name:
      - 農村ふれあいセンター
    金谷郷275:
      latlng: ''
      name:
      - 大網白里町立大網中学校
  富津市:
    上後328:
      latlng: 35.21626932,139.93063262
      name:
      - 富津市立環小学校
    上後395:
      latlng: 35.21543888,139.93240469
      name:
      - 富津市立天羽東中学校
    下飯野1135:
      latlng: 35.32160857,139.85293719
      name:
      - 富津市立富津中学校
    下飯野153:
      latlng: ''
      name:
      - 富津市立飯野小学校
    佐貫39:
      latlng: 35.26357846,139.89102388
      name:
      - 富津市立佐貫中学校
    大堀2005:
      latlng: 35.32751321,139.85231476
      name:
      - 富津市立青堀小学校
    富津396:
      latlng: 35.31265386,139.82442303
      name:
      - 富津市立富津小学校
    小久保120:
      latlng: 35.27996447,139.86312063
      name:
      - 富津市立大貫小学校
    小久保2958番地1:
      latlng: 35.28196404,139.85769343
      name:
      - 富津市中央公民館
    岩坂108:
      latlng: 35.22525670,139.87734263
      name:
      - 富津市立天羽中学校
    岩瀬1172番地:
      latlng: 35.28973254,139.86207066
      name:
      - 千葉県立君津商業高等学校
    岩瀬616番地1:
      latlng: 35.28135036,139.86234293
      name:
      - 富津市立大貫中学校
    志駒1189:
      latlng: 35.17585280,139.92518651
      name:
      - 富津市立環南小学校
    数馬229番地:
      latlng: 35.21725806,139.88020926
      name:
      - 千葉県立天羽高等学校
    数馬576:
      latlng: 35.21934665,139.88388947
      name:
      - 富津市立湊小学校
    新井932番地34:
      latlng: 35.31916691,139.82879201
      name:
      - 富津市富津公民館
    新富80:
      latlng: 35.32153601,139.82884750
      name:
      - 富津市総合社会体育館
    湊765:
      latlng: 35.22319035,139.87294858
      name:
      - 富津市民会館
    竹岡1000:
      latlng: ''
      name:
      - 富津市立竹岡小学校
    絹178番地2:
      latlng: 35.29221591,139.87448865
      name:
      - 富津市立吉野小学校
    花輪104:
      latlng: 35.21310877,139.88889473
      name:
      - 富津市立天神山小学校
    豊岡1441:
      latlng: 35.18746525,139.95507500
      name:
      - 富津市立関豊小学校
    金谷2252:
      latlng: 35.16880563,139.82289335
      name:
      - 富津市立金谷小学校
    鶴岡988:
      latlng: 35.26070936,139.88211075
      name:
      - 富津市立佐貫小学校
  富里市:
    七栄132番地7:
      latlng: 35.73697244,140.31875719
      name:
      - 富里市立七栄小学校
    七栄181番地1:
      latlng: 35.73327563,140.32064047
      name:
      - 千葉県立富里高等学校
    七栄483番地2:
      latlng: 35.75060470,140.32078968
      name:
      - 千葉県立富里特別支援学校
    七栄652番地226:
      latlng: 35.72802696,140.34172133
      name:
      - 富里市立富里中学校
    七栄720番地:
      latlng: 35.73429265,140.33216397
      name:
      - 富里市立富里小学校
    中沢573番地1:
      latlng: 35.72514294,140.31411942
      name:
      - 富里市立富里第一小学校
    十倉127番地38:
      latlng: 35.71743123,140.35955569
      name:
      - 富里市立富里南中学校
    十倉185番地54:
      latlng: 35.69304282,140.33847073
      name:
      - 富里市立浩養小学校
    十倉732番地3:
      latlng: 35.68444435,140.38686230
      name:
      - 富里市立洗心小学校
    御料4番地1:
      latlng: 35.70666045,140.35985937
      name:
      - 富里市立富里南小学校
    日吉倉1515番地31:
      latlng: 35.75955916,140.31402067
      name:
      - 富里市立富里北中学校
    日吉台4丁目21番地:
      latlng: 35.76512532,140.32051982
      name:
      - 富里市立日吉台小学校
    根木名1005番地3:
      latlng: 35.74640587,140.35086407
      name:
      - 富里市立根木名小学校
  山武市:
    上横地884番地1:
      latlng: 35.60000363,140.44435573
      name:
      - 山武市立南郷小学校
    五木田2452番地1:
      latlng: 35.58516943,140.44748670
      name:
      - 山武市立成東東中学校
    五木田3241番地:
      latlng: 35.59036601,140.44690318
      name:
      - 山武市成東総合運動公園
    和田567番地:
      latlng: 35.61070118,140.40652578
      name:
      - 山武市立成東中学校
    埴谷1855番地:
      latlng: 35.64646543,140.36596702
      name:
      - 山武市立山武中学校
    埴谷1904番地3:
      latlng: 35.64321004,140.36739774
      name:
      - 山武市山武保健センター
      - 山武市さんぶの森中央会館
    埴谷1904番地5:
      latlng: 35.64205174,140.36703121
      name:
      - 山武市さんぶの森公園文化ホール
      - 山武市さんぶの森公園
    埴谷771番地:
      latlng: 35.65254041,140.37868225
      name:
      - 山武市立睦岡小学校
    大木13番地:
      latlng: 35.64815095,140.34554934
      name:
      - 山武市立山武西小学校
    成東2692番地:
      latlng: 35.60120509,140.40184903
      name:
      - 山武市立成東小学校
    成東3596番地:
      latlng: 35.60060260,140.39555825
      name:
      - 千葉県立成東高等学校
    新泉ト60番地:
      latlng: 35.61387891,140.41629644
      name:
      - 山武市立大富小学校
    木原2370番地:
      latlng: 35.62970173,140.34678414
      name:
      - 山武市立山武南中学校
    本須賀1090番地:
      latlng: 35.56747146,140.44593771
      name:
      - 山武市立鳴浜小学校
    松ケ谷ロ471番地1:
      latlng: 35.57921547,140.47274073
      name:
      - 山武市立緑海小学校
    松尾町大堤546番地:
      latlng: 35.63626397,140.45148678
      name:
      - 千葉県立松尾高等学校
    松尾町富士見台208番地8:
      latlng: 35.64174391,140.44956979
      name:
      - 山武市松尾運動公園
    松尾町広根1140番地:
      latlng: 35.62004903,140.47853325
      name:
      - 山武市立大平小学校
    松尾町広根1182番地1:
      latlng: 35.61697730,140.48006942
      name:
      - 山武市立大平保育所
    松尾町松尾112番地:
      latlng: 35.64166909,140.45644431
      name:
      - 山武市立松尾中学校
    松尾町松尾40番地11:
      latlng: 35.63801941,140.45548634
      name:
      - 山武市松尾洗心館
    松尾町松尾47番地3:
      latlng: 35.63824995,140.45567520
      name:
      - 山武市松尾ふれあい館
    松尾町松尾55番地1:
      latlng: 35.63879991,140.45668064
      name:
      - 山武市立まつお認定こども園
    松尾町猿尾383番地:
      latlng: 35.63959985,140.45718054
      name:
      - 山武市立松尾小学校
    松尾町金尾441番地:
      latlng: 35.65384342,140.43463411
      name:
      - 山武市立豊岡小学校
    殿台296番地:
      latlng: 35.60299082,140.41353064
      name:
      - 成東保健福祉センター
    沖渡381番地:
      latlng: 35.67282462,140.35974342
      name:
      - 山武市立むつみのおか幼稚園
    沖渡699番地:
      latlng: 35.67455204,140.35951016
      name:
      - 山武市立山武北小学校
    白幡1627番地:
      latlng: 35.58522994,140.43316030
      name:
      - 山武市成東老人福祉センター
    蓮沼イの2784番地:
      latlng: 35.60629710,140.49727730
      name:
      - 山武市立蓮沼小学校
    蓮沼ハの1036番地:
      latlng: 35.60060082,140.49924102
      name:
      - 山武市立蓮沼中学校
    蓮沼ハの233番地:
      latlng: 35.60290899,140.50104648
      name:
      - 山武市蓮沼保健センター
    蓮沼ハの4832番地3:
      latlng: 35.60253408,140.50152423
      name:
      - 山武市蓮沼中央会館
    蓮沼ハの5402番地1:
      latlng: 35.59921765,140.49893825
      name:
      - 山武市蓮沼スポーツプラザ
    雨坪10番地:
      latlng: 35.63021009,140.35724722
      name:
      - 山武市立日向小学校
    雨坪12番地:
      latlng: 35.62993509,140.35640287
      name:
      - 山武市立日向幼稚園
  市原市:
    ちはら台南2丁目7番地:
      latlng: 35.52623732,140.17630348
      name:
      - 市原市立牧園小学校
    ちはら台南5丁目2番地:
      latlng: 35.52695398,140.18600544
      name:
      - 市原市立清水谷小学校
    ちはら台南5丁目3番地:
      latlng: 35.52841214,140.18701922
      name:
      - 市原市立ちはら台南中学校
    ちはら台南6丁目1番地3:
      latlng: 35.52915928,140.18497218
      name:
      - 市原市ちはら台コミュニティセンター
    ちはら台東2丁目15番地:
      latlng: 35.53336435,140.19167712
      name:
      - 市原市立水の江小学校
    下野90番地の1:
      latlng: 35.51475823,140.18452523
      name:
      - 市原市立市津公民館
    不入斗1200番地:
      latlng: 35.45507016,140.04797929
      name:
      - 市原市立有秋中学校
    不入斗753番地:
      latlng: 35.45441474,140.05671465
      name:
      - 市原市立有秋東小学校
    五井5308番地:
      latlng: 35.52259170,140.08724370
      name:
      - 市原市立若葉中学校
    五井5472番地の1:
      latlng: 35.52090865,140.08991580
      name:
      - 市原市立五井公民館
    五井5555番地の1:
      latlng: 35.52206135,140.09103512
      name:
      - 市原市立若葉小学校
    五井922番地の2:
      latlng: 35.50900947,140.07877829
      name:
      - 市原市立五井中学校
    五井東1丁目6番地の3:
      latlng: 35.51439005,140.09444359
      name:
      - 市原市立五井小学校
    五井西3丁目9番地2:
      latlng: 35.51873337,140.07377536
      name:
      - 市原市立京葉小学校
    五所2154番地の1:
      latlng: 35.52638106,140.11749998
      name:
      - 市原市立五所小学校
    今富477番地:
      latlng: 35.48149657,140.09107255
      name:
      - 市原市立東海中学校
    光風台1丁目475番地:
      latlng: 35.44511076,140.11434322
      name:
      - 市原市立双葉中学校
    光風台4丁目546番地:
      latlng: 35.44565523,140.09811553
      name:
      - 市原市立光風台小学校
    八幡1050番地3:
      latlng: 35.53681589,140.11608889
      name:
      - 八幡運動公園
    八幡1050番地の1:
      latlng: 35.53655202,140.11570281
      name:
      - 市原市立八幡公民館
    八幡1877番地1:
      latlng: 35.54047120,140.13269499
      name:
      - 千葉県立市原八幡高等学校
    八幡500番地:
      latlng: 35.53122778,140.12444655
      name:
      - 市原市立八幡中学校
    八幡530番地:
      latlng: 35.53392188,140.12148851
      name:
      - 市原市立八幡小学校
    八幡石塚2丁目4番地:
      latlng: 35.54462073,140.13007851
      name:
      - 市原市立石塚小学校
    千種2丁目1番地2:
      latlng: 35.49385798,140.05811068
      name:
      - 市原市千種コミュニティセンター
    千種6丁目1番地1:
      latlng: 35.49652713,140.05942438
      name:
      - 市原市立千種中学校
    南国分寺台1丁目2番地6:
      latlng: 35.49486011,140.11542545
      name:
      - 市原市立国分寺公民館
    南国分寺台2丁目1番地:
      latlng: 35.49243504,140.11223138
      name:
      - 市原市立国分寺台中学校
    南国分寺台3丁目2番地:
      latlng: 35.49190470,140.11451726
      name:
      - 市原市立国分寺台小学校
    古敷谷2252番地:
      latlng: 35.33218854,140.16895083
      name:
      - 市原市立富山小学校
    君塚3丁目19番地:
      latlng: 35.52358676,140.10854788
      name:
      - 市原市立白金小学校
    国分寺台中央5丁目1番地1:
      latlng: 35.50319249,140.11810295
      name:
      - 市原市立国分寺台西中学校
    大久保547番地の1:
      latlng: 35.28213641,140.14692122
      name:
      - 市原市立白鳥小学校
    姉崎1850番地:
      latlng: 35.47844006,140.05046132
      name:
      - 市原市立明神小学校
    姉崎2150番地の1:
      latlng: 35.47143879,140.04531783
      name:
      - 市原市立姉崎公民館
    姉崎2156番地:
      latlng: 35.47133053,140.04438465
      name:
      - 市原市立姉崎中学校
    姉崎2632番地:
      latlng: 35.47517469,140.05791677
      name:
      - 千葉県立姉崎高等学校
    姉崎3056番地の1:
      latlng: 35.46986985,140.05038139
      name:
      - 市原市立姉崎東中学校
    安久谷140番地:
      latlng: 35.39609036,140.15535121
      name:
      - 市原市立南総中学校
    寺谷687番地の1:
      latlng: 35.40778951,140.10538272
      name:
      - 市原市立寺谷小学校
    山木108番地:
      latlng: 35.51737693,140.14413982
      name:
      - 市原市立白幡小学校
    島田20番地:
      latlng: 35.40447572,140.17412464
      name:
      - 市原市立内田小学校
    島野222番地:
      latlng: 35.49874112,140.08163746
      name:
      - 千葉県立京葉高等学校
    平蔵808番地:
      latlng: 35.33547736,140.20823377
      name:
      - 市原市立平三小学校
    平野123番地:
      latlng: 35.33351819,140.14598572
      name:
      - 市原市立加茂中学校
    廿五里558番地:
      latlng: 35.48791207,140.07732395
      name:
      - 市原市立東海小学校
    徳氏541番地の1:
      latlng: 35.31730640,140.14993577
      name:
      - 市原市立里見小学校
    惣社1丁目1番地1:
      latlng: 35.49678473,140.11368396
      name:
      - 市原市市民会館
    更級5丁目1番地18:
      latlng: 35.51186555,140.10007105
      name:
      - 市原市立市原市勤労会館
    月出1045番地:
      latlng: 35.29155816,140.18133561
      name:
      - 旧月出小学校
    有秋台2丁目3番地:
      latlng: 35.44829365,140.05210945
      name:
      - 市原市立有秋西小学校
    有秋台西1丁目3番地の2:
      latlng: 35.45361489,140.05030967
      name:
      - 市原市立有秋公民館
    村上1402番地の1:
      latlng: 35.49503110,140.09726373
      name:
      - 市原市立国府小学校
    東国分寺台5丁目1番地:
      latlng: 35.49655752,140.12076100
      name:
      - 市原市立国分寺台東小学校
    東国吉356番地:
      latlng: 35.50962288,140.21331975
      name:
      - 市原市立市東中学校
    松崎820番地:
      latlng: 35.44827173,140.13482279
      name:
      - 市原市立養老小学校
    桜台3丁目1番地の1:
      latlng: ''
      name:
      - 市原市立有秋南小学校
    椎津461番地:
      latlng: 35.47303033,140.04036848
      name:
      - 市原市立姉崎小学校
    海士有木1130番地:
      latlng: 35.47107385,140.13070823
      name:
      - 市原市立市西小学校
    海士有木235番地1:
      latlng: 35.46478276,140.12504757
      name:
      - 市原市三和コミュニティセンター
    潤井戸2297番地の2:
      latlng: 35.50032666,140.18101498
      name:
      - 市原市立湿津中学校
      - 市原市立湿津中学校
    瀬又1820番地:
      latlng: 35.52479584,140.20266224
      name:
      - 市原市立市東第一小学校
    牛久520番地の1:
      latlng: 35.40110623,140.13546312
      name:
      - 市原市立南総公民館
    牛久655番地:
      latlng: 35.40202836,140.13678804
      name:
      - 千葉県立市原高等学校
    皆吉933番地の2:
      latlng: 35.39476527,140.13801332
      name:
      - 市原市立牛久小学校
    磯ヶ谷1606番地2:
      latlng: ''
      name:
      - 市原市立三和運動広場
    磯ヶ谷1703番地:
      latlng: 35.46028084,140.12963085
      name:
      - 市原市立三和中学校
    神代125番地:
      latlng: 35.47032298,140.09894896
      name:
      - 市原市立海上小学校
    能満1320番地:
      latlng: 35.50866139,140.12854657
      name:
      - 市原市立市原小学校
    能満1450番地:
      latlng: 35.50397038,140.12702726
      name:
      - 市原市立市原中学校
    能満1519番地5:
      latlng: 35.49937657,140.12991599
      name:
      - 千葉県立市原特別支援学校
    能満1531番地:
      latlng: 35.49693795,140.13421022
      name:
      - 千葉県立市原緑高等学校
    若宮3丁目13番地:
      latlng: 35.52754496,140.13544291
      name:
      - 市原市立若宮小学校
    菊間1620番地の1:
      latlng: 35.53711340,140.15081824
      name:
      - 市原市立菊間小学校
    菊間1850番地:
      latlng: 35.53459414,140.14689396
      name:
      - 市原市立菊間中学校
    菊間1870番地4:
      latlng: 35.53658561,140.14798522
      name:
      - 市原市菊間コミュニティセンター
    菊間428番地:
      latlng: 35.53380250,140.12951256
      name:
      - 市原市立八幡東中学校
    西国分寺台2丁目11番地1:
      latlng: 35.50534474,140.11326171
      name:
      - 市原市立国分寺台西小学校
    辰巳台東2丁目2番地:
      latlng: 35.52052381,140.15483890
      name:
      - 市原市立辰巳台中学校
    辰巳台東4丁目13番地:
      latlng: 35.51461903,140.15346698
      name:
      - 市原市立辰巳台東小学校
    辰巳台西3丁目14番地の1:
      latlng: 35.52085977,140.14711179
      name:
      - 市原市立辰巳公民館
    辰巳台西4丁目16番地:
      latlng: 35.52425653,140.14818939
      name:
      - 市原市立辰巳台西小学校
    青柳1801番地:
      latlng: 35.49900739,140.05881879
      name:
      - 市原市立千種小学校
    青葉台1丁目10番地の1:
      latlng: 35.47080902,140.05983072
      name:
      - 市原市立青葉台小学校
    養老1012番地:
      latlng: 35.35732336,140.15398484
      name:
      - 市原市立高滝小学校
    養老949番地の1:
      latlng: 35.35483760,140.15224608
      name:
      - 市原市立加茂公民館
    馬立830番地:
      latlng: 35.42402260,140.11604936
      name:
      - 市原市立戸田小学校
    高倉1番地の1:
      latlng: 35.50344056,140.22877669
      name:
      - 市原市立市東第二小学校
    鶴舞355番地:
      latlng: 35.37997074,140.18613518
      name:
      - 千葉県立鶴舞桜が丘高等学校
    鶴舞708番地:
      latlng: 35.38387293,140.18293259
      name:
      - 市原市立鶴舞小学校
  市川市:
    下貝塚3丁目13番1号:
      latlng: 35.73967767,139.94573011
      name:
      - 市川市立下貝塚中学校
    中国分1丁目22番1号:
      latlng: 35.75377535,139.91631546
      name:
      - 市川市立中国分小学校
    中国分2丁目13番8号:
      latlng: 35.74935664,139.91323520
      name:
      - 市川市西部公民館
    中国分2丁目17番21号:
      latlng: 35.75015372,139.91311575
      name:
      - 明松園
    中山1丁目11番1号:
      latlng: 35.72206914,139.94580281
      name:
      - 市川市立第4中学校
    中山1丁目1番5号:
      latlng: 35.72148871,139.94364465
      name:
      - 市川市立中山小学校
    二俣678番地:
      latlng: 35.69679730,139.95806935
      name:
      - 市川市立二俣小学校
    八幡3丁目24番1号:
      latlng: 35.72602438,139.92802344
      name:
      - 市川市立八幡小学校
    八幡4丁目2番1号:
      latlng: 35.72383859,139.93038166
      name:
      - 市川市市民会館
      - 市川市中央公民館
    八幡6丁目10番11号:
      latlng: 35.72728515,139.93763105
      name:
      - 市川市立冨貴島小学校
    北国分1丁目12番32号:
      latlng: 35.75885513,139.90352741
      name:
      - 北国分老人いこいの家
    北方2丁目29番19号:
      latlng: 35.72531319,139.94097807
      name:
      - 北方老人いこいの家
    北方町4丁目1356番地1:
      latlng: 35.73257593,139.94565531
      name:
      - 市川市立北方小学校
    北方町四丁目2191番地:
      latlng: 35.73773628,139.95583768
      name:
      - 千葉県立市川東高等学校
    南八幡2丁目20番1号:
      latlng: 35.71365702,139.92725994
      name:
      - 市川市勤労福祉センター
    南八幡5丁目20番3号:
      latlng: 35.71883964,139.92105745
      name:
      - 市川市勤労福祉センター分館
    南大野1丁目42番1号:
      latlng: 35.74244676,139.95064908
      name:
      - 市川市立大野小学校
    南大野2丁目3番19号:
      latlng: 35.74519920,139.95314045
      name:
      - 市川市大野公民館
    南行徳2丁目2番1号:
      latlng: 35.67180128,139.90713526
      name:
      - 市川市立福栄小学校
    南行徳2丁目2番2号:
      latlng: 35.67092354,139.90679920
      name:
      - 市川市立南行徳中学校
    南行徳2丁目3番1号:
      latlng: 35.67152626,139.90536874
      name:
      - 市川市立富美浜小学校
    原木1862番地:
      latlng: 35.69611717,139.94648692
      name:
      - 千葉県立市川特別支援学校
    原木2丁目16番1号:
      latlng: 35.69820033,139.94388982
      name:
      - 市川市立信篤小学校
    国分3丁目20番2号:
      latlng: 35.74341873,139.91602396
      name:
      - 松香園
    国府台1丁目6番4号:
      latlng: 35.74309103,139.90740791
      name:
      - 市川市スポーツセンター
    国府台2丁目7番1号:
      latlng: 35.74469080,139.90119163
      name:
      - 市川市立第1中学校
    国府台5丁目25番4号:
      latlng: 35.75350046,139.90281641
      name:
      - 市川市立国府台小学校
    国府台二丁目4番1号:
      latlng: 35.74481854,139.90444419
      name:
      - 千葉県立国府台高等学校
    堀之内2丁目26番1号:
      latlng: 35.75911615,139.91202683
      name:
      - 市立市川考古博物館
    堀之内2丁目27番1号:
      latlng: 35.75990768,139.91161851
      name:
      - 市立市川歴史博物館
    塩浜4丁目3番1号101:
      latlng: ''
      name:
      - 塩浜老人いこいの家
    塩浜4丁目5番1号:
      latlng: 35.66526289,139.91444884
      name:
      - 市川市立塩浜小学校
    塩浜4丁目6番1号:
      latlng: 35.66361581,139.91549883
      name:
      - 市川市立塩浜中学校
    塩浜4丁目9番1号:
      latlng: 35.66102991,139.91449346
      name:
      - 市川市塩浜市民体育館
    塩浜四丁目1番1号:
      latlng: 35.66489070,139.91267121
      name:
      - 千葉県立行徳高等学校
    塩焼5丁目9番8号:
      latlng: 35.68388876,139.92998584
      name:
      - 市川市立塩焼小学校
    大和田1丁目1番3号:
      latlng: 35.71762597,139.92098249
      name:
      - 市川市立大和田小学校
    大和田1丁目1番5号:
      latlng: 35.71680528,139.92100306
      name:
      - 市川市文化会館
    大和田4丁目11番1号:
      latlng: 35.71796490,139.91570227
      name:
      - 市川市立鶴指小学校
    大和田4丁目9番1号:
      latlng: 35.71916468,139.91489673
      name:
      - 市川市立第8中学校
    大洲4丁目18番1号:
      latlng: 35.72350554,139.90691661
      name:
      - 市川市立大洲小学校
    大洲4丁目18番3号:
      latlng: 35.72273067,139.90647498
      name:
      - 市川市こども発達センター
    大洲4丁目21番5号:
      latlng: 35.72115877,139.90743884
      name:
      - 市川市立大洲中学校
    大町280番地4:
      latlng: 35.76608039,139.96611906
      name:
      - 市川市少年自然の家
    大町284番地:
      latlng: 35.76435831,139.96594693
      name:
      - 市立市川自然博物館
    大町77番地19:
      latlng: 35.77096561,139.95671147
      name:
      - 梨香園
    大町84番地10:
      latlng: 35.77176004,139.95703084
      name:
      - 市川市立大町小学校
    大野町2丁目1877:
      latlng: 35.75039292,139.95377913
      name:
      - 市川市立大柏小学校
    大野町3丁目1993番地:
      latlng: 35.75312873,139.95686766
      name:
      - 市川市立第5中学校
    妙典2丁目14番2号:
      latlng: 35.69604559,139.93005479
      name:
      - 市川市立妙典小学校
    妙典5丁目22番1号:
      latlng: 35.68827702,139.93335209
      name:
      - 市川市立妙典中学校
    宮久保4丁目2番4号:
      latlng: 35.73695584,139.93606149
      name:
      - 宮久保老人いこいの家
    宮久保5丁目7番1号:
      latlng: 35.73663088,139.94376646
      name:
      - 市川市立宮久保小学校
    富浜1丁目1番40号:
      latlng: 35.69253799,139.92329708
      name:
      - 市川市立行徳小学校
    市川1丁目24番2号:
      latlng: 35.73013491,139.91044957
      name:
      - 市川市男女共同参画センター
    市川2丁目32番5号:
      latlng: 35.73204566,139.90544987
      name:
      - 市川市立市川小学校
    市川2丁目33番2号:
      latlng: 35.73113194,139.90657203
      name:
      - 市川市市川公民館
    市川2丁目33番6号:
      latlng: 35.73134301,139.90609984
      name:
      - 市川こども館
      - 市川老人いこいの家
    平田3丁目28番1号:
      latlng: 35.72420261,139.91810751
      name:
      - 市川市立平田小学校
    平田三丁目10番10号:
      latlng: 35.72344440,139.91986574
      name:
      - 千葉県立市川工業高等学校
    幸1丁目11番1号:
      latlng: 35.68106684,139.93015539
      name:
      - 市川市立幸小学校
    幸1丁目16番18号:
      latlng: 35.68031977,139.92784448
      name:
      - 市川市幸公民館
    新井1丁目18番13号:
      latlng: 35.67395614,139.89054761
      name:
      - 市川市立新井小学校
    新浜1丁目26番1号:
      latlng: 35.67412332,139.91633447
      name:
      - 市川市立南新浜小学校
    新田4丁目8番15号:
      latlng: 35.72684662,139.90934415
      name:
      - 市川市立宮田小学校
    日之出8番18号:
      latlng: 35.67809512,139.92365045
      name:
      - 日之出老人いこいの家
    曽谷3丁目2番1号:
      latlng: 35.74023588,139.93274779
      name:
      - 市川市立第3中学校
    曽谷6丁目10番1号:
      latlng: 35.73984152,139.92689267
      name:
      - 市川市立百合台小学校
    曽谷6丁目25番5号:
      latlng: 35.74373532,139.92746756
      name:
      - 市川市曽谷公民館
    曽谷7丁目18番1号:
      latlng: 35.74708755,139.92660090
      name:
      - 市川市立曽谷小学校
    末広1丁目1番48号:
      latlng: 35.68667502,139.91757553
      name:
      - 市川市立第7中学校
    本行徳12番8号:
      latlng: 35.69458798,139.91824179
      name:
      - 市川市本行徳公民館
    本行徳1番5号:
      latlng: 35.69622939,139.91931109
      name:
      - 市川市身体障害者福祉センター
    東国分2丁目4番1号:
      latlng: 35.74496846,139.92095414
      name:
      - 市川市立国分小学校
    東国分3丁目5番1号:
      latlng: 35.74889837,139.92290949
      name:
      - 市川市立東国分中学校
    柏井町1丁目1149番地1:
      latlng: 35.73966939,139.96657005
      name:
      - 市川市立柏井小学校
    柏井町2丁目844番地:
      latlng: 35.74597419,139.96540883
      name:
      - 市川市柏井公民館
    欠真間1丁目6番38号:
      latlng: 35.68050071,139.90144929
      name:
      - 市川市立南行徳小学校
    田尻4丁目13番3号:
      latlng: 35.70335276,139.93443201
      name:
      - 田尻老人いこいの家
    真間4丁目1番1号:
      latlng: 35.73777247,139.91021890
      name:
      - 市川市立真間小学校
    福栄3丁目4番1号:
      latlng: 35.67389563,139.91010440
      name:
      - 市川市立福栄中学校
    福栄4丁目32番2号:
      latlng: 35.66951811,139.90985179
      name:
      - 福栄老人いこいの家
    稲荷木1丁目14番1号:
      latlng: 35.71138817,139.92125765
      name:
      - 市川市立稲荷木小学校
    稲越町310番地:
      latlng: 35.75364206,139.92779235
      name:
      - 千葉県立国分高等学校
    稲越町518番地2:
      latlng: 35.75415863,139.92380932
      name:
      - 市川市立稲越小学校
    若宮2丁目15番8号:
      latlng: 35.72245782,139.95576591
      name:
      - 市川市若宮公民館
    若宮3丁目54番10号:
      latlng: 35.72698225,139.95217162
      name:
      - 市川市立若宮小学校
    菅野6丁目14番1号:
      latlng: 35.73337044,139.91630466
      name:
      - 市川市立菅野小学校
    行徳駅前4丁目5番1号:
      latlng: 35.68004789,139.91614260
      name:
      - 市川市立新浜小学校
    須和田2丁目34番1号:
      latlng: 35.73876396,139.91459080
      name:
      - 市川市立特別支援学校
      - 市川市立第2中学校
    香取1丁目17番18号:
      latlng: 35.68240615,139.90325183
      name:
      - 南行徳老人いこいの家
    高谷1509番地:
      latlng: 35.69321208,139.94413164
      name:
      - 千葉県立市川南高等学校
    高谷1627番地1:
      latlng: ''
      name:
      - 市川市立高谷中学校
    高谷1丁目8番2号:
      latlng: 35.70170548,139.94221760
      name:
      - 市川市信篤市民体育館
    鬼越1丁目25番3号:
      latlng: 35.72027788,139.93859505
      name:
      - 鬼越老人いこいの家
    鬼高1丁目1番4号:
      latlng: 35.71528438,139.93196235
      name:
      - 市川市生涯学習センター
    鬼高2丁目12番23号:
      latlng: 35.71324562,139.93876469
      name:
      - 市川市鬼高公民館
    鬼高2丁目13番5号:
      latlng: 35.71483706,139.93821468
      name:
      - 市川市立鬼高小学校
    鬼高3丁目16番1号:
      latlng: 35.71091549,139.93604830
      name:
      - 市川市立第6中学校
  御宿町:
    久保1135番地21:
      latlng: ''
      name:
      - 御宿町B&G海洋センター
    久保2085番地:
      latlng: 35.18852818,140.35500544
      name:
      - 御宿町立御宿小学校
    久保2200番地:
      latlng: 35.18718398,140.35393060
      name:
      - 御宿町立御宿公民館
    岩和田1075番地:
      latlng: 35.18574857,140.36486265
      name:
      - 旧御宿町立岩和田小学校
    岩和田1354番地:
      latlng: ''
      name:
      - サンドスキー場
    御宿台29番地1:
      latlng: ''
      name:
      - 御宿台多目的広場
    新町419番地6:
      latlng: 35.19186094,140.36012697
      name:
      - 御宿町立御宿児童館
    新町68番地:
      latlng: 35.19347452,140.36100738
      name:
      - 御宿町立御宿中学校
  成田市:
    一坪田380番地の3:
      latlng: ''
      name:
      - 成田市大栄B&G海洋センター
    中台1丁目4番地:
      latlng: 35.78478652,140.29092215
      name:
      - 成田市立中台小学校
    中台3丁目6番地:
      latlng: 35.78113429,140.30082960
      name:
      - 成田市立向台小学校
    中台4丁目2番地:
      latlng: 35.78246744,140.29636887
      name:
      - 成田市立中台中学校
    中台5丁目2番地:
      latlng: 35.78152873,140.30721229
      name:
      - 中台運動公園
    久住中央2丁目1番地:
      latlng: 35.83314005,140.34059273
      name:
      - 成田市立久住中学校
    久住中央3丁目12番地1:
      latlng: 35.83712846,140.33994815
      name:
      - 成田市立久住小学校
    伊能125番地:
      latlng: 35.83005549,140.42662881
      name:
      - 成田市立大栄中学校
    伊能547番地:
      latlng: 35.83874065,140.43286408
      name:
      - 成田市立大須賀小学校
    公津の杜3丁目2番地:
      latlng: 35.75671770,140.29487839
      name:
      - 成田市立公津の杜小学校
    前林430番地:
      latlng: 35.80175113,140.43315697
      name:
      - 成田市立前林小学校
    加良部4丁目23番地:
      latlng: 35.77392401,140.30109372
      name:
      - 成田市立新山小学校
    加良部5丁目11番地:
      latlng: 35.77421283,140.29557483
      name:
      - 成田市立西中学校
    加良部6丁目8番地:
      latlng: 35.77644868,140.29537477
      name:
      - 成田市立加良部小学校
    加良部三丁目16番:
      latlng: 35.77674038,140.30449328
      name:
      - 千葉県立成田国際高等学校
    北羽鳥1975番地3:
      latlng: 35.85403042,140.29504796
      name:
      - 成田市豊住運動施設
    北羽鳥1985番地2:
      latlng: 35.85189458,140.29448704
      name:
      - 成田市立豊住小学校
    十余三27番地3:
      latlng: 35.79986418,140.37467401
      name:
      - 成田市立東小学校
    台方851番地:
      latlng: 35.76659707,140.28300430
      name:
      - 成田市立公津小学校
    名古屋1199番地:
      latlng: 35.85697297,140.35972884
      name:
      - 成田市立小御門小学校
    名古屋1214番地:
      latlng: 35.86134181,140.36233400
      name:
      - 成田市立下総中学校
    名古屋247番地:
      latlng: 35.85944211,140.35718456
      name:
      - 千葉県立下総高等学校
    名木1050番地:
      latlng: 35.87696203,140.39234170
      name:
      - 成田市立名木小学校
    吾妻1丁目24番地:
      latlng: 35.78151185,140.28623668
      name:
      - 成田市立吾妻中学校
    吾妻2丁目6番地:
      latlng: 35.78331717,140.28600885
      name:
      - 成田市立吾妻小学校
    土屋303番地:
      latlng: 35.79005010,140.32241891
      name:
      - 成田国際文化会館
    土屋928番地1:
      latlng: 35.78783081,140.31416141
      name:
      - 成田市立成田中学校
    多良貝245番地308:
      latlng: 35.80300886,140.40700658
      name:
      - 成田市立川上小学校
    大和田151番地:
      latlng: 35.88128912,140.36207811
      name:
      - 成田市立高岡小学校
    大清水19番地:
      latlng: 35.76713711,140.35454103
      name:
      - 成田市立遠山中学校
    小菅1411番地:
      latlng: 35.77138663,140.35475483
      name:
      - 成田市立遠山小学校
    幡谷922番地6:
      latlng: 35.83519255,140.35241930
      name:
      - 成田市久住体育館・久住公民館
    幸町948番地1:
      latlng: 35.78293695,140.31378107
      name:
      - 成田市立成田小学校
    本三里塚153番地1:
      latlng: 35.75271683,140.37262287
      name:
      - 成田市立三里塚小学校
    本城178番地1:
      latlng: 35.73580166,140.36608510
      name:
      - 成田市立本城小学校
    松崎1468番地:
      latlng: 35.80482559,140.29139614
      name:
      - 成田市立八生小学校
    松崎20番地:
      latlng: 35.80814728,140.28803241
      name:
      - 千葉県立成田西陵高等学校
    桜田941番地1:
      latlng: ''
      name:
      - 成田市立桜田小学校
    橋賀台3丁目4番地:
      latlng: 35.77265744,140.29140035
      name:
      - 成田市立橋賀台小学校
    津富浦1093番地:
      latlng: 35.83141597,140.41352442
      name:
      - 成田市立津富浦小学校
    滑川1142番地:
      latlng: 35.86638555,140.34232205
      name:
      - 成田市立滑河小学校
    玉造3丁目4番地:
      latlng: 35.79227712,140.28666116
      name:
      - 成田市立玉造小学校
    玉造3丁目7番地:
      latlng: 35.78963859,140.28698902
      name:
      - 成田市立玉造中学校
    玉造5丁目28番地:
      latlng: 35.79295494,140.29247996
      name:
      - 成田市立神宮寺小学校
    玉造五丁目1番:
      latlng: 35.79516857,140.29378250
      name:
      - 千葉県立成田北高等学校
    美郷台2丁目19番地1:
      latlng: 35.79594369,140.30797830
      name:
      - 成田市立美郷台小学校
    船形186番地2:
      latlng: 35.78627750,140.26724978
      name:
      - 成田市印東体育館
    花崎町760番地:
      latlng: 35.77660447,140.31878080
      name:
      - 成田市役所
    赤坂1丁目1番地3:
      latlng: 35.77932054,140.29320823
      name:
      - 成田市中央公民館
    赤荻1574番地:
      latlng: 35.80858435,140.33057559
      name:
      - 中郷運動施設
    飯仲50番地1:
      latlng: 35.75758980,140.30004167
      name:
      - 成田市立平成小学校
    高岡1435:
      latlng: 35.87428725,140.35600108
      name:
      - 成田市下総運動公園・下総公民館
  我孫子市:
    つくし野171番地:
      latlng: 35.88532025,140.00404697
      name:
      - 我孫子市立久寺家中学校
    つくし野4丁目17番1号:
      latlng: 35.88189868,140.00496360
      name:
      - 我孫子市立根戸小学校
    つくし野7丁目30番1号:
      latlng: 35.87842204,140.02054262
      name:
      - 我孫子市立並木小学校
    下ヶ戸610番地:
      latlng: 35.87166099,140.05821076
      name:
      - 我孫子市立我孫子第二小学校
    中峠字亀田谷地内:
      latlng: ''
      name:
      - 中峠亀田谷公園
    中里95番地:
      latlng: 35.86616193,140.08736349
      name:
      - 我孫子市立湖北小学校
    久寺家684番地1:
      latlng: 35.88341554,140.01964262
      name:
      - 千葉県立我孫子高等技術専門校
    古戸300番地:
      latlng: 35.86876157,140.09193517
      name:
      - 我孫子市立湖北中学校
    天王台4丁目地内:
      latlng: 35.87105937,140.03721001
      name:
      - 天王台西公園
    寿1丁目22番地10号:
      latlng: 35.86890425,140.02047889
      name:
      - 我孫子市立我孫子第一小学校
    岡発戸1433番地2:
      latlng: ''
      name:
      - 五本松運動広場
    岡発戸字中谷津及び字明門作地内:
      latlng: ''
      name:
      - 五本松公園
    布佐1217番地:
      latlng: 35.85635215,140.13110956
      name:
      - 我孫子市立布佐小学校
    布佐1301番地:
      latlng: 35.85584113,140.13270948
      name:
      - 我孫子市立布佐中学校
    布佐平和台5丁目1番1号:
      latlng: 35.85696304,140.12058250
      name:
      - 我孫子市立布佐南小学校
    布佐平和台5丁目地内:
      latlng: 35.85811814,140.12028972
      name:
      - 布佐南公園
    我孫子新田字川岸上及び字明門作地内:
      latlng: ''
      name:
      - 手賀沼公園
    新々田172番地:
      latlng: 35.84471762,140.12997134
      name:
      - 千葉県立我孫子東高等学校
    新木1460番地:
      latlng: 35.86800055,140.10240068
      name:
      - 我孫子市立新木小学校
    新木2-5:
      latlng: 35.86090976,140.10643379
      name:
      - 気象台記念公園
    新木字大山下1685番地:
      latlng: ''
      name:
      - 千葉県立我孫子特別支援学校
    柴崎台2丁目地先:
      latlng: ''
      name:
      - 柴崎台中央公園
    柴崎台3丁目3番地1号:
      latlng: 35.87860113,140.04214003
      name:
      - 我孫子市立我孫子第三小学校
    湖北台4丁目3番1号:
      latlng: 35.86244854,140.07738963
      name:
      - 我孫子市立湖北台東小学校
    湖北台6丁目9番1号:
      latlng: 35.86098760,140.07132918
      name:
      - 我孫子市立湖北台中学校
    湖北台7丁目地先:
      latlng: 35.86342453,140.06982205
      name:
      - 湖北台中央公園
    湖北台8丁目17番1号:
      latlng: 35.86612035,140.07043191
      name:
      - 我孫子市立湖北台西小学校
    白山3丁目2番1号:
      latlng: 35.87166166,140.00478040
      name:
      - 我孫子市立我孫子第四小学校
    白山3丁目7番3号:
      latlng: 35.86971201,140.00454988
      name:
      - 我孫子市立白山中学校
    若松18番地4:
      latlng: 35.86363586,140.02537012
      name:
      - 千葉県立我孫子高等学校
    若松26番地4:
      latlng: 35.86630726,140.01480726
      name:
      - 我孫子市生涯学習センター(アビスタ)
    高野山198番地:
      latlng: 35.86642174,140.03077781
      name:
      - 我孫子市立高野山小学校
    高野山537番地:
      latlng: 35.86560272,140.03830756
      name:
      - 我孫子市立我孫子中学校
  旭市:
    イの1835番地:
      latlng: 35.72324946,140.65910886
      name:
      - 旭市立中央第三保育所
    ニの2510番地1:
      latlng: 35.71845004,140.64466633
      name:
      - 旭市立第二中学校
    ハの2304番地:
      latlng: 35.71011519,140.64491688
      name:
      - 旭市立第一中学校
    ハの250番地1:
      latlng: ''
      name:
      - 旭文化の森公園「ふれあい広場」
    ハの74番地:
      latlng: 35.71692538,140.65392092
      name:
      - 旭市立中央小学校
    ロ1番地:
      latlng: 35.71684767,140.65953416
      name:
      - 千葉県立旭農業高等学校
    ロの1425番地:
      latlng: ''
      name:
      - 中央公園
    三川4643番地:
      latlng: 35.70718886,140.70256140
      name:
      - 旭市立三川小学校
    三川5885番地:
      latlng: 35.70081722,140.69139017
      name:
      - 飯岡体育館
    中谷里3366番地:
      latlng: 35.69565333,140.63474126
      name:
      - 旭市立とみうら保育所
    中谷里3383番地2:
      latlng: 35.69521446,140.63331086
      name:
      - 旭市立富浦小学校
    二の1920番地:
      latlng: ''
      name:
      - 旭市役所
    二の5127番地:
      latlng: ''
      name:
      - 青年の家
    二の5491番地:
      latlng: ''
      name:
      - 旭スポーツの森公園
    井戸野2396番地1:
      latlng: 35.70854263,140.61487545
      name:
      - 旭市立ゆたか保育所
    井戸野2738番地:
      latlng: 35.71078120,140.61416150
      name:
      - 旭市立豊畑小学校
    仁玉2098番地1:
      latlng: ''
      name:
      - 仁玉スポーツ広場
    入野1355番地1:
      latlng: 35.75747034,140.62498295
      name:
      - ふれあいセンター
    入野2170番地:
      latlng: 35.77020794,140.62310280
      name:
      - 旭市立干潟中学校
    南堀之内22番地1:
      latlng: 35.76668049,140.61790033
      name:
      - 旭市干潟公民館
    岩井1000番地:
      latlng: 35.75154154,140.69001388
      name:
      - 旭市海上キャンプ場体育館
      - 滝のさと自然公園
    平松1424番地2:
      latlng: 35.70458948,140.71660219
      name:
      - 旭市立飯岡中央保育所
    後草2295番地:
      latlng: ''
      name:
      - (旧)旭市立海上中学校
    新町771番地:
      latlng: 35.74269166,140.63759600
      name:
      - 旭市立共和小学校
    桜井123番地1:
      latlng: 35.78074274,140.64822266
      name:
      - 萬歳地区多目的研修センター
    椎名内1278番地:
      latlng: 35.70352758,140.66807267
      name:
      - 旭市立矢指小学校
    横根1365番地25:
      latlng: 35.70303117,140.70880556
      name:
      - いいおかユートピアセンター
    横根3550番地:
      latlng: 35.71032205,140.71367725
      name:
      - いいおかふれあいスポーツ公園
    江ヶ崎1057番地:
      latlng: 35.73381767,140.65350051
      name:
      - 旭市立池の端保育所
    清和甲181番地:
      latlng: 35.76883862,140.61937530
      name:
      - 旭市立中和小学校
    清滝821番地:
      latlng: 35.76201507,140.68661946
      name:
      - 旭市立滝郷小学校
    琴田2864番地1:
      latlng: 35.73892000,140.65675827
      name:
      - 旭市立琴田小学校
    萩園1267番地:
      latlng: 35.70412556,140.71241639
      name:
      - 旭市立飯岡中学校
    萩園1437番地:
      latlng: 35.70298677,140.71062210
      name:
      - 食彩の宿 いいおか荘
    萬力2231番地:
      latlng: 35.74824904,140.59507340
      name:
      - コミュニティセンター
    萬歳356番地:
      latlng: 35.78302023,140.65155846
      name:
      - 旭市立まんざい保育所
    萬歳総堀番外1番地:
      latlng: ''
      name:
      - 旭市立萬歳小学校
    蛇園2464番地:
      latlng: ''
      name:
      - 海上野球場
    蛇園5533番地:
      latlng: 35.73755469,140.70114681
      name:
      - 旭市立鶴巻小学校
    野中4545番地:
      latlng: 35.70248888,140.67183610
      name:
      - 旭市立日の出保育所
    鎌数4013番地:
      latlng: ''
      name:
      - 袋公園
    鎌数9401番地3:
      latlng: 35.72284909,140.60660846
      name:
      - 旭市立干潟保育所
    鎌数9508番地:
      latlng: 35.72191310,140.60406983
      name:
      - 旭市立干潟小学校
    鎌数字川西5146番地:
      latlng: ''
      name:
      - 千葉県立東総工業高等学校
    鏑木1966番地:
