福島:
  いわき市:
    三和町下市萱字竹ノ内114-1:
      latlng: 37.14270114,140.68787165
      name:
      - 三和ふれあい館屋内ゲートボール場
    三和町下市萱字竹ノ内126:
      latlng: 37.14396768,140.68833548
      name:
      - 沢渡小学校校庭
    三和町下永井字大堀174:
      latlng: 37.13605311,140.76405500
      name:
      - 永井中学校
    三和町中三坂字腰巻28:
      latlng: 37.19914842,140.63757329
      name:
      - 三阪小・中学校校庭
    三和町中寺字樋ノ口4の2:
      latlng: 37.12484514,140.72234882
      name:
      - 三和中学校校庭
    三和町差塩字道添37:
      latlng: 37.18392213,140.71658601
      name:
      - 差塩小・中学校校庭
    中央台飯野3丁目2-1:
      latlng: 37.01643255,140.91047141
      name:
      - 中央台北小学校
    中央台飯野5丁目2-1:
      latlng: 37.02030415,140.91072956
      name:
      - 中央台北中学校
    中央台高久2丁目24:
      latlng: 37.00830096,140.92884933
      name:
      - 中央台東小学校
    中央台鹿島2丁目1-1:
      latlng: 37.00258204,140.92267777
      name:
      - 中央台南小学校
    中岡町三丁目2-1:
      latlng: ''
      name:
      - 中岡第二公園
    中岡町六丁目3-1:
      latlng: ''
      name:
      - 中岡第一公園
    久ノ浜町金ケ沢字北磯脇29-2:
      latlng: ''
      name:
      - 久之浜市民運動場
    久之浜町久之浜字大場69:
      latlng: 37.14506679,140.98760489
      name:
      - 久之浜中学校校庭
    久之浜町久之浜字糠塚15:
      latlng: 37.14256433,140.99265433
      name:
      - 久之浜第一小学校校庭
    久之浜町田之網字向山53:
      latlng: 37.12164954,140.98684747
      name:
      - 福島県いわき海浜自然の家
    佐糠町一丁目16-1:
      latlng: ''
      name:
      - 台公園
    佐糠町二丁目13-1:
      latlng: ''
      name:
      - 竹ノ花公園
    佐糠町八反田56-4:
      latlng: 36.91858410,140.80281848
      name:
      - 商工会議所勿来支所
    内郷内町前田19:
      latlng: 37.03526582,140.84813626
      name:
      - 内町幼稚園園庭
    内郷内町水之出52:
      latlng: 37.03524110,140.85053044
      name:
      - 内町小学校校庭
    内郷内町磐堰106:
      latlng: ''
      name:
      - 内町公園
    内郷内町駒谷3-1:
      latlng: 37.04008533,140.85488803
      name:
      - 福島県立いわき総合高等学校
    内郷宮町金坂152-1:
      latlng: 37.04027047,140.84581677
      name:
      - 宮保育所所庭
    内郷御厩町2丁目121:
      latlng: 37.04625752,140.86942231
      name:
      - 御厩小学校体育館
    内郷御厩町下宿99:
      latlng: 37.04782141,140.87756860
      name:
      - 御厩保育所所庭
    内郷御厩町二丁目59:
      latlng: ''
      name:
      - 天上田公園
    内郷御厩町四丁目64:
      latlng: ''
      name:
      - 長町公園
    内郷御台境町新町前11-9:
      latlng: 37.05417059,140.88015702
      name:
      - 新町前公園
    内郷綴町川原田59:
      latlng: 37.03799984,140.85771838
      name:
      - 馬場児童公園
    内郷綴町町之内36-1:
      latlng: 37.03456948,140.85463834
      name:
      - 綴保育所所庭
    内郷綴町秋山88:
      latlng: 37.03098136,140.85605226
      name:
      - 綴小学校校庭
    内郷綴町金谷15-1:
      latlng: ''
      name:
      - 金谷公園
    内郷高坂町一丁目20-1:
      latlng: ''
      name:
      - 日の出児童遊園
    内郷高坂町一丁目56:
      latlng: ''
      name:
      - 高坂北公園
    内郷高坂町一丁目86-7:
      latlng: ''
      name:
      - 高坂南公園
    内郷高坂町二丁目25:
      latlng: ''
      name:
      - 金坂公園
    内郷高坂町台6:
      latlng: 37.04068825,140.85712664
      name:
      - 高坂小学校校庭
    内郷高坂町立野129:
      latlng: 37.04322618,140.85102715
      name:
      - 内郷第一中学校校庭
    内郷高野町中倉82:
      latlng: 37.05377304,140.79547679
      name:
      - 高野小学校・内郷第三中学校校庭
    勿来町九面浜田11番地の4:
      latlng: ''
      name:
      - いわき市勿来駐車場
    勿来町白米林ノ中30-99:
      latlng: ''
      name:
      - 白米第一公園
    勿来町窪田伊賀屋敷1:
      latlng: 36.89350233,140.76233199
      name:
      - 勿来第一小学校校庭
    勿来町窪田町通2丁目ー1:
      latlng: 36.88871715,140.76767628
      name:
      - 福島県立勿来高等学校
    勿来町酒井北ノ内1:
      latlng: 36.88591710,140.74243663
      name:
      - 勿来第三小学校校庭
    勿来町関田北作6:
      latlng: 36.88101606,140.78384180
      name:
      - 勿来第二中学校校庭
    勿来町関田和久70:
      latlng: 36.88556555,140.78823259
      name:
      - 勿来第二小学校校庭
    四倉町字5丁目4番地:
      latlng: 37.11248379,140.98806409
      name:
      - 福島県立四倉高等学校
    四倉町字東一丁目65:
      latlng: 37.09923233,140.98487019
      name:
      - 四倉中学校校庭
    四倉町字栗木作53-1:
      latlng: 37.11890810,140.98516163
      name:
      - 四倉市民運動場
    四倉町字西四丁目3-3:
      latlng: 37.10928687,140.98726699
      name:
      - 四倉小学校校庭
    四倉町山田小湊字方礼31:
      latlng: 37.11327098,140.93444508
      name:
      - 大野公民館
    四倉町狐塚字小橋89:
      latlng: 37.09064951,140.96926109
      name:
      - 大浦公民館
    四倉町狐塚字松橋20:
      latlng: 37.09481550,140.96601407
      name:
      - 大浦小学校校庭
    四倉町玉山字御城204:
      latlng: 37.11736510,140.93728075
      name:
      - 大野中学校
    四倉町玉山字林崎5:
      latlng: 37.11536282,140.94788798
      name:
      - 大野第一小学校校庭
    四倉町駒込字広畑11:
      latlng: 37.11411737,140.90336531
      name:
      - 大野第二小学校
    大久町大久字日渡77-1:
      latlng: 37.15703471,140.97711095
      name:
      - 大久公民館
    大久町大久字矢ノ目沢12:
      latlng: 37.17671708,140.95449287
      name:
      - 久之浜第二小学校校庭
    大久町小久字連郷89-1:
      latlng: 37.14345868,140.99169053
      name:
      - 久之浜保育所所庭
    好間工業団地24-5:
      latlng: 37.07863917,140.84471146
      name:
      - 好間多目的広場
    好間町上好間字馬場前28:
      latlng: 37.06716822,140.85200333
      name:
      - 好間第一小学校
    好間町今新田字手倉2:
      latlng: 37.06695781,140.87621256
      name:
      - 好間第二小学校校庭
    好間町北好間字権現堂60:
      latlng: 37.07088665,140.83240161
      name:
      - 好間第三小学校校庭
    好間町大利字戸田作60:
      latlng: ''
      name:
      - 好間第四小学校
    好間町小谷作字竹ノ内1:
      latlng: 37.06803233,140.86155267
      name:
      - 好間中学校校庭
    小名浜下神白字大作33:
      latlng: ''
      name:
      - 三崎公園
    小名浜下神白字武城23:
      latlng: 36.94692549,140.92220060
      name:
      - 福島県立小名浜高等学校
    小名浜住吉字浜宿1:
      latlng: 36.97791768,140.88528245
      name:
      - 小名浜第三小学校校庭
    小名浜南君ケ塚町13:
      latlng: 36.95657918,140.89973520
      name:
      - 小名浜中央公園
    小名浜大原字小滝山3:
      latlng: 36.96622240,140.89716258
      name:
      - 小名浜西小学校校庭
    小名浜字吹松16-19:
      latlng: ''
      name:
      - 吹松公園
    小名浜字愛宕上6番地の1:
      latlng: 36.95416536,140.89525800
      name:
      - 小名浜市民会館
    小名浜字蛭川南140-2:
      latlng: ''
      name:
      - 横町公園
    小名浜字観音作47:
      latlng: 36.95083033,140.91214568
      name:
      - 富ヶ浦公園
    小名浜岡小名二丁目5-1:
      latlng: ''
      name:
      - 岡小名公園
    小名浜岡小名字台ノ上1:
      latlng: 36.96297575,140.90132354
      name:
      - 小名浜第一小学校校庭
    小名浜岡小名字山田作15:
      latlng: 36.96689176,140.89727087
      name:
      - 小名浜第一中学校校庭
    小名浜岡小名字池袋11:
      latlng: 36.95597145,140.91192590
      name:
      - 小名浜第二中学校校庭
    小名浜愛宕上7-2:
      latlng: 36.95408478,140.89460253
      name:
      - 小名浜公民館広場
    小名浜愛宕町3の2:
      latlng: 36.95206006,140.89598866
      name:
      - 小名浜第二小学校校庭
    小名浜林城字日代鳥20:
      latlng: ''
      name:
      - 矢田川公園
    小名浜港ケ丘29:
      latlng: ''
      name:
      - 港ヶ丘公園
    小名浜玉川町南22:
      latlng: ''
      name:
      - 玉川中央公園
    小名浜玉川町西24:
      latlng: 36.98314741,140.88244368
      name:
      - 玉川中学校
    小名浜花畑町44:
      latlng: 36.95727933,140.90486251
      name:
      - 高田公園
    小名浜諏訪町37の1:
      latlng: 36.95451882,140.91167323
      name:
      - 小名浜東小学校校庭
    小島町二丁目1-1:
      latlng: ''
      name:
      - 小島第一公園
    小川町上小川字下广門44-2:
      latlng: 37.12831721,140.85632162
      name:
      - 小川公民館広場
    小川町上平字田ノ尻4:
      latlng: ''
      name:
      - 小川小学校校庭
    小川町上平字竹ノ内63:
      latlng: 37.12916992,140.85738253
      name:
      - 小川中学校校庭
    小川町柴原字館下6:
      latlng: 37.13758041,140.87311430
      name:
      - 小川市民運動場
    小川町西小川字小玉27:
      latlng: 37.12269576,140.86225483
      name:
      - 小玉小学校校庭
    小川町高萩字下川原127-1:
      latlng: 37.12800353,140.86306267
      name:
      - 小川保育所
    山田町堀ノ内104-3:
      latlng: 36.95362120,140.76624817
      name:
      - 山田保育所
    山田町東川原13:
      latlng: 36.92687941,140.77732900
      name:
      - 菊田保育所
    山田町林崎前30:
      latlng: 36.92925129,140.77352370
      name:
      - 山田公民館
    山田町林崎前46:
      latlng: 36.92835412,140.77283770
      name:
      - 菊田小学校校庭
    川前町下桶売字久保田96-2:
      latlng: 37.24403081,140.72231959
      name:
      - 桶売小・中学校
    川前町小白井字将監小屋101:
      latlng: 37.29875716,140.70804696
      name:
      - 小白井小・中学校校庭
    川前町川前字中ノ萱25-1:
      latlng: 37.20555916,140.75287612
      name:
      - 川前小・中学校
    川前町川前字椚立79:
      latlng: 37.20576758,140.75725068
      name:
      - 川前公民館前庭
    川部町坂下26:
      latlng: 36.90399780,140.72723715
      name:
      - 川部中学校校庭
    川部町川原65の1:
      latlng: 36.90551978,140.73196725
      name:
      - 川部小学校校庭
    川部町川原80:
      latlng: 36.90466712,140.73069517
      name:
      - 川部公民館
    常磐上湯長谷町上ノ台75:
      latlng: 37.00244954,140.83740232
      name:
      - 長倉小学校
    常磐上湯長谷町五反田206-1:
      latlng: ''
      name:
      - 五反田公園
    常磐上湯長谷町五反田55:
      latlng: 36.99735558,140.84199075
      name:
      - 福島県立湯本高等学校
    常磐上湯長谷町湯台堂172-3:
      latlng: 37.00260220,140.83372222
      name:
      - 上湯長谷公園
    常磐上湯長谷町釜ノ前147-65:
      latlng: ''
      name:
      - 釜ノ前第1公園
    常磐上湯長谷町釜ノ前161-163:
      latlng: ''
      name:
      - 釜ノ前第2児童遊園
    常磐下湯長谷町一丁目77:
      latlng: ''
      name:
      - 下湯長谷公園
    常磐下湯長谷町勝善21:
      latlng: 36.98807611,140.85111743
      name:
      - 磐崎小学校校庭
    常磐下湯長谷町家中跡25:
      latlng: 36.99066426,140.84435163
      name:
      - 磐崎中学校
    常磐水野谷町竜ケ沢308:
      latlng: ''
      name:
      - 21世紀の森公園
    常磐水野谷町竜ヶ沢230:
      latlng: 37.00839009,140.86329304
      name:
      - 湯本第三小学校校庭
    常磐湯本町上浅貝10:
      latlng: 37.01547498,140.85797994
      name:
      - 湯本第二中学校校庭
    常磐湯本町下浅貝69-26:
      latlng: ''
      name:
      - 下浅貝公園
    常磐湯本町向田3番地の1:
      latlng: 37.01265756,140.84838680
      name:
      - いわき市石炭化石館広場
    常磐湯本町吹谷11:
      latlng: 37.00583555,140.84282654
      name:
      - 湯本第一中学校校庭
    常磐湯本町日渡17:
      latlng: 37.01852307,140.84211523
      name:
      - 湯本第二小学校校庭
    常磐湯本町日渡92-1:
      latlng: 37.02130594,140.84105974
      name:
      - 常磐市民運動場
    常磐藤原町一本木10-1:
      latlng: ''
      name:
      - 藤原公園
    常磐藤原町斑堂115-2:
      latlng: 37.00154688,140.82239607
      name:
      - 藤原小学校
    平上大越字塚越1:
      latlng: 37.05258771,140.95262865
      name:
      - 夏井小学校
    平上平窪字羽黒40-45:
      latlng: 37.09406341,140.88965122
      name:
      - 福島県立平養護学校
    平上片寄字大平23番地:
      latlng: 37.07515542,140.92568686
      name:
      - いわき市北部憩いの家
    平上神谷石ノ町13-1:
      latlng: 37.06716698,140.91657177
      name:
      - 福島県立いわき養護学校
    平上荒川字長尾30:
      latlng: 37.03255467,140.88932294
      name:
      - 福島工業高等専門学校グランド
    平上高久字高久字大日作:
      latlng: ''
      name:
      - いわき公園
    平下平窪一丁目5:
      latlng: 37.07503753,140.88262544
      name:
      - 下平窪第二公園
    平下平窪字味噌農9:
      latlng: 37.07538746,140.88010904
      name:
      - 下平窪第一公園
    平下平窪字諸荷65:
      latlng: 37.08233671,140.88054749
      name:
      - 平第四小学校校庭
    平下神谷字宿25:
      latlng: 37.07141821,140.94790360
      name:
      - 草野小学校校庭
    平下荒川字中剃1-3:
      latlng: 37.03718767,140.90290754
      name:
      - 福島県立平工業高等学校
    平下荒川字中剃47-1:
      latlng: 37.04031777,140.90362407
      name:
      - 飯野公民館
    平下荒川字南作100:
      latlng: 37.03028026,140.89628046
      name:
      - 上荒川公園
    平下荒川字川前58:
      latlng: 37.04068454,140.90778193
      name:
      - 平第五小学校校庭
    平下高久字原極64:
      latlng: 37.02956578,140.95829047
      name:
      - 高久小学校
    平下高久字水門100:
      latlng: 37.03122389,140.95778204
      name:
      - 高久公民館
    平中塩字一水口37-1:
      latlng: 37.07056867,140.90053476
      name:
      - 福島県立平商業高等学校
    平中平窪字細田町1-1:
      latlng: 37.08541965,140.87678937
      name:
      - 平窪公民館
    平中神谷字石脇22:
      latlng: 37.06826789,140.93190852
      name:
      - 平第六小学校校庭
    平中神谷字籠田78-1:
      latlng: 37.06667365,140.93118922
      name:
      - 神谷公民館
    平字一町目20-1:
      latlng: ''
      name:
      - 平一町目公園
    平字三崎1:
      latlng: 37.04986863,140.88955608
      name:
      - 平中央公園
    平字下川原40:
      latlng: ''
      name:
      - 下川原公園
    平字九品寺町2-1:
      latlng: ''
      name:
      - 九品寺前公園
    平字五色町5:
      latlng: ''
      name:
      - 五色町公園
    平字佃町5-1:
      latlng: ''
      name:
      - 佃町公園
    平字作町三丁目4-2:
      latlng: 37.04787213,140.90265736
      name:
      - 平第三小学校校庭
    平字堂ノ前1:
      latlng: 37.05297092,140.88788120
      name:
      - 堂ノ前公園
    平字大工町7-1:
      latlng: ''
      name:
      - 大工町公園
    平字小太郎町5:
      latlng: 37.05239611,140.89235015
      name:
      - 小太郎町公園
    平字尼子町4:
      latlng: 37.05166821,140.88259017
      name:
      - 尼子町公園
    平字愛谷町四丁目7-1:
      latlng: 37.05074690,140.90845938
      name:
      - 白土公園
    平字揚土1:
      latlng: 37.05869784,140.88338432
      name:
      - 平第一中学校
    平字揚土5:
      latlng: 37.05828681,140.88515358
      name:
      - 平第一小学校校庭
    平字新田前6-1:
      latlng: ''
      name:
      - 下の町公園
    平字桜町5番地:
      latlng: 37.06309176,140.88718653
      name:
      - 福島県立磐城桜が丘高等学校
    平字梅香町7-1:
      latlng: 37.06345846,140.89314694
      name:
      - 平第二小学校校庭
    平字正内町109:
      latlng: ''
      name:
      - 正内町東公園
    平字正内町22番地:
      latlng: 37.05431827,140.90005197
      name:
      - 平市民運動場
    平字紅葉町42-1:
      latlng: ''
      name:
      - 紅葉町公園
    平字菱川町7-7:
      latlng: ''
      name:
      - 菱川町公園
    平字高月7番地:
      latlng: 37.06318886,140.87971233
      name:
      - 福島県立磐城高等学校
    平荒田目字高原16:
      latlng: 37.05467627,140.95063159
      name:
      - 夏井公民館
    平薄磯字南作23:
      latlng: 37.00144170,140.97452097
      name:
      - 豊間小学校
    平藤間字千ヶ久保776:
      latlng: ''
      name:
      - 藤間中学校校庭
    平谷川瀬字仲山町7-1:
      latlng: ''
      name:
      - 仲山町公園
    平谷川瀬字吉野作56:
      latlng: 37.04192832,140.89526111
      name:
      - 平第三中学校校庭
    平赤井字大門13:
      latlng: 37.08513586,140.85309132
      name:
      - 赤井中学校校庭
    平赤井字田町49:
      latlng: 37.08737477,140.86498757
      name:
      - 赤井小学校校庭
    東田町向山3:
      latlng: 36.92453641,140.80435953
      name:
      - 植田小学校校庭
    東田町菖蒲沢 地内:
      latlng: ''
      name:
      - 東田墓園
    桜ヶ丘四丁目68-1:
      latlng: ''
      name:
      - 桜ヶ丘四丁目公園
    植田町中央三丁目9-1:
      latlng: ''
      name:
      - 植田第二公園
    植田町中央二丁目11-1:
      latlng: ''
      name:
      - 植田中央公園
    植田町堂の作10番地:
      latlng: 36.92817717,140.79361056
      name:
      - 福島県立勿来工業高等学校
    植田町小名田60番地:
      latlng: 36.92569394,140.79086378
      name:
      - 福島県立磐城農業高等学校
    植田町本町一丁目12:
      latlng: 36.91485074,140.79662499
      name:
      - 後宿公園
    植田町根小屋25の4:
      latlng: 36.91936103,140.78693953
      name:
      - 植田中学校校庭
    植田町石塚町国分175-2:
      latlng: ''
      name:
      - 植田東中学校
    永崎字川畑207:
      latlng: 36.95539976,140.93720418
      name:
      - 永崎小学校校庭
    永崎字館1:
      latlng: 36.95919098,140.94089527
      name:
      - 江名中学校
    江名字天ケ作130:
      latlng: 36.97144785,140.95432699
      name:
      - 江名小学校体育館
    沼部町金山下14-2:
      latlng: ''
      name:
      - 沼部橋記念遊園
    泉玉露七丁目9-1:
      latlng: ''
      name:
      - 沖公園
    泉町4丁目13-11:
      latlng: 36.95166912,140.85375260
      name:
      - 泉公民館
    泉町一丁目18-1:
      latlng: ''
      name:
      - 泉公園
    泉町下川字大剣地内:
      latlng: ''
      name:
      - 小名浜臨海工業団地大畑緑地
    泉町下川字神笑地内及び井戸内地内:
      latlng: ''
      name:
      - 小名浜臨海工業団地東緑地
    泉町五丁目16-5:
      latlng: ''
      name:
      - 泉清水公園
    泉町小山48-2:
      latlng: 36.95070235,140.84781186
      name:
      - 泉小学校
    泉町玉露字吉野作19:
      latlng: 36.96287837,140.85227402
      name:
      - 泉中学校校庭
    泉町玉露字定田69:
      latlng: 36.96218376,140.84737205
      name:
      - 泉北小学校
    泉町黒須野字早稲田235-102:
      latlng: ''
      name:
      - 早稲田公園
    洋向台二丁目49-6:
      latlng: ''
      name:
      - 洋向台中央公園
    渡辺町上釜戸字堤ノ内38番1:
      latlng: ''
      name:
      - 上釜戸運動広場
    渡辺町田部字岸18:
      latlng: 36.95900322,140.82941075
      name:
      - 渡辺小学校校庭
    渡辺町田部字深町39-1:
      latlng: 36.95820337,140.82933859
      name:
      - 渡辺公民館
    湘南台一丁目1-37:
      latlng: ''
      name:
      - 湘南台西公園
    田人町旅人字下平石191:
      latlng: 36.95221205,140.70483387
      name:
      - 田人ふれあい館屋内運動場
    田人町旅人字和再松木平4:
      latlng: 36.94528047,140.65407730
      name:
      - 田人第二小学校校庭
    田人町石住字貝屋37:
      latlng: 37.03356505,140.64178524
      name:
      - 石住小・中学校校庭
    田人町荷路夫字榎町66:
      latlng: 36.96473438,140.65902865
      name:
      - 田人第一小学校荷路夫分校体育館
    田人町貝泊字久子ノ内35:
      latlng: 36.99167927,140.61564716
      name:
      - 貝泊小・中学校校庭
    田人町黒田字一ノ倉49:
      latlng: 36.96176642,140.70193907
      name:
      - 田人保育所所庭
    田人町黒田字中野12:
      latlng: 36.96319688,140.70488041
      name:
      - 田人第一小学校校庭
    田人町黒田字台1:
      latlng: 36.96436612,140.70258609
      name:
      - 田人中学校
    田人町黒田字寺ノ下64:
      latlng: 36.96544938,140.70456642
      name:
      - 田人市民運動場
    若葉台一丁目24-5:
      latlng: ''
      name:
      - 若葉台北公園
    草木台一丁目7:
      latlng: 37.02015043,140.86799218
      name:
      - 草木台一丁目公園
    草木台二丁目11:
      latlng: 37.01699527,140.86810047
      name:
      - 草木台二丁目公園
    遠野町上根本字荒神平20:
      latlng: 37.03241189,140.71649799
      name:
      - 入遠野中学校校庭
    遠野町上遠野字久保作34:
      latlng: 37.00312060,140.74153400
      name:
      - 遠野市民運動場
    遠野町上遠野字堀切1-1:
      latlng: 37.00962003,140.74500556
      name:
      - 上遠野公民館
    遠野町上遠野字根小屋30:
      latlng: 37.01062269,140.75044404
      name:
      - 上遠野中学校校庭
    遠野町入遠野字前田142:
      latlng: 37.03693058,140.70759865
      name:
      - 入遠野小学校校庭
    遠野町入遠野字前田38-1:
      latlng: 37.03508361,140.70853475
      name:
      - 入遠野公民館
    郷ヶ丘三丁目50-18:
      latlng: 37.02915587,140.91257070
      name:
      - 郷ヶ丘小学校校庭
    金山町朝日台1:
      latlng: 36.92720104,140.82084051
      name:
      - 金山公園
    錦町中迎二丁目4-1:
      latlng: ''
      name:
      - 中迎二丁目公園
    錦町江栗三丁目27:
      latlng: ''
      name:
      - 江栗第一公園
    錦町細谷102-58:
      latlng: ''
      name:
      - 南の森スポーツパーク
    錦町飯盛町1:
      latlng: 36.90247418,140.78819856
      name:
      - 錦中学校校庭
    錦町鳥居東1:
      latlng: 36.91013985,140.78858987
      name:
      - 錦小学校校庭
    錦町鷺内64の5:
      latlng: 36.90169135,140.79830611
      name:
      - 錦東小学校校庭
    鹿島町船戸字林下9-2:
      latlng: ''
      name:
      - 船戸第一公園
  三島町:
    大字名入字諏訪の上395:
      latlng: 37.48282052,139.66447390
      name:
      - 三島町生活工芸館
    大字名入字諏訪の上418:
      latlng: 37.48388987,139.66541822
      name:
      - 三島町交流センター
    大字大谷字堂免1634:
      latlng: 37.44841851,139.65004379
      name:
      - 大谷活性化センター
    大字宮下字上ノ原2099:
      latlng: 37.46831039,139.63889391
      name:
      - 三島中学校
    大字宮下字下乙田889:
      latlng: 37.47418494,139.64710657
      name:
      - 三島町多目的集会施設(ひだまり)
    大字宮下字宮下350:
      latlng: 37.47033530,139.64406822
      name:
      - 三島町町民センター
    大字宮下字建堀1846:
      latlng: 37.46981868,139.64353775
      name:
      - 三島小学校
    大字宮下字舘479:
      latlng: 37.47172121,139.64286829
      name:
      - 三島保育所
    大字川井字下居平244:
      latlng: 37.47596856,139.66407143
      name:
      - 川井集会所
    大字桧原字居平1994-5:
      latlng: 37.49046734,139.67747524
      name:
      - 桧原多目的集会所
    大字西方字上原3580:
      latlng: 37.48851406,139.66059631
      name:
      - 三島町生涯学習センター
    大字西方字居平302:
      latlng: 37.49301628,139.66286542
      name:
      - 三島町ふるさとセンター
  三春町:
    大字上舞木字大谷ツ3-2:
      latlng: 37.42245126,140.44004834
      name:
      - 岩江幼稚園
    大字上舞木沢字大谷ツ24:
      latlng: ''
      name:
      - 岩江センター
    大字実沢字楢梨215-5:
      latlng: 37.48753720,140.53758902
      name:
      - 沢石会館
    大字富沢字楢梨池頭76:
      latlng: 37.48838708,140.53697238
      name:
      - 沢石小学校
    大字富沢字石田68:
      latlng: 37.48883986,140.53895273
      name:
      - 沢石中学校
    大字平沢字東333-2:
      latlng: 37.46652989,140.48375672
      name:
      - 就業改善センター(御木沢地区公民館)
    大字柴原字神久保235:
      latlng: ''
      name:
      - 中郷分館(中郷地区交流館)
      - 中郷小学校
      - 中郷幼稚園
    大字沼沢字神ノ上139:
      latlng: 37.41088379,140.46168867
      name:
      - 中妻小学校
    大字熊耳字八ツ田213:
      latlng: 37.46217031,140.52004477
      name:
      - 要田中学校
    大字貝山字泉沢100:
      latlng: 37.43158710,140.49089361
      name:
      - 三春町民体育館
    大字鷹巣字大日向13:
      latlng: 37.41101430,140.46029433
      name:
      - 中妻地区公民館
    大字鷹巣字瀬山213:
      latlng: ''
      name:
      - 桜中学校
    字一本松34:
      latlng: 37.44130227,140.47456956
      name:
      - 一本松34団地集会所
    字南町1:
      latlng: 37.44083879,140.49352634
      name:
      - 三春町福祉会館
    字大町157:
      latlng: 37.44263577,140.49300687
      name:
      - 三春小学校
    字大町191:
      latlng: 37.44218857,140.49125703
      name:
      - 三春交流館まほら
    字日向町58:
      latlng: 37.44609083,140.48969035
      name:
      - 三春中学校
    字樋ノ口111:
      latlng: 37.45668116,140.48725958
      name:
      - 御木沢小学校
    担橋1-4-1:
      latlng: 37.44807103,140.48410186
      name:
      - 第1保育所
  下郷町:
    大字中妻大百刈69:
      latlng: 37.26256796,139.87409473
      name:
      - 下郷中学校
    大字塩生字大石1000:
      latlng: 37.25470484,139.87307840
      name:
      - 下郷ふれあいセンター
    大字塩生字金掘場1935-1:
      latlng: ''
      name:
      - 旭田小学校
    大字沢田字下林1911:
      latlng: ''
      name:
      - 大川ふるさと公園
    大字湯野上字杉ノ内乙502-1:
      latlng: 37.29748460,139.89863785
      name:
      - 湯野上保育所
    大字豊成字山崎6407番地2:
      latlng: ''
      name:
      - 楢原小学校
  中島村:
    大字二子塚字家来47:
      latlng: 37.13139741,140.34824357
      name:
      - 吉子川小学校グランド
    大字滑津字中島西14:
      latlng: 37.14856459,140.35091192
      name:
      - 中島中学校屋内運動場
      - 中島中学校グランド
    大字滑津字二ツ山28-2:
      latlng: 37.15017822,140.34783994
      name:
      - 中島幼稚園
    大字滑津字二ツ山65-3:
      latlng: 37.15314451,140.34993402
      name:
      - 総合福祉センター
    大字滑津字二ツ山65-4:
      latlng: 37.15258068,140.34862585
      name:
      - 中島保育所
    大字滑津字二ツ山75:
      latlng: 37.15088367,140.34663170
      name:
      - 農村環境改善センター
    大字滑津字羽黒前2:
      latlng: 37.15507511,140.37125126
      name:
      - 滑津小学校
    大字滑津字羽黒前3:
      latlng: ''
      name:
      - 滑津小学校グランド
  二本松市:
    三保内72:
      latlng: 37.58771260,140.41769116
      name:
      - 岳下住民センター
    上川崎字上種田1:
      latlng: 37.61032513,140.49106060
      name:
      - 川崎小学校
    上川崎字宮ノ脇7-3:
      latlng: ''
      name:
      - 上川崎住民センター
    下川崎字大中地66:
      latlng: ''
      name:
      - 下川崎住民センター
    下長折字真角13番地:
      latlng: 37.57860667,140.50949311
      name:
      - 福島県立安達東高等学校
    中江195:
      latlng: 37.56178179,140.41610869
      name:
      - 杉田小学校
    亀谷1-5-1:
      latlng: 37.59425396,140.43910014
      name:
      - 二本松住民センター
    亀谷2-123:
      latlng: 37.59455410,140.44630776
      name:
      - 二本松南小学校
    原セ才木380:
      latlng: 37.58471480,140.38517190
      name:
      - 原瀬小学校
    吉倉字宮町60:
      latlng: ''
      name:
      - 吉倉高齢者能力活用センター
    塩沢町1-238-1:
      latlng: 37.61463447,140.42555591
      name:
      - 塩沢小学校
      - 塩沢住民センター
    大作165:
      latlng: 37.57191964,140.41110337
      name:
      - 二本松第三中学校
    大壇175-1:
      latlng: 37.58621841,140.42283523
      name:
      - 岳下小学校
    太田字堺田47-1:
      latlng: 37.59363030,140.53955115
      name:
      - 太田住民センター
    小浜字北月山27:
      latlng: 37.56219460,140.50934664
      name:
      - 岩代コミュニティセンター
    小浜字藤町368:
      latlng: 37.55768960,140.51327983
      name:
      - 岩代第2体育館
    小高内3:
      latlng: 37.56268270,140.45965726
      name:
      - 石井小学校
    岳温泉1-177-1:
      latlng: 37.60549768,140.35314345
      name:
      - 安達太良小学校
    戸沢字下田100:
      latlng: 37.56963619,140.57840143
      name:
      - 戸沢住民センター
    木幡字叺内65:
      latlng: 37.61985857,140.55662379
      name:
      - 木幡住民センター
    木幡字東和代34-1:
      latlng: 37.63045962,140.52615365
      name:
      - ウッディハウスとうわ
    榎戸1丁目58-2:
      latlng: 37.59356548,140.45135451
      name:
      - 福島県立二本松工業高等学校
    沖3-301:
      latlng: 37.56855725,140.46630362
      name:
      - 二本松第二中学校
    油井字田向100:
      latlng: 37.61713220,140.46502697
      name:
      - 安達中学校屋内運動場
      - 安達中学校
    油井字田向20:
      latlng: 37.61640451,140.46451872
      name:
      - あだち保育園
    油井字長谷堂230:
      latlng: 37.61850123,140.45580007
      name:
      - 安達運動場(体育館)
    渋川字上払川96-1:
      latlng: 37.63227478,140.46416521
      name:
      - 渋川住民センター
    渋川字神明森27:
      latlng: 37.63478276,140.46245970
      name:
      - 渋川小学校
    竹ノ内22:
      latlng: 37.58045061,140.47527722
      name:
      - 大平小学校
    米沢字松ノ木内41:
      latlng: ''
      name:
      - 米沢会館
    西新殿字西1:
      latlng: 37.53472920,140.55778851
      name:
      - 新殿住民センター
    西町223-1:
      latlng: 37.55996797,140.41188969
      name:
      - 杉田住民センター
    郭内1-1:
      latlng: 37.59702299,140.43483932
      name:
      - 二本松北小学校
    郭内2-56-1:
      latlng: 37.60174477,140.44021357
      name:
      - 二本松第一中学校
    郭内2丁目347番地:
      latlng: 37.60031440,140.44112189
      name:
      - 福島県立安達高等学校
    針道字上台132:
      latlng: 37.59825020,140.58020026
      name:
      - 東和文化センター
    針道字蔵下22:
      latlng: 37.59753613,140.58109242
      name:
      - 東和保健センター
  伊達市:
    伊達市伏黒字一本石41-2:
      latlng: 37.82525042,140.52692992
      name:
      - 東公民館
    伊達市伏黒字土井ノ内42:
      latlng: 37.82376163,140.52385522
      name:
      - 伊達東小学校
    伊達市前川原37-1:
      latlng: 37.82043103,140.50736776
      name:
      - 伊達体育館
    伊達市舘ノ内20:
      latlng: 37.82559749,140.52242749
      name:
      - 伊達小学校
    保原町上保原字上ノ原24-1:
      latlng: 37.81268830,140.54106815
      name:
      - 上保原公民館
    保原町上保原字無苦代内11:
      latlng: 37.81416311,140.53984319
      name:
      - 上保原小学校
    保原町大柳字向山1:
      latlng: 37.80022330,140.55507574
      name:
      - 松陽中学校
    保原町大泉字前原内106-1:
      latlng: 37.82535145,140.57306481
      name:
      - 大田公民館
    保原町大泉字前原内111:
      latlng: 37.82570420,140.57329256
      name:
      - 大田小学校
    保原町大泉字大地内101:
      latlng: 37.81977132,140.56377423
      name:
      - 保原健康センター
    保原町字元木23番地:
      latlng: 37.82296804,140.55916897
      name:
      - 福島県立保原高等学校
    保原町字十丁目17:
      latlng: 37.82407616,140.55496096
      name:
      - ユーユー体育館
    保原町字宮下111-4:
      latlng: 37.82124874,140.55621651
      name:
      - 保原中央公民館
      - 伊達市保原市民センター
      - 保原体育館
    保原町字東野崎45ー9:
      latlng: ''
      name:
      - コミュニティセンター
    保原町字舟橋180:
      latlng: 37.81918525,140.56294933
      name:
      - 伊達市役所・保原総合支所(保原町役場)
    保原町字豊田1-1:
      latlng: 37.83229473,140.55881307
      name:
      - 桃陵中学校
    保原町富沢字羽山1:
      latlng: ''
      name:
      - 富成小学校
    保原町富沢字羽山8:
      latlng: 37.78543287,140.54592150
      name:
      - 富成公民館
    保原町柱田字東畑100:
      latlng: ''
      name:
      - 柱沢小学校
    保原町柱田字東畑100-1:
      latlng: ''
      name:
      - 柱沢公民館
    字前川原63:
      latlng: 37.82083379,140.50829267
      name:
      - 伊達町ふるさと会館
    月舘町下手渡字寺窪7:
      latlng: 37.71701894,140.59793627
      name:
      - つきだて花工房
    月舘町下手渡字町37:
      latlng: 37.71640531,140.60338589
      name:
      - 下手渡公民館
    月舘町布川字宮ノ前3-4:
      latlng: ''
      name:
      - 布川公民館
    月舘町布川字西原5-1:
      latlng: 37.73973093,140.61282007
      name:
      - 月舘幼稚園
    月舘町布川字西原6:
      latlng: 37.73906987,140.61229792
      name:
      - 月舘小学校
    月舘町御代田字古跡54-1:
      latlng: ''
      name:
      - 御代田公民館
    月舘町月舘字ウルシ坊19-1:
      latlng: 37.73460085,140.60932062
      name:
      - 月舘中央公民館
    月舘町月舘字久保田1:
      latlng: 37.73307321,140.60843188
      name:
      - 月舘中学校
    月舘町月舘字久保田5:
      latlng: 37.73376479,140.60795411
      name:
      - 月舘町ふるさとふれあいホール
    月舘町月舘字関ノ下12-1:
      latlng: 37.73142057,140.60695986
      name:
      - 保健福祉センター
    月舘町月舘字関ノ下8-2:
      latlng: 37.73082621,140.60759317
      name:
      - 月舘保育所
    月舘町糠田字舘山10:
      latlng: 37.71853530,140.59388650
      name:
      - 小手小学校
    梁川町二野袋字昭和3-2:
      latlng: 37.85013227,140.58012441
      name:
      - 粟野農業構造改善センター
    梁川町五十沢字宮下4-1:
      latlng: 37.88071358,140.61889603
      name:
      - 五十沢農業構造改善センター
    梁川町五十沢字宮下90-4:
      latlng: 37.88303273,140.62039874
      name:
      - 五十沢小学校
    梁川町字元陣内5-1:
      latlng: 37.85648862,140.60933040
      name:
      - 梁川町福祉会館
    梁川町字北町頭70:
      latlng: 37.85832750,140.61443271
      name:
      - 梁川体育館
    梁川町字南本町35:
      latlng: 37.85533831,140.60199210
      name:
      - 梁川町農村環境改善センター
    梁川町字鶴ヶ岡1:
      latlng: 37.85486382,140.61151640
      name:
      - 梁川中学校
    梁川町山舟生字坊前14:
      latlng: ''
      name:
      - 山舟生林業構造改善センター
    梁川町新田字南荒野33:
      latlng: 37.83174314,140.60176259
      name:
      - 堰本小学校
    梁川町新田字寺山4-5:
      latlng: 37.83030164,140.60196541
      name:
      - 堰本ふるさと会館
    梁川町東大枝字北町132-1:
      latlng: 37.87732705,140.59556701
      name:
      - 東大枝農業構造改善センター
    梁川町東大枝字東荒田2:
      latlng: 37.87765741,140.59230890
      name:
      - 大枝小学校
    梁川町白根字北向15:
      latlng: 37.84693242,140.65652153
      name:
      - 白根農業構造改善センター
    梁川町白根字馬場10:
      latlng: 37.84829063,140.65716866
      name:
      - 白根小学校
    梁川町粟野字沼頭28:
      latlng: 37.85089056,140.58134095
      name:
      - 粟野小学校
    梁川町舟生字堂前55:
      latlng: 37.87159295,140.62856186
      name:
      - 富野農業研修センター
    梁川町舟生字沢口20:
      latlng: 37.87160676,140.62598154
      name:
      - 富野小学校
    箱崎字沖前110:
      latlng: ''
      name:
      - 伊達中学校
    霊山町掛田字町田14-5:
      latlng: 37.77999573,140.59824774
      name:
      - 霊山町総合福祉センター
  会津坂下町:
    大字八日沢字舘ノ内地内:
      latlng: ''
      name:
      - 川西児童公園
    大字塔寺字北原787:
      latlng: 37.57533401,139.79976878
      name:
      - 会津坂下町旧八幡小学校
    大字塔寺字姥ケ懐地内:
      latlng: ''
      name:
      - 塔寺山いこいの森公園
    大字大上字柳ノ下甲312:
      latlng: 37.58773022,139.81079766
      name:
      - 会津坂下町旧川西小学校
    大字片門字宮ノ1899:
      latlng: ''
      name:
      - 会津坂下町高寺公民館
    大字片門字片門甲32-2:
      latlng: 37.57493566,139.76315552
      name:
      - 会津坂下町旧片門小学校
    大字牛川字中島地内:
      latlng: ''
      name:
      - 牛沢児童公園
    大字牛川字寿ノ宮1715:
      latlng: 37.54324941,139.81612701
      name:
      - 会津坂下町立若宮小学校
    大字白狐字古川甲1090:
      latlng: 37.55520925,139.81988450
      name:
      - 福島県立坂下高等学校
    大字福原字殿田98:
      latlng: ''
      name:
      - ばんげひがし公園
    大字福原字福川原913:
      latlng: 37.55146884,139.84409617
      name:
      - 会津坂下町立金上小学校
    大字青木字宮田地内:
      latlng: ''
      name:
      - 花ちゃん児童公園
    大字青木字青木139:
      latlng: 37.58748940,139.83572582
      name:
      - 会津坂下町立広瀬小学校
    字上口705:
      latlng: 37.56151451,139.83277473
      name:
      - 会津坂下町立第一中学校
    字上口地内:
      latlng: ''
      name:
      - 緑町児童公園
    字中岩田地内:
      latlng: ''
      name:
      - 諏訪児童公園
    字五反田1310-3:
      latlng: 37.55919497,139.82200079
      name:
      - 会津坂下町中央・坂下公民館
    字台ノ下地内:
      latlng: ''
      name:
      - 台ノ宮児童公園
    字惚六83:
      latlng: ''
      name:
      - 会津坂下町立第二中学校
    字曲田1391:
      latlng: 37.55580094,139.82250645
      name:
      - 福島県立会津農林高等学校
    字石田地内:
      latlng: ''
      name:
      - ステーションばんげ南公園
    字石田甲650:
      latlng: 37.55826444,139.81968160
      name:
      - 会津坂下町立坂下小学校
    字稲荷塚地内:
      latlng: ''
      name:
      - 稲荷塚児童公園
    字舘ノ内地内:
      latlng: ''
      name:
      - 桜ケ丘児童公園
    字西南町裏地内:
      latlng: ''
      name:
      - 坂下中央児童公園
  会津美里町:
    下堀字中川360-4:
      latlng: 37.45833438,139.84495005
      name:
      - ふれあいセンター「あやめ荘」
    佐賀瀬川字峯山5003:
      latlng: 37.50715918,139.81154849
      name:
      - 会津美里町新鶴体育館
    八木沢字伴右エ門前3396:
      latlng: 37.47518467,139.81874902
      name:
      - 会津美里町立赤沢幼稚園
      - 会津美里町赤沢地区公民館
    八木沢字伴右エ門前3503:
      latlng: 37.47569293,139.81771297
      name:
      - 旧会津美里町立赤沢小学校
    冨川字冨岡167:
      latlng: 37.44361383,139.84728905
      name:
      - 旧会津美里町立藤川小学校
    冨川字冨岡192:
      latlng: 37.44469710,139.84893888
      name:
      - 会津美里町藤川地区公民館
    冨川字冨岡195:
      latlng: 37.44504984,139.84904441
      name:
      - 会津美里町立ひまわり保育所
    吉田字村中甲150:
      latlng: 37.43148366,139.80940093
      name:
      - 旧会津美里町立尾岐小学校
    大石字家ノ下2857:
      latlng: ''
      name:
      - 会津美里町大石農村公園
    大石字日影3238-11:
      latlng: ''
      name:
      - 会津美里町立本郷第二小学校
    字北川原15-2:
      latlng: 37.45287247,139.88612386
      name:
      - 会津美里町立本郷幼稚園(園庭)
    字北川原18-1:
      latlng: 37.45234751,139.88565728
      name:
      - 会津美里町本郷保育所(園庭)
    字山道上47:
      latlng: ''
      name:
      - 会津美里町本郷運動場
    字山道上67-1:
      latlng: ''
      name:
      - 会津美里町本郷公民館
      - 会津美里町本郷体育館
    字山道上69-1:
      latlng: ''
      name:
      - 会津美里町本郷老人福祉センター
    字川原町1933:
      latlng: 37.45452779,139.88391850
      name:
      - 会津美里町立本郷中学校
    字布才地570:
      latlng: 37.46143642,139.83475651
      name:
      - 会津美里町立高田第一中学校
    字新用地275:
      latlng: ''
      name:
      - 会津美里町風の子公園
    字本郷2765:
      latlng: 37.45176151,139.88752929
      name:
      - 会津美里町立本郷第一小学校
    字本郷道上105:
      latlng: ''
      name:
      - 会津美里町道上公園
    字東川原3281:
      latlng: 37.46298674,139.84628866
      name:
      - 会津美里町立あやめ保育所
    字法憧寺北甲3473:
      latlng: 37.46284214,139.84235572
      name:
      - 福島県立大沼高等学校
    字法憧寺南3505:
      latlng: 37.46065343,139.84116979
      name:
      - 会津美里町立高田小学校
    字瀬戸屋前甲2220:
      latlng: ''
      name:
      - 会津美里町瀬戸町ふれあい広場
    字高田甲2905-1:
      latlng: 37.46141995,139.83967825
      name:
      - 会津美里町公民館
    字黒川90:
      latlng: ''
      name:
      - 会津美里町森の子公園
    字黒川内29-2:
      latlng: ''
      name:
      - 会津美里町星の子公園
    旭舘端字田中乙455:
      latlng: ''
      name:
      - 旧会津美里町立旭小学校
    旭舘端字若宮乙755-2:
      latlng: ''
      name:
      - 会津美里町旭地区公民館
    東尾岐字田中5391:
      latlng: 37.39431887,139.81450123
      name:
      - 旧会津美里町立東尾岐小学校
    東尾岐字田中5416:
      latlng: 37.39548262,139.81482618
      name:
      - 会津美里町東尾岐地区公民館
    氷玉字家ノ下1:
      latlng: 37.40781639,139.87378426
      name:
      - 会津美里町関山農村公園
    永井野字宮前1697-1:
      latlng: 37.44682112,139.82810475
      name:
      - 会津美里町立さくら保育所
    永井野字宮前1703:
      latlng: ''
      name:
      - 旧会津美里町立永井野小学校
    永井野字宮前1706-5:
      latlng: 37.44549343,139.82637441
      name:
      - 会津美里町永井野地区公民館
    福重岡字屋敷廻り乙388-1:
      latlng: ''
      name:
      - 会津美里町螺良岡農村公園
    福重岡字桜ノ下32:
      latlng: 37.43569643,139.87950555
      name:
      - 会津美里町農村環境改善センター
    米田字堂ノ後150-1:
      latlng: ''
      name:
      - 会津美里町立新鶴保育所
    鶴野辺字北三百苅775:
      latlng: 37.51256196,139.83091858
      name:
      - 会津美里町立新鶴小学校
    鶴野辺字北三百苅830:
      latlng: ''
      name:
      - 会津美里町立新鶴中学校
    鶴野辺字広町730:
      latlng: 37.51133435,139.83122972
      name:
      - 会津美里町新鶴公民館
      - 会津美里町構造改善センター
  会津若松市:
    一箕町大字亀賀字上居合150-34:
      latlng: ''
      name:
      - つるかめ公園
    一箕町大字八幡字八幡1番地の1:
      latlng: 37.51097832,139.94371596
      name:
      - 福島県立会津学鳳高等学校
    一箕町大字八幡字北滝沢1:
      latlng: ''
      name:
      - 大塚山墓園
    一箕町大字八幡字堰下70:
      latlng: 37.51742219,139.95401764
      name:
      - 一箕中学校
    一箕町大字八幡字牛ヶ墓302-45:
      latlng: ''
      name:
      - 飯盛1号公園
    一箕町松長一丁目1-1:
      latlng: ''
      name:
      - 松長1号公園
    一箕町松長二丁目2-17:
      latlng: ''
      name:
      - 松長1号緑地
    一箕町松長四丁目9-2:
      latlng: 37.52587963,139.95738383
      name:
      - 松長小学校
    中央二丁目120:
      latlng: ''
      name:
      - 大町中央公園
    北会津町下荒井字八幡前13:
      latlng: 37.50727744,139.86673753
      name:
      - 荒舘小学校体育館
    北会津町中荒井2107-1:
      latlng: 37.49715928,139.87229295
      name:
      - 北会津中学校
    北会津町中荒井字宮西16:
      latlng: 37.49202372,139.87297087
      name:
      - 北会津農業改善センター
    北会津町小松490-2:
      latlng: 37.46545717,139.88048229
      name:
      - 川南小学校
    城前1-7:
      latlng: 37.49037783,139.93403444
      name:
      - 第二中学校体育館
    城前60-1:
      latlng: ''
      name:
      - つばくろ公園
    城北町2-1:
      latlng: 37.50363177,139.92624567
      name:
      - 城北小学校
    城東町14-51:
      latlng: 37.48492847,139.93524847
      name:
      - 鶴ケ城公園
    城東町351:
      latlng: ''
      name:
      - 小田垣公園
    城西町135:
      latlng: ''
      name:
      - 城西町公園
    堤町126:
      latlng: ''
      name:
      - 鶴賀3号緑地
    大戸町上三寄大豆田116:
      latlng: 37.39224227,139.93429597
      name:
      - 大戸小学校
    大戸町上三寄香塩211-1:
      latlng: 37.39538922,139.93712358
      name:
      - 大戸中学校
    大町二丁目7:
      latlng: 37.50280967,139.92837050
      name:
      - 名子屋町児童公園
    天神町320:
      latlng: ''
      name:
      - 黒岩公園
    居合町27:
      latlng: 37.51784981,139.94679326
      name:
      - 居合1号公園
    山見町220:
      latlng: 37.50695652,139.94006922
      name:
      - 一箕小学校体育館
    川原町4-1:
      latlng: 37.48928609,139.91613325
      name:
      - 城西小学校
    幕内東町125:
      latlng: ''
      name:
      - 大川幼児公園
    徒之町1番37号:
      latlng: 37.49278033,139.93462869
      name:
      - 福島県立会津工業高等学校
    慶山一丁目2-1:
      latlng: 37.49417469,139.94624404
      name:
      - 東山小学校
    慶山二丁目94:
      latlng: ''
      name:
      - 愛宕山公園
    日新町689:
      latlng: ''
      name:
      - 日新町公園
    日新町7-40:
      latlng: 37.49662694,139.91788283
      name:
      - 日新小学校体育館
    本町33:
      latlng: 37.49276353,139.92003833
      name:
      - 諏訪公園
    材木町一丁目183:
      latlng: ''
      name:
      - 住吉児童公園
    材木町二丁目173:
      latlng: ''
      name:
      - 材木町公園
    東栄町7-7:
      latlng: 37.49358855,139.93149283
      name:
      - 鶴城小学校
    栄町87:
      latlng: ''
      name:
      - 中央児童公園
    桜町110:
      latlng: 37.48167302,139.91285044
      name:
      - 第四中学校体育館
    桧町418:
      latlng: ''
      name:
      - 東部公園
    河東町代田字代田18:
      latlng: ''
      name:
      - 代田農村公園
    河東町代田字北畑396:
      latlng: ''
      name:
      - 西部農村公園
    河東町八田字八田野127:
      latlng: 37.54499449,139.97283443
      name:
      - 河東第二小学校
    河東町八田字八田野310:
      latlng: 37.54362525,139.97509816
      name:
      - 八田保育所
    河東町八田字宮ノ上1:
      latlng: ''
      name:
      - 八田野農村公園
    河東町八田字桜石109:
      latlng: ''
      name:
      - 桜石農村公園
    河東町八田字水上100:
      latlng: ''
      name:
      - 稲荷原農村公園
    河東町八田字清水廻戸山1113:
      latlng: ''
      name:
      - 強清水農村公園
    河東町八田字漆沢48:
      latlng: ''
      name:
      - 漆沢農村公園
    河東町南高野字南高野5-2:
      latlng: ''
      name:
      - 南高野農村公園
    河東町南高野字葉山2:
      latlng: 37.55560956,139.94401706
      name:
      - 高塚公園
    河東町大田原字村中152:
      latlng: 37.56459977,139.91698839
      name:
      - 大田原保育所
    河東町大田原字村中186:
      latlng: 37.56464701,139.91765499
      name:
      - 河東第三小学校
    河東町岡田字方便44:
      latlng: ''
      name:
      - 岡田農村公園
    河東町広田字塩新182:
      latlng: 37.54409941,139.93353240
      name:
      - 河東第一幼稚園
    河東町広田字塩新205:
      latlng: 37.54497152,139.93309629
      name:
      - 河東第一小学校
    河東町広田字東116:
      latlng: 37.55185707,139.93913154
      name:
      - 河東中学校
    河東町広田字横堀15:
      latlng: 37.54909320,139.92753549
      name:
      - 広田保育所
    河東町熊野堂字高舘175:
      latlng: 37.56343048,139.91823001
      name:
      - 河東第三幼稚園
    河東町郡山字東29-1:
      latlng: ''
      name:
      - 郡山農村公園
    湊町大字共和字上馬渡171:
      latlng: 37.46981114,140.01112290
      name:
      - 湊小学校
    湊町大字共和字上馬渡226-1:
      latlng: ''
      name:
      - 湊中学校体育館
    湊町大字原字新橋118:
      latlng: 37.44886672,140.01944494
      name:
      - 旧原小学校
    湊町大字赤井字赤井5-1:
      latlng: 37.49545841,140.00077562
      name:
      - 旧赤井小学校
    湊町大字静潟字宮ノ前19-1:
      latlng: 37.45553308,140.04314557
      name:
      - 旧双潟小学校
    湯川町4-20:
      latlng: 37.48817792,139.91866640
      name:
      - 第三中学校体育館
    町北町大字上荒久田字崖下  18:
      latlng: ''
      name:
      - 石堂町公園
    白虎町82-1:
      latlng: ''
      name:
      - 大町白虎公園
    神指町大字高瀬字大道東108-3:
      latlng: 37.51876279,139.89991431
      name:
      - 神指小学校
    神指町大字黒川字湯川東296:
      latlng: 37.51114186,139.91103848
      name:
      - 第六中学校
    米代1-3-31:
      latlng: 37.48806411,139.92467978
      name:
      - 福島県立若松商業高等学校
    米代1丁目5-33:
      latlng: 37.48906954,139.92269935
      name:
      - 謹教小学校体育館
    緑町234:
      latlng: ''
      name:
      - 緑町公園
    蚕養町11-1:
      latlng: 37.50591493,139.93563636
      name:
      - 第一中学校体育館
    行仁町6-1:
      latlng: 37.49786032,139.93756981
      name:
      - 行仁小学校
    表町3番1号:
      latlng: 37.48013450,139.92955191
      name:
      - 福島県立会津高等学校
    西七日町137:
      latlng: ''
      name:
      - 七日町公園
    西栄町4番61号:
      latlng: 37.49404122,139.92564611
      name:
      - 福島県立葵高等学校
    金川町556:
      latlng: ''
      name:
      - 金川町公園
    門田町大字中野字村前1-1:
      latlng: 37.46871894,139.92201685
      name:
      - 門田小学校体育館
    門田町大字御山字村上164:
      latlng: 37.46225298,139.92570849
      name:
      - 会津総合運動公園
    門田町大字御山字村下314:
      latlng: 37.47009107,139.92550263
      name:
      - 第五中学校
    門田町大字徳久字竹之元1069-10:
      latlng: ''
      name:
      - 徳久4号緑地
    門田町大字日吉字小金井48:
      latlng: 37.47697083,139.91942229
      name:
      - 小金井小学校
    門田町大字黒岩字主山丙460-1:
      latlng: ''
      name:
      - 小田山公園
    門田町大字黒岩字大坪25-1:
      latlng: 37.47596555,139.93301568
      name:
      - 城南小学校体育館
    飯盛二丁目84:
      latlng: ''
      name:
      - 八幡2号緑地
    館馬町153:
      latlng: ''
      name:
      - 薬師公園
    駅前町406:
      latlng: ''
      name:
      - 駅前公園
    高野町大字上高野字村内43-1:
      latlng: 37.52511207,139.90912705
      name:
      - 永和小学校
  北塩原村:
    北山字上ノ台2850:
      latlng: 37.65614802,139.93860760
      name:
      - 第一中学校
    北山字北畑4275:
      latlng: 37.65708094,139.92597535
      name:
      - 北山小学校
    北山字姥ヶ作3151:
      latlng: 37.65566471,139.93730773
      name:
      - 北塩原村コミュニティセンター
    北山字村ノ内4147:
      latlng: 37.65491174,139.92675867
      name:
      - 構造改善センター
    大塩字上六郎屋敷2160:
      latlng: 37.66816664,139.97554276
      name:
      - 活性化センター
    桧原字剣ヶ峯1093-732:
      latlng: 37.65875637,140.08431312
      name:
      - 裏磐梯小学校
      - 裏磐梯中学校
      - 自然環境活用センター
    桧原字早稲沢527-8:
      latlng: 37.72682888,140.06303450
      name:
      - 北塩原村生活改善センター
    桧原字無縁原1031-89:
      latlng: 37.73023644,140.04950791
      name:
      - 生きがい学習施設
  南会津町:
    たのせ72-2:
      latlng: ''
      name:
      - たのせ集会所
    下山字下川原31:
      latlng: 37.28051512,139.51756302
      name:
      - 南郷第二小学区
    井桁166-1:
      latlng: ''
      name:
      - 井桁集会所
    井桁3:
      latlng: 37.09633118,139.58380463
      name:
      - 旧上郷小学校
    古町字小沼162:
      latlng: ''
      name:
      - 道城集会所
    古町字居平1-1:
      latlng: ''
      name:
      - 下町集会所
    古町字居平11-6:
      latlng: 37.17858073,139.52683740
      name:
      - 伊南小学校
    古町字石原525:
      latlng: 37.17323417,139.52745145
      name:
      - 南会津町伊南地域交流センター
      - 伊南中学校
    古町字舘跡998:
      latlng: 37.17603935,139.52535705
      name:
      - 伊南保健センター「すこやか」
    和泉田字沼橋2860:
      latlng: ''
      name:
      - 和泉田農村環境改善センター
    和泉田字石原345:
      latlng: ''
      name:
      - 小野島集会所
    大新田字上村195-1:
      latlng: ''
      name:
      - 大新田集会所
    大桃字上河原113:
      latlng: ''
      name:
      - 大桃集会所
    大橋字久保田736-2:
      latlng: ''
      name:
      - 大橋集会所
    宮沢字下ノ原990-1:
      latlng: ''
      name:
      - 宮沢集会所
    宮里字向山2847-1:
      latlng: 37.05707173,139.48181488
      name:
      - さいたま市立舘岩少年自然の家
    富山字上居平165:
      latlng: ''
      name:
      - 富山集会所
    小塩字居平356:
      latlng: ''
      name:
      - 小塩集会所
    小立岩字居平199:
      latlng: ''
      name:
      - 南会津町大川公民館
      - 大川公民館
    山口字倉田2464ー4:
      latlng: ''
      name:
      - 台板橋集会所
    山口字村上1074:
      latlng: 37.22380316,139.53857129
      name:
      - 南郷体育館
    山口字舟場916:
      latlng: 37.22163944,139.53431056
      name:
      - 南郷第一小学校
    岩下394:
      latlng: ''
      name:
      - 舘岩総合交流センターいわした
    戸中460:
      latlng: ''
      name:
      - 戸中集会所
    木伏字西居平1001:
      latlng: ''
      name:
      - 木伏転作センター
    東字輪間190-1:
      latlng: ''
      name:
      - 東集会所
    松戸原5:
      latlng: ''
      name:
      - 舘岩小学校
    森戸355:
      latlng: ''
      name:
      - 森戸集会所
    水石19:
      latlng: 37.08872286,139.54017524
      name:
      - 舘岩中学区
    湯ノ花1389-2:
      latlng: ''
      name:
      - しらかば公園体育館
    湯ノ花647:
      latlng: 37.06792808,139.52287478
      name:
      - 舘岩老人福祉センター
      - 舘岩高齢者生活福祉センター
    熨斗戸216:
      latlng: ''
      name:
      - 熨斗戸集会所
    片貝字中田98:
      latlng: 37.27359392,139.53053989
      name:
      - 南郷保健福祉センター
    田島字中町甲3918-1:
      latlng: 37.20073049,139.77433704
      name:
      - 福祉ホール
    田島字会下甲3316:
      latlng: 37.19419527,139.77358192
      name:
      - 田島小学校
    田島字宮本東22:
      latlng: 37.20627986,139.78006667
      name:
      - 御蔵入交流館
    田島字後原甲3437:
      latlng: 37.19700876,139.77379009
      name:
      - 田島中学校
    田島字後原甲3531-1:
      latlng: 37.20039996,139.77320942
      name:
      - 南会津町役場本庁舎
    田島字後原甲3586-1:
      latlng: 37.19551174,139.77363741
      name:
      - 田島体育館
    田島字根小屋甲4277-1:
      latlng: ''
      name:
      - 福島県南会津合同庁舎
    田島字田部原260番地:
      latlng: ''
      name:
      - 福島県立田島高等学校
    番屋26-1:
      latlng: ''
      name:
      - 番屋集会所
    白沢字村下タ124:
      latlng: ''
      name:
      - 白沢集会所
    福米沢字大田1340ー1:
      latlng: 37.20515967,139.72601945
      name:
      - 檜沢中学校
    福米沢字宮ノ前1381:
      latlng: 37.20462365,139.72731656
      name:
      - 南会津町檜沢公民館
    福米沢字宮ノ沢1543:
      latlng: ''
      name:
      - 檜沢小学校
    精舎264:
      latlng: ''
      name:
      - 精舎集会所
    糸沢字西沢山3692-20:
      latlng: 37.14598668,139.71948135
      name:
      - 会津山村道場
    糸沢字馬場原446-15:
      latlng: 37.15045877,139.73476862
      name:
      - 荒海中学校
    針生字下宮238:
      latlng: 37.18944395,139.65873508
      name:
      - 針生小学校
    長野字於三段340:
      latlng: 37.20878339,139.81268045
      name:
      - 田島第二小学校
    関本字大道上495:
      latlng: 37.15386118,139.73555454
      name:
      - 荒海小学校
    関本字百一560:
      latlng: 37.15245855,139.73506853
      name:
      - 田島農村改善センター
    高杖原382:
      latlng: ''
      name:
      - 高杖原集会所
    鶇巣字平林573:
      latlng: ''
      name:
      - 南郷中学校
  南相馬市:
    原町区三島町1-65:
      latlng: 37.63730524,140.95423106
      name:
      - 福島県立相馬農業高等学校
    原町区三島町1丁目:
      latlng: 37.63571372,140.95462127
      name:
      - 夜ノ森公園
    原町区下北高平字古舘22:
      latlng: 37.65177197,140.98799759
      name:
      - 南相馬市立高平小学校
    原町区仲町1丁目:
      latlng: 37.64178583,140.94993476
      name:
      - 牛越西公園
      - 牛越東公園
    原町区仲町2丁目:
      latlng: 37.63943605,140.95012058
      name:
      - 牛越中央公園
    原町区仲町3丁目:
      latlng: 37.63908319,140.94707399
      name:
      - 高田公園
    原町区北泉字地蔵堂:
      latlng: 37.65551155,141.01662640
      name:
      - 北泉海浜総合公園
    原町区北町:
      latlng: 37.64645269,140.95203140
      name:
      - 下川原公園
    原町区国見町2丁目:
      latlng: 37.62736940,140.95305749
      name:
      - 国見公園
    原町区国見町3丁目:
      latlng: 37.62642327,140.94838100
      name:
      - 国見団地中央公園
    原町区大木戸字西原1:
      latlng: 37.63460211,140.93394440
      name:
      - 南相馬市立石神第二幼稚園
    原町区大甕字十日迫26:
      latlng: 37.60963658,141.00382313
      name:
      - 大甕生涯学習センター
    原町区大町1丁目:
      latlng: 37.64018435,140.96127647
      name:
      - しらゆり公園
    原町区太田字天狗96-1:
      latlng: ''
      name:
      - 陸上競技場管理棟
    原町区小川町:
      latlng: 37.64760482,140.96100361
      name:
      - 本宮2号公園
      - 小川公園
    原町区小川町322-1:
      latlng: 37.64510466,140.95704734
      name:
      - サンライフ南相馬
      - 原町保健センター
    原町区日の出町:
      latlng: 37.63196385,140.98689909
      name:
      - 日の出公園
    原町区本町1丁目:
      latlng: 37.63921134,140.95835085
      name:
      - よつば公園
    原町区本町2丁目28-1:
      latlng: 37.64112723,140.95726126
      name:
      - 南相馬市民文化会館
    原町区本陣前3丁目60-2:
      latlng: 37.62126760,140.94881805
      name:
      - ひばり生涯学習センター
    原町区桜井町1丁目:
      latlng: 37.63788202,140.97824939
      name:
      - 桜井公園
    原町区桜井町1丁目152:
      latlng: 37.63683937,140.98059294
      name:
      - 南相馬市立原町第二中学校
    原町区桜井町2丁目:
      latlng: 37.64077481,140.97914430
      name:
      - 原町運動公園
      - 青葉公園
    原町区桜井町2丁目200:
      latlng: 37.64131122,140.98064842
      name:
      - 南相馬市スポーツセンター
    原町区橋本町1-83-4:
      latlng: 37.63575843,140.96370240
      name:
      - 橋本町児童センター
    原町区橋本町1丁目101:
      latlng: 37.63478905,140.96317746
      name:
      - 南相馬市立原町第二小学校
    原町区萱浜字巣掛場45番地112:
      latlng: 37.63362891,140.99249246
      name:
      - 福島県立テクノアカデミー浜
    原町区西町3丁目380番地:
      latlng: 37.63460237,140.94284897
      name:
      - 福島県立原町高等学校
    原町区錦町1丁目:
      latlng: 37.63858180,140.97212168
      name:
      - 錦公園
    原町区錦町3丁目:
      latlng: 37.64412129,140.96938574
      name:
      - 西殿公園
    原町区長野字北原田288:
      latlng: ''
      name:
      - 南相馬市立石神第一小学校
    原町区高見町2丁目30-1:
      latlng: 37.63530624,140.98364282
      name:
      - ひがし生涯学習センター
      - 道の駅南相馬
    小高区南鳩原字西畑76:
      latlng: 37.57569136,140.94681202
      name:
      - 南相馬市立鳩原小学校
    小高区吉名字中坪1:
      latlng: 37.55904611,140.98398139
      name:
      - 南相馬市立小高中学校
    小高区吉名字岩屋堂62:
      latlng: 37.55708523,140.99028648
      name:
      - おだか保育園
    小高区小高字金谷前84:
      latlng: 37.56848429,140.99365527
      name:
      - 小高保健福祉センター
    小高区本町2丁目89-1:
      latlng: 37.56665111,140.99298872
      name:
      - 浮舟文化会館
    小高区東町3丁目22:
      latlng: 37.56643727,140.99526909
      name:
      - 小高老人福祉センター
    小高区浦尻字北原72-1:
      latlng: 37.51808686,141.03230643
      name:
      - 浦尻公会堂
    小高区蛯沢字藤沼50-1:
      latlng: 37.53488193,141.00663582
      name:
      - 小高コミュニティセンター
      - 南相馬市立福浦小学校
    小高区関場1丁目1:
      latlng: 37.56271803,140.98472565
      name:
      - 南相馬市立小高小学校
    小高区飯崎字北原125:
      latlng: 37.55454051,140.95818385
      name:
      - 小高就業改善センター
    小高区飯崎字北原51:
      latlng: ''
      name:
      - 南相馬市立金房小学校
    鹿島区南屋形字北原85:
      latlng: ''
      name:
      - 南相馬市立八沢小学校
    鹿島区寺内字落合28:
      latlng: 37.70501475,140.95542659
      name:
      - 南相馬市立鹿島中学校
    鹿島区寺内字迎田22:
      latlng: 37.69530496,140.95865740
      name:
      - 農村環境改善センター
    鹿島区寺内字迎田22-1:
      latlng: ''
      name:
      - 鹿島生涯学習センター
    鹿島区小島田字原畑2:
      latlng: ''
      name:
      - 南相馬市立真野小学校
    鹿島区横手字川原186-1:
      latlng: 37.70966157,140.96123137
      name:
      - ボランティア地域支援センター
    鹿島区横手字川原44:
      latlng: ''
      name:
      - 鹿島保健センター
    鹿島区浮田字1丁目81:
      latlng: ''
      name:
      - 南相馬市立上真野小学校
    鹿島区烏崎字南谷地85-1:
      latlng: ''
      name:
      - 烏崎公会堂
    鹿島区角川原字前川原69-1:
      latlng: 37.72613093,140.93108023
      name:
      - 前川原体育館
    鹿島区鹿島字北千倉20:
      latlng: 37.70134925,140.97454981
      name:
      - 千倉体育館
    鹿島区鹿島字広町13:
      latlng: 37.70121878,140.97615519
      name:
      - 南相馬市立鹿島小学校
  双葉町:
    大字上羽鳥字大道354:
      latlng: ''
      name:
      - 上羽鳥公民館
    大字下羽鳥字台2-1:
      latlng: ''
      name:
      - 羽鳥公民館
    大字両竹字農師町100-1:
      latlng: ''
      name:
      - 両竹公民館
    大字中田字宮田48-2:
      latlng: ''
      name:
      - 中田公民館
    大字中野字渋江206:
      latlng: ''
      name:
      - 浜野公民館
    大字前田字東舘1:
      latlng: ''
      name:
      - 双葉町立双葉中学校
    大字前田字稲荷前37:
      latlng: 37.44104288,140.99927071
      name:
      - 三字公民館
    大字寺沢字唐沢115-1:
      latlng: ''
      name:
      - 寺松公民館
    大字山田字舘腰20:
      latlng: ''
      name:
      - 山田多目的集会所
    大字新山字北広町81:
      latlng: ''
      name:
      - 新山公民館
    大字新山字広町80:
      latlng: 37.44599797,141.00591443
      name:
      - 福島県立双葉高等学校
    大字新山字清戸廹1:
      latlng: 37.44171511,141.00535625
      name:
      - 双葉町立双葉南小学校
    大字渋川字広畑23:
      latlng: ''
      name:
      - 渋川公民館
    大字石熊字八房平243-2:
      latlng: ''
      name:
      - 石熊公民館
    大字細谷字陳場沢146:
      latlng: ''
      name:
      - 細谷公民館
    大字郡山字北磯坂100-2:
      latlng: 37.45440070,141.03683726
      name:
      - マリーンハウスふたば
    大字郡山字塚ノ腰90-1:
      latlng: ''
      name:
      - 郡山公民館
    大字長塚字町東154番地:
      latlng: 37.45388606,141.00889475
      name:
      - 双葉町体育館
      - 双葉町公民館
    大字長塚字谷沢町35-1:
      latlng: 37.45401114,141.01258339
      name:
      - ヘルスケアーふたば
    大字長塚字谷沢町56:
      latlng: 37.45385839,141.01330000
      name:
      - 双葉町青年婦人会館
    大字長塚字越田63:
      latlng: 37.45694676,141.00435624
      name:
      - 双葉町立双葉北小学校
    大字長塚字鬼木1:
      latlng: 37.45185292,141.00748375
      name:
      - 双葉町図書館
    大字鴻草字高田前32:
      latlng: ''
      name:
      - 北部コミュニティセンター
  古殿町:
    大字大久田字石神40:
      latlng: 37.09201823,140.59639788
      name:
      - 大久田小学校管理教室棟
    大字山上字仮宿60:
      latlng: 37.12714970,140.57587090
      name:
      - 山上小学校
    大字松川字和久23:
      latlng: 37.05657758,140.58885516
      name:
      - 大原小学校
    大字松川字横川112-1:
      latlng: 37.08684560,140.56168458
      name:
      - 古殿幼稚園
    大字松川字横川183:
      latlng: 37.08775104,140.56135682
      name:
      - 宮本小学校
    大字松川字横川236:
      latlng: 37.08964812,140.56459257
      name:
      - 町勤労者体育センター
    大字松川字横川462:
      latlng: 37.08925359,140.55947642
      name:
      - 古殿中学校
    大字田口字寺前208:
      latlng: ''
      name:
      - 田口小学校
      - 女性若者等活動促進施設
    大字竹貫字上町13:
      latlng: 37.09428320,140.54684409
      name:
      - 古殿保育所
    大字論田字後川29:
      latlng: 37.15333205,140.55733827
      name:
      - 古殿幼稚園論田分園
    大字論田字早稲田45:
      latlng: 37.15544270,140.55243859
      name:
      - 諭田小学校
  只見町:
    大字二軒在家字赤岩620:
      latlng: ''
      name:
      - ニ軒在家公民館
    大字只見字上ノ原1735-1:
      latlng: 37.35170267,139.31787343
      name:
      - 只見小学校校庭
    大字只見字新屋敷1643-2:
      latlng: ''
      name:
      - 新屋敷集会所
    大字只見字新町2203-3:
      latlng: ''
      name:
      - 新町集会所
    大字只見字町下2591:
      latlng: 37.34266180,139.31295758
      name:
      - 町下広場
    大字叶津字入叶津47-23:
      latlng: ''
      name:
      - 入叶津集会所
    大字坂田字仮安平82-1:
      latlng: ''
      name:
      - 坂田公民館
    大字塩ノ岐字柳原138:
      latlng: ''
      name:
      - 塩ノ岐公民館
    大字塩沢字林崎1104-1:
      latlng: ''
      name:
      - 塩沢公民館
    大字大倉字中地1761:
      latlng: ''
      name:
      - 大倉公民館
    大字寄岩字広田表71:
      latlng: ''
      name:
      - 寄岩公民館
    大字小林字上照岡1250:
      latlng: 37.30971018,139.45461748
      name:
      - 明和小学校校庭
    大字小林字上照岡1300:
      latlng: 37.30846867,139.45461752
      name:
      - 明和地区センター
    大字小林字上照岡1336:
      latlng: 37.30903809,139.45615904
      name:
      - 明和中学校体育館
    大字布沢字片道1145ー1:
      latlng: ''
      name:
      - 布沢公民館
    大字梁取字沖35-5:
      latlng: ''
      name:
      - 梁取公民館
    大字楢戸字寺田307:
      latlng: ''
      name:
      - 楢戸公民館
    大字楢戸字舘ノ川1592-41:
      latlng: ''
      name:
      - 舘ノ川公民館
    大字熊倉字五位田割283:
      latlng: ''
      name:
      - 熊倉公民館
    大字石伏字塚ノ下1399:
      latlng: ''
      name:
      - 宮渕公民館
    大字荒島字居廻162-1:
      latlng: ''
      name:
      - 荒島公民館
    大字蒲生字上ノ台387-1:
      latlng: ''
      name:
      - 八木沢公民館
    大字蒲生字上原21:
      latlng: ''
      name:
      - 蒲生集会所
    大字長浜字久保田1:
      latlng: 37.30390634,139.37649443
      name:
      - 特別養護老人ホーム(只見ホーム)
    大字長浜字久保田31:
      latlng: 37.30401464,139.37534452
      name:
      - 介護老人保護施設(こぶし苑)
    大字長浜字唱平60:
      latlng: 37.30367022,139.37437517
      name:
      - 朝日診療所
    大字黒沢字沖1:
      latlng: 37.33875955,139.32500385
      name:
      - 黒沢公民館
    大字黒谷字下ノ宮19:
      latlng: ''
      name:
      - 町・蓮の原集会所
    大字黒谷字九日他230:
      latlng: ''
      name:
      - 朝日小学校校庭
    大字黒谷字東山2966-283:
      latlng: ''
      name:
      - 黒谷入公民館
    大字黒谷字篠田1036:
      latlng: ''
      name:
      - 黒谷沖・根本沢集会所
    大字黒谷字舘658:
      latlng: 37.30693356,139.36617578
      name:
      - 朝日地区センター
  喜多方市:
    上三宮町上三宮字下松原2561-1:
      latlng: 37.68256436,139.86113896
      name:
      - 喜多方市立上三宮小学校
    字六百苅7373:
      latlng: 37.64814135,139.87416966
      name:
      - 喜多方市立第二小学校
    字水上6868:
      latlng: 37.65643201,139.87446099
      name:
      - 喜多方市立第一小学校
    松山町村松字大坪1943-1:
      latlng: 37.67169953,139.87387161
      name:
      - 喜多方市立松山小学校
  国見町:
    大字大木戸字新田原3:
      latlng: 37.89037725,140.57199619
      name:
      - 木戸ふれあいセンター
      - 町民運動場
    大字大木戸字霞原3:
      latlng: 37.88989120,140.57212397
      name:
      - 大木戸小学校
    大字小坂字台14:
      latlng: 37.88903675,140.52303054
      name:
      - 小坂小学校
    大字山崎字舘東12-1:
      latlng: 37.87989670,140.54137098
      name:
      - 国見町児童高齢者福祉施設
    大字徳江字下谷地田15:
      latlng: 37.86814905,140.56521677
      name:
      - 森江野町民センター
    大字森山字上野台7:
      latlng: 37.88252210,140.55856402
      name:
      - 国見町上野台運動公園上野台体育館
      - 上野台運動公園総合運動場
    大字森山字太田川36:
      latlng: ''
      name:
      - 森江野小学校
    大字森山字西上野20:
      latlng: 37.88421085,140.56009997
      name:
      - 柏葉体育館
      - 県北中学校
    大字藤田字町尻20:
      latlng: ''
      name:
      - 藤田幼稚園
    大字藤田字町尻一2:
      latlng: 37.87926927,140.54848711
      name:
      - 藤田小学校
    大字藤田字観月台15:
      latlng: 37.87716093,140.54243767
      name:
      - 国見町観月台文化センター
    大字西大枝字王壇前16-1:
      latlng: 37.87740145,140.58274572
      name:
      - 国見東部高齢者等活性化センター
    小坂南1-1:
      latlng: 37.88600116,140.52938564
      name:
      - 小坂農村総合管理センター
  塙町:
    大字上石井字仲堀220:
      latlng: 36.94162217,140.41213380
      name:
      - 塙町公民館上石井分館
    大字伊香字下町1:
      latlng: ''
      name:
      - 塙町公民館伊香分館
    大字台宿字下川原5:
      latlng: 36.95501482,140.40739252
      name:
      - 塙小学校
      - 塙小学校体育館
      - 塙小学校グラウンド
    大字台宿字北原121:
      latlng: 36.95436200,140.40112668
      name:
      - 福島県立塙工業高等学校
    大字台宿字北原75-1:
      latlng: ''
      name:
      - 台宿農業構造改善センター
    大字塙字代官町54:
      latlng: 36.95228204,140.41464725
      name:
      - 塙第1コミュニティ消防センター
    大字塙字大町3-19:
      latlng: 36.95754507,140.40928946
      name:
      - 塙農村勤労福祉会館
    大字塙字桜木町80:
      latlng: 36.95290152,140.41915227
      name:
      - 塙町公民館
      - 塙町営体育館
    大字塙町大字西河内字吉ノ目128:
      latlng: ''
      name:
      - 西河内農村公園
    大字大字東河内字荒屋270:
      latlng: ''
      name:
      - 東河内地区林業者保健休養広場
    大字山形字前田坂104:
      latlng: 36.92134462,140.44961173
      name:
      - 前田地区山村活性化支援センター
    大字川上字堀之内217:
      latlng: ''
      name:
      - 塙町笹原地区公民館
      - 塙町笹原地区公民館体育館
    大字川上字馬場57:
      latlng: 36.94062301,140.44457534
      name:
      - 笹原幼稚園
    大字川上字馬場77:
      latlng: 36.94018141,140.44500310
      name:
      - 笹原小学校
      - 笹原小学校体育館
      - 笹原小学校グラウンド
    大字常世中野字銭神田6-1:
      latlng: 36.96399224,140.43588107
      name:
      - 常世中野集会所
    大字常世北野字八幡120:
      latlng: 36.96852494,140.43417003
      name:
      - 常豊小学校
      - 常豊小学校グラウンド
    大字常世北野字赤坂147-2:
      latlng: 36.96510854,140.42950667
      name:
      - 赤坂集会所
    大字木野反字才我地2:
      latlng: ''
      name:
      - 塙町公民館木野反分館
    大字木野反字才我地20-1:
      latlng: ''
      name:
      - 湯岐木野反農村公園
    大字東河内字矢倉2:
      latlng: ''
      name:
      - 塙町公民館東河内分館
    大字東河内字矢倉5:
      latlng: 36.98771139,140.43558341
      name:
      - 東河内農村公園
    大字板庭字大苗田395-6:
      latlng: 36.95355463,140.43518408
      name:
      - 板庭コミュニティ消防センター
    大字植田字中之内60:
      latlng: 36.91078663,140.40741584
      name:
      - 高城幼稚園
    大字植田字坂ノ下55-1:
      latlng: 36.90444008,140.40599126
      name:
      - 塙町高城地区公民館
    大字植田字森戸25:
      latlng: 36.91031168,140.40754918
      name:
      - 高城小学校
      - 高城小学校体育館
      - 高城小学校グラウンド
    大字片貝字五斗蒔126:
      latlng: ''
      name:
      - 片貝小学校
      - 片貝小学校グラウンド
    大字田代字急度内68:
      latlng: ''
      name:
      - 田代地区山村活性化支援センター
    大字真名畑字宮田36:
      latlng: ''
      name:
      - 塙町公民館真名畑分館
    大字竹之内字竹之内125-1:
      latlng: 36.96023132,140.42729029
      name:
      - 竹之内コミュニティ消防センター
    大字竹之内字草田3:
      latlng: 36.95861765,140.42736530
      name:
      - 塙中学校
      - 塙中学校体育館
      - 塙中学校グラウンド
    大字西河内字吉ノ目128:
      latlng: ''
      name:
      - 西河内コミュニティ消防センター
    大字那倉字吉本97:
      latlng: ''
      name:
      - 塙町公民館那倉分館
    大字那倉字矢塚73-2:
      latlng: 36.88086295,140.54604966
      name:
      - 矢塚コミュニティ消防センター
  大熊町:
    大字下野上字原1番地:
      latlng: 37.40292499,140.97453499
      name:
      - 福島県立双葉翔陽高等学校
    大字下野上字大野577-1:
      latlng: 37.40474434,140.98035387
      name:
      - 大熊町老人福祉センター
      - 大熊町保育所
    大字下野上字大野600:
      latlng: 37.40460827,140.98247313
      name:
      - 大熊町公民館
    大字下野上字大野634:
      latlng: 37.40443330,140.98335083
      name:
      - 大熊町第二体育館
    大字下野上字清水230:
      latlng: 37.40417204,140.97022423
      name:
      - 大野小学校
    大字下野上字金谷平565:
      latlng: 37.40623299,140.97425992
      name:
      - 大熊町保健センター
    大字夫沢字中央台830-6:
      latlng: 37.40936057,140.98925574
      name:
      - 大熊中学校
    大字夫沢字中央台851-3:
      latlng: 37.41070488,140.99464691
      name:
      - 大熊町総合体育館
    大字熊字新町1:
      latlng: 37.40413059,140.98543955
      name:
      - 大熊町文化センター
      - 大熊町農村環境改善センター
    大字熊川字緑ヶ丘10:
      latlng: 37.39129099,141.01226531
      name:
      - 熊町小学校
    大字熊川字緑ヶ丘24:
      latlng: 37.39041888,141.01032936
      name:
      - 熊町幼稚園
    大字野上字諏訪312:
      latlng: 37.40534684,140.95796977
      name:
      - 大熊町第三体育館
      - 大野幼稚園
  大玉村:
    大山字藤ノ木82:
      latlng: ''
      name:
      - 大玉村北部ふれあいセンター
    玉井字橋本139:
      latlng: 37.54077945,140.34922125
      name:
      - 大玉村西部ふれあいセンター
  天栄村:
    下松本字中島66:
      latlng: ''
      name:
      - 天栄村体育館
    下松本字原畑64:
      latlng: ''
      name:
      - 天栄村山村開発センター
    下松本字日向26:
      latlng: ''
      name:
      - 天栄村総合農村運動広場
    大里字畑田25:
      latlng: 37.23656927,140.24779655
      name:
      - 大里小学校体育館
      - 大里小学校グラウンド
    湯本字関場8:
      latlng: ''
      name:
      - 湯本体育館
    牧之内字文舎35:
      latlng: 37.26530165,140.19795184
      name:
      - 牧本小学校体育館
      - 牧本小学校グラウンド
    田良尾字五倫林山10:
      latlng: ''
      name:
      - 湯本中学校グラウンド
    飯豊字新山28:
      latlng: 37.24715180,140.28643355
      name:
      - 広戸小学校体育館
      - 広戸小学校グラウンド
  富岡町:
    中央2丁目18:
      latlng: ''
      name:
      - 岡内中央児童公園
    夜の森4丁目42:
      latlng: ''
      name:
      - 富岡第二中学校
      - 富岡第二中学校体育館
    夜の森北2丁目13-1:
      latlng: ''
      name:
      - 夜の森公園
    夜の森南2丁目22:
      latlng: ''
      name:
      - 夜の森つつみ公園
    大字上手岡字下千里349-2:
      latlng: 37.35813701,140.98686602
      name:
      - 下千里集会所
    大字上手岡字下千里64:
      latlng: 37.36695219,140.97121453
      name:
      - 上手岡多目的集会所
    大字上手岡字茂手木168-1:
      latlng: ''
      name:
      - 杉内集会所
    大字上郡山字上郡17:
      latlng: 37.32655759,140.99167471
      name:
      - 上郡山多目的集会所
    大字上郡山字清水51:
      latlng: 37.33186264,141.00296524
      name:
      - 清水集会所
    大字下郡山字大田238:
      latlng: ''
      name:
      - 太田集会所
    大字下郡山字真壁327-1:
      latlng: 37.32511072,141.01444767
      name:
      - 下郡山集会所
    大字仏浜字西原161-1:
      latlng: ''
      name:
      - 西原集会所
    大字仏浜字釜田431:
      latlng: 37.33406259,141.02614361
      name:
      - 仏浜集会所
    大字大菅字蛇谷須204-4:
      latlng: 37.37246826,140.98699333
      name:
      - 大菅集会所
    大字小浜字大膳町174:
      latlng: ''
      name:
      - 大膳町児童公園
    大字小良ヶ浜字赤坂314:
      latlng: 37.36498081,141.02640663
      name:
      - 小良ヶ浜多目的集会所
    大字本岡字中央237-1:
      latlng: ''
      name:
      - 富岡第一小学校
    大字本岡字中央327-2:
      latlng: ''
      name:
      - 富岡第一中学校
    大字本岡字新夜ノ森795-3:
      latlng: ''
      name:
      - 新夜ノ森多目的集会所
    大字本岡字本町14:
      latlng: 37.34126154,141.00442874
      name:
      - 本町集会所
    大字本岡字清水前107:
      latlng: 37.36804116,140.98968211
      name:
      - 高津戸多目的集会所
    大字本岡字王塚36:
      latlng: 37.35423206,140.99577084
      name:
      - 富岡第二小学校
      - 富岡第二小学校体育館
    大字本岡字王塚622-1:
      latlng: 37.34590542,141.00888097
      name:
      - 富岡町文化交流センター
    大字本岡字赤木275-1:
      latlng: 37.33798917,140.96294077
      name:
      - 赤木多目的集会所
    大字本岡岡字上本町115-4:
      latlng: ''
      name:
      - 上本町構造改善センター
    大字毛萱字前川原85:
      latlng: 37.32503860,141.02237471
      name:
      - 毛萱集会所
    大菅字蛇谷須167番地:
      latlng: 37.37572609,140.98578777
      name:
      - 福島県立富岡養護学校
    小浜481:
      latlng: 37.34841903,141.01751623
      name:
      - 富岡町総合体育館
  小野町:
    大字小戸神字本南内337:
      latlng: 37.30035637,140.59515165
      name:
      - 小野町立小戸神小学校
    大字小野新町字美売65-1:
      latlng: 37.28921646,140.62124396
      name:
      - 小野町町民体育館
    大字浮金字宇林内177:
      latlng: ''
      name:
      - 小野町立浮金中学校
    大字雁股田字関場90:
      latlng: 37.27236769,140.58330676
      name:
      - 小野町立小野新町小学校雁股田分校
  川俣町:
    大字小島字町畑8-1:
      latlng: 37.69709608,140.60814205
      name:
      - 小島公民館
    大字秋山字仲田2ー1:
      latlng: ''
      name:
      - 秋山集会所
    大字羽田字山ノ坊15:
      latlng: 37.68494908,140.56159622
      name:
      - 福田小学校
    大字西福沢字松川木2-1:
      latlng: 37.65115040,140.57844061
      name:
      - 福沢公民館
    大字鶴沢字学校前3-1:
      latlng: 37.66642654,140.57687635
      name:
      - 鶴沢公民館
    大字鶴沢字東13-1:
      latlng: 37.66781805,140.57669297
      name:
      - からりこ館
    字五百田21-1:
      latlng: ''
      name:
      - すみよし保育園
    字五百田30:
      latlng: 37.66498807,140.59824403
      name:
      - 福沢多目的集会所
    字仲ノ内2-6:
      latlng: 37.65467841,140.60800175
      name:
      - 川俣南幼稚園
    字大作10:
      latlng: 37.65998336,140.60835435
      name:
      - 福祉センター
    字宮ノ脇14:
      latlng: 37.66751272,140.59692184
      name:
      - 川俣中学校
    字宮前36:
      latlng: 37.66952089,140.59978540
      name:
      - 川俣小学校
    字川原田46:
      latlng: 37.65855571,140.60672121
      name:
      - 川俣南小学校
    字樋ノ口11:
      latlng: 37.66391040,140.59731359
      name:
      - 中央公民館
    字樋ノ口12:
      latlng: 37.66416036,140.59679974
      name:
      - 保健センター
    小島字風呂ヶ前8:
      latlng: 37.69690448,140.60986694
      name:
      - 小島小学校
    小綱木字脇11:
      latlng: 37.64186655,140.63434985
      name:
      - 小綱木公民館
    山木屋字問屋68:
      latlng: 37.60510779,140.67448446
      name:
      - 山木屋中学校
    山木屋字小塚山9-1:
      latlng: 37.60315250,140.67626216
      name:
      - 山木屋小学校
      - 山木屋幼稚園
    東福沢字万所内山2-3:
      latlng: 37.65656403,140.59663891
      name:
      - 川俣町体育館
    東福沢字万所内山2-4:
      latlng: 37.65665568,140.59615561
      name:
      - 川俣町合宿所
    西福沢字山桝内20:
      latlng: 37.65129764,140.57984882
      name:
      - 福沢小学校
    飯坂字南古堂道内4:
      latlng: ''
      name:
      - 飯坂公民館
    飯坂字南古堂道内5:
      latlng: 37.66988002,140.62664135
      name:
      - 飯坂小学校
    鶴沢字林山18:
      latlng: 37.67092327,140.57911763
      name:
      - 富田小学校
  川内村:
    大字上川内字前谷地134-1:
      latlng: ''
      name:
      - 第一区生活改善センター
    大字上川内字大根森67-1:
      latlng: 37.32357757,140.78266133
      name:
      - 第四区集会所
    大字上川内字小山平15:
      latlng: 37.33715138,140.80862223
      name:
      - 川内村コミュニィセンター
    大字上川内字小山平501-12:
      latlng: ''
      name:
      - 川内村村民体育センター
    大字上川内字沼畑125:
      latlng: 37.34349482,140.80301441
      name:
      - 川内小学校
    大字上川内字町分439:
      latlng: 37.34236722,140.80398654
      name:
      - 第三区山村活性化支援センター
    大字上川内字関場28-1:
      latlng: 37.35101304,140.79223491
      name:
      - 第二区集会所
    大字下川内字五枚沢35-5:
      latlng: ''
      name:
      - 五枚沢集会所
    大字下川内字北川原11-9:
      latlng: 37.31585289,140.84011097
      name:
      - 第七区集会所
    大字下川内字坂シ内133-5:
      latlng: 37.33203924,140.83793308
      name:
      - 川内村複合施設ゆふね
    大字下川内字宮ノ下81-2:
      latlng: 37.32885567,140.81936013
      name:
      - 宮ノ下集会所
    大字下川内字宮坂515:
      latlng: 37.33124970,140.81837965
      name:
      - みやさか保育所
    大字下川内字宮渡29:
      latlng: 37.33088298,140.81451062
      name:
      - 川内中学校
    大字下川内字手古岡231-1:
      latlng: ''
      name:
      - 手古岡集会所
    大字下川内字毛戸26-2:
      latlng: ''
      name:
      - 第八区集会所
    大字下川内字石崎31-2:
      latlng: 37.31723860,140.83458374
      name:
      - 第六集会所
    大字下川内字砂田333-1:
      latlng: ''
      name:
      - 第五区生活改善センター
  平田村:
    上蓬田字上宿1:
      latlng: 37.24187125,140.57244208
      name:
      - 蓬田小学校体育館
      - 蓬田小学校
    上蓬田字上宿33:
      latlng: 37.24202680,140.57280871
      name:
      - 蓬田幼稚園
    上蓬田字切山1:
      latlng: 37.23636604,140.56394571
      name:
      - 蓬田中学校体育館
      - 蓬田中学校
    上蓬田字切山27:
      latlng: 37.23478853,140.56592890
      name:
      - 切山グランド
    上蓬田字揚土15:
      latlng: 37.24335431,140.56984229
      name:
      - 平田村農業構造改善センター
    北方字後川54:
      latlng: ''
      name:
      - 小平老人福祉センター
    北方字後川58:
      latlng: 37.18837812,140.56392802
      name:
      - 平田村林業研修会館
    北方字後川88:
      latlng: 37.18750588,140.56033671
      name:
      - 小平中学校体育館
      - 小平中学校
      - 後川グランド
    北方字蛇石59:
      latlng: 37.18548411,140.56546132
      name:
      - 小平小学校体育館
      - 小平小学校
    大字上蓬田字切山27番地:
      latlng: 37.23478853,140.56592890
      name:
      - 福島県立小野高等学校平田校
    小平字入山82:
      latlng: 37.18347886,140.56662796
      name:
      - 小平幼稚園
    永田字切田116:
      latlng: 37.22178501,140.57568951
      name:
      - 永田幼稚園
      - 永田小学校
    永田字切田158-4:
      latlng: ''
      name:
      - 平田勤労者体育センター
    永田字広町50:
      latlng: 37.21749366,140.56982621
      name:
      - 平田村保健センター
    永田字戸花124:
      latlng: ''
      name:
      - 平田村屋内ゲートボール場
    永田字戸花150:
      latlng: 37.21452204,140.57404268
      name:
      - 平田村地域福祉センター
    西山字一本内43:
      latlng: ''
      name:
      - 西山幼稚園
      - 西山小学校
  広野町:
    上北迫字上田郷28-252:
      latlng: ''
      name:
      - 二本椚地区集会所
    上北迫字大平51-1:
      latlng: 37.23902118,140.97756950
      name:
      - 田の神地区集会所
    上浅見川字下箒平1-2:
      latlng: 37.23943595,140.91202380
      name:
      - 箒平地区集会所
    上浅見川字小松97-10:
      latlng: 37.22024051,140.97144937
      name:
      - 小松地区集会所
    上浅見川字長畑14-1:
      latlng: ''
      name:
      - 長畑地区集会所
    下北迫字大谷地原65-4:
      latlng: ''
      name:
      - 二ツ沼体育館
    下北迫字岩作144-32:
      latlng: 37.21664984,140.99353560
      name:
      - 苗代替地区集会所
    下北迫字新町87-1:
      latlng: ''
      name:
      - 下北迫地区集会所
    下北迫字浜田54:
      latlng: 37.21628871,141.00079556
      name:
      - 浜田地区集会所
    下北迫字苗代替22-2:
      latlng: ''
      name:
      - 広野幼稚園
    下北迫字苗代替35:
      latlng: 37.21440287,140.99456043
      name:
      - 広野町役場
    下浅見川字沢目74-1:
      latlng: ''
      name:
      - 桜田地区集会所
    下浅見川字築地12:
      latlng: 37.21305025,140.99601576
      name:
      - 広野中学校
      - 築地ヶ丘体育館
    下浅見川字築地53-1:
      latlng: 37.21193372,140.99572415
      name:
      - 築地地区集会所
    中央台1丁目1番地:
      latlng: 37.21271141,140.99341896
      name:
      - 中央体育館
    中央台1丁目8:
      latlng: 37.21204204,140.99146926
      name:
      - 広野町保育所
    中央台3丁目:
      latlng: 37.21454811,140.99120491
      name:
      - 広野小学校
    広洋台2丁目2-42:
      latlng: 37.23005888,140.99935342
      name:
      - 広洋台地区集会所
    折木字上原159-1:
      latlng: 37.19330950,140.95809530
      name:
      - 亀ヶ崎地区集会所
    折木字南沢79-1:
      latlng: 37.19859224,140.95866198
      name:
      - 南沢地区集会所
    折木字東下97-1:
      latlng: 37.19767069,140.97247132
      name:
      - 東下地区集会所
    折木字田中119-1:
      latlng: 37.19921015,140.99680173
      name:
      - 正木内地区集会所
  新地町:
    大字福田字中里16:
      latlng: 37.88983480,140.89338919
      name:
      - 勤労青少年ホーム
    小川字川向9-1:
      latlng: 37.86100248,140.91463075
      name:
      - 新地町総合体育館
    谷地小屋字愛宕1:
      latlng: 37.87453157,140.91623521
      name:
      - 新地小学校体育館
    谷地小屋字愛宕38:
      latlng: 37.87295947,140.91446324
      name:
      - 尚英中学校体育館
    谷地小屋字樋掛田40-1:
      latlng: 37.87624262,140.92041809
      name:
      - 農村環境改善センター
    谷地小屋字萩崎40:
      latlng: 37.87435391,140.91941274
      name:
      - 老人憩の家
    駒ケ嶺字新町11:
      latlng: 37.84741517,140.91663973
      name:
      - 駒ヶ嶺公民館
    駒ケ嶺字新町前52:
      latlng: 37.84456829,140.91737313
      name:
      - 駒ヶ嶺小学校体育館
  昭和村:
    大字下中津川字中島向1755:
      latlng: 37.33383312,139.61027411
      name:
      - 昭和村立昭和中学校
    大字下中津川字二十苅255:
      latlng: 37.33161960,139.61390988
      name:
      - 昭和小学校
    大字下中津川字住吉415:
      latlng: 37.33376931,139.61332101
      name:
      - 昭和村公民館
    大字両原字根掘場1:
      latlng: ''
      name:
      - 昭和村郷土芸能伝承館
    大字喰丸字松ノ木平704:
      latlng: 37.31637015,139.65630013
      name:
      - 克雪管理センター
    大字小中津川字石仏1836:
      latlng: 37.33175580,139.61793445
      name:
      - 昭和村保健・医療・福祉総合センター
    大字小野川字奈良布336:
      latlng: ''
      name:
      - 奈良布自治会館
    大字小野川字後沢652:
      latlng: ''
      name:
      - 昭和小学校小野川分校
    大字野尻字松木淵213-1:
      latlng: 37.35273308,139.58934536
      name:
      - 昭和村農林漁業者等健康増進施設
  本宮市:
    仁井田字寺下15:
      latlng: 37.49120549,140.40233738
      name:
      - 仁井田地区公民館
    字矢来39-1:
      latlng: 37.51716650,140.40055324
      name:
      - 中央公民館
      - サンライズもとみや
    字舘ノ越48:
      latlng: 37.52024958,140.40424728
      name:
      - 本宮市立本宮まゆみ小学校
    白岩字堤崎318-1:
      latlng: 37.50711076,140.45465475
      name:
      - 本宮市白沢体育館
    高木字井戸上45番地:
      latlng: 37.51497826,140.41864074
      name:
      - 福島県立本宮高等学校
  柳津町:
    大字柳津字上村道上乙1580:
      latlng: 37.52442070,139.72086736
      name:
      - 柳津町立柳津小学校
      - 柳津町立柳津中学校
    大字砂子原字居平316:
      latlng: 37.44568080,139.68708160
      name:
      - 柳津町立西山小学校
    大字砂子原字居平406:
      latlng: 37.44632241,139.68785928
      name:
      - 柳津町立西山中学校
  桑折町:
    大字万正寺字大榧16-1:
      latlng: 37.85195760,140.51091074
      name:
      - 桑折町老人福祉センター(大かや園)
    大字上郡字弁慶20:
      latlng: 37.84739213,140.52659851
      name:
      - 桑折町中央公民館(福祉センター)
    大字上郡字林泉寺前1-1:
      latlng: ''
      name:
      - 桑折町民第2体育館
      - 桑折町民体育館
    大字上郡字柳下5:
      latlng: 37.85039171,140.52560680
      name:
      - 醸芳中学校
    大字下郡字下郡前5-2:
      latlng: 37.85045328,140.53971951
      name:
      - 伊達崎幼稚園
    大字下郡字堂ノ前11-1:
      latlng: 37.85000611,140.53972786
      name:
      - 桑折町伊達崎公民館
    大字下郡字細町1:
      latlng: 37.85062272,140.54069164
      name:
      - 伊達崎小学校
    大字南半田字上田町5:
      latlng: 37.86532563,140.52138988
      name:
      - 半田醸芳小学校
    大字南半田字八反田5-1:
      latlng: ''
      name:
      - 半田醸芳幼稚園
    大字南半田字川端22:
      latlng: 37.85822331,140.50771632
      name:
      - 桑折町民研修センター(うぶかの郷)
    大字成田字坊ノ内19-1:
      latlng: 37.83524827,140.49770140
      name:
      - 桑折町睦合公民館(睦合ふれあい会館)
    大字成田字堰上51:
      latlng: 37.83956447,140.50097318
      name:
      - 睦合小学校
    大字成田字小峯前14:
      latlng: 37.83992840,140.50347573
      name:
      - 睦合幼稚園
    大字谷地字道下22:
      latlng: 37.85439934,140.52160697
      name:
      - 桑折町保健福祉センター(やすらぎ園)
    字桑島三103:
      latlng: 37.84602529,140.51688548
      name:
      - 桑折町桑折公民館(町民会館)
    字桑島三11-21:
      latlng: 37.84591695,140.51644663
      name:
      - 醸芳保育所
    字桑島三11-24:
      latlng: 37.84551145,140.51647720
      name:
      - 醸芳幼稚園
    字桑島三2-8:
      latlng: 37.84677794,140.51622717
      name:
      - 醸芳小学校
  棚倉町:
    大字下山本字久保田11-1:
      latlng: 36.99926428,140.39065932
      name:
      - 近津幼稚園
    大字下山本字桃木田34:
      latlng: 36.99911432,140.39177867
      name:
      - 近津小学校体育館
    大字八槻字上台200:
      latlng: ''
      name:
      - 近津運動広場
    大字山際字仙石103:
      latlng: 37.02026084,140.35063138
      name:
      - 高野小学校体育館
    大字岡田字上ノ内92:
      latlng: 37.02021270,140.43292413
      name:
      - 山岡小学校校庭
    大字棚倉字中居野33:
      latlng: 37.02993803,140.37956175
      name:
      - 棚倉町役場
    大字棚倉字北町118-1:
      latlng: 37.03241289,140.38742764
      name:
      - 棚倉小学校体育館
    大字棚倉字城跡26-2:
      latlng: 37.02987151,140.38543625
      name:
      - 棚倉町中央公民館広場
    大字棚倉字城跡88-5:
      latlng: 37.03001865,140.38298089
      name:
      - 棚倉町中学校校庭
    大字棚倉字宮下138:
      latlng: 37.02991585,140.38132549
      name:
      - 棚倉幼稚園園庭
    大字逆川字向原28:
      latlng: 37.05975111,140.37822724
      name:
      - 社川運動広場
    大字逆川字山梨子山19:
      latlng: 37.05443223,140.37779420
      name:
      - 社川小学校体育館
    大字逆川字山梨子山7-16:
      latlng: ''
      name:
      - 社川コミュニティセンター
    大字逆川字山梨子山7-6:
      latlng: 37.05537376,140.37583877
      name:
      - 社川幼稚園
    大字金沢内字中背戸続123:
      latlng: ''
      name:
      - 金沢内運動広場
    大字関口字一本松24:
      latlng: 37.03501267,140.39231322
      name:
      - 棚倉運動広場
    大字関口字一本松58:
      latlng: 37.03639320,140.39895704
      name:
      - 棚倉町文化センター駐車場
  楢葉町:
    大字上小塙字女平218-1:
      latlng: 37.27135177,140.95121826
      name:
      - 女平地区集会所
    大字上小塙字宮平1:
      latlng: 37.26981356,140.98295923
      name:
      - 上小塙地区集会所
    大字上繁岡字中平198-3:
      latlng: 37.30685647,140.96898808
      name:
      - 松館地区集会所
    大字上繁岡字所布22-8:
      latlng: ''
      name:
      - 山所布地区集会所
    大字下小塙字久保田63:
      latlng: 37.26434791,140.99786901
      name:
      - 下小塙地区集会所
    大字下小塙字佐野98:
      latlng: 37.26092340,140.99549152
      name:
      - 佐野地区集会所
    大字下小塙字麦入31:
      latlng: 37.26570327,140.99835783
      name:
      - 楢葉南小学校
    大字井出字上ノ岡33:
      latlng: 37.28549238,141.00067975
      name:
      - 楢葉北小学校
    大字井出字前沢52:
      latlng: 37.27329432,141.01300372
      name:
      - 下井出地区集会所
    大字井出字所布77-29:
      latlng: 37.29509939,140.97685693
      name:
      - 旭ヶ丘地区集会所
    大字井出字木屋106:
      latlng: 37.28159556,141.00059917
      name:
      - 上井出地区集会所
    大字井出字浄光東13:
      latlng: 37.29148896,140.99937991
      name:
      - 向ノ内住宅地区集会所
    大字井出字浄光西3-51:
      latlng: 37.29283878,140.99752730
      name:
      - 浄光西地区集会所
    大字井出字萩平58-1:
      latlng: 37.29063060,140.99282214
      name:
      - 萩平地区集会所
    大字前原字付念田16:
      latlng: ''
      name:
      - 前原地区集会所
    大字北田字中川原23:
      latlng: 37.27333266,140.99841882
      name:
      - 北田地区集会所
    大字北田字鐘突堂4-36:
      latlng: 37.28302859,140.99575792
      name:
      - 鐘突堂地区集会所
    大字北田字鐘突堂5-4:
      latlng: 37.28203146,140.99336925
      name:
      - 楢葉町コミュニティセンター
    大字北田字鐘突堂5-5:
      latlng: 37.28364796,140.99291375
      name:
      - 楢葉町保健福祉会館
    大字大谷字乙次郎133:
      latlng: 37.28108856,140.89867328
      name:
      - 乙次郎地区集会所
    大字大谷字山根20:
      latlng: 37.28340072,140.98391182
      name:
      - 大谷地区集会所
    大字山田岡字五里内7:
      latlng: 37.25812945,140.99865518
      name:
      - 山田岡地区集会所
    大字山田岡字後沢30:
      latlng: 37.26068731,140.99444162
      name:
      - 後沢住宅地区集会所
    大字波倉字原135-7:
      latlng: 37.29780535,141.01454807
      name:
      - 営団地区集会所
  檜枝岐村:
    字下ノ原891:
      latlng: ''
      name:
      - 檜枝岐村小中学校体育館
    字見通1150:
      latlng: ''
      name:
      - 檜枝岐温泉スキーセンター
  泉崎村:
    大字北平山字新田東山48-2:
      latlng: 37.14225124,140.31532443
      name:
      - 泉崎第二小学校
    大字北平山字高柳107-1:
      latlng: 37.14770040,140.30249784
      name:
      - 老人福祉センター
    大字北平山字高柳88-1:
      latlng: 37.14840308,140.30277834
      name:
      - 農村環境改善センター
    大字泉崎字上人馬14:
      latlng: ''
      name:
      - 泉崎中学校
      - 泉崎中学校体育館
    大字泉崎字八丸100:
      latlng: 37.15446057,140.30266703
      name:
      - 泉崎幼稚園
    大字泉崎字白石山3-1:
      latlng: 37.15479122,140.31796254
      name:
      - 農業者トレーニングセンター
    大字泉崎字舘24-9:
      latlng: 37.15848773,140.29872288
      name:
      - 資料館
    大字泉崎字高屋原7-1:
      latlng: ''
      name:
      - 泉崎第一小学校
  浅川町:
    大字中里字舞台34-1:
      latlng: 37.06749579,140.42815012
      name:
      - 中里コミュニティ消防センター
    大字山白石字本内230:
      latlng: 37.09635957,140.44300875
      name:
      - 浅川町立山白石小学校
    大字浅川字背戸谷地112ー2 6:
      latlng: ''
      name:
      - 浅川集会センター
    大字浅川字荒町108:
      latlng: 37.08139390,140.41505888
      name:
      - 浅川町立浅川小学校
    大字里白石字寺ノ前118:
      latlng: 37.10792956,140.41906018
      name:
      - 浅川町立里白石小学校
  浪江町:
    大字下津島字原78:
      latlng: 37.55961447,140.76285769
      name:
      - 津島公民館分室
    大字下津島字大和久56の16:
      latlng: 37.56261151,140.76849320
      name:
      - 福島県立浪江高等学校津島校
    大字下津島字宮平109:
      latlng: 37.56119476,140.75563318
      name:
      - 浪江町立津島小学校
    大字下津島字松木山22番地1:
      latlng: 37.56108935,140.76396586
      name:
      - 浪江町つしま活性化センター
    大字下津島字町45:
      latlng: 37.56055590,140.75323617
      name:
      - 津島農業構造改善センター
    大字下津島字萓深1:
      latlng: ''
      name:
      - 浪江町立津島中学校
    大字井手字大高倉50:
      latlng: 37.47081951,140.93286566
      name:
      - 老人憩いの家やすらぎ荘
    大字加倉字下加倉40-1:
      latlng: ''
      name:
      - 町営加倉運動公園
    大字北幾世橋字植畑11:
      latlng: 37.49825197,141.01661646
      name:
      - 浪江町立幾世橋小学校
    大字北幾世橋字羽場1-1:
      latlng: ''
      name:
      - 浪江町中央公民館幾世橋分館
    大字大堀字下原1:
      latlng: ''
      name:
      - 町営野球場
    大字大堀字仲禅寺123:
      latlng: ''
      name:
      - 浪江町中央公民館大堀分館
    大字小野田字仲禅寺134:
      latlng: 37.47692471,140.95641599
      name:
      - 浪江町立大堀小学校
    大字川添字南大坂28:
      latlng: 37.49341257,140.97932761
      name:
      - 浪江町立浪江中学校
      - 町営スポーツセンター
    大字幾世橋字六反田7-2:
      latlng: 37.49488801,140.99947337
      name:
      - 浪江町民第二体育館
    大字幾世橋字来福寺西73:
      latlng: 37.49233553,141.00722001
      name:
      - 浪江町立浪江東中学校
    大字幾世橋字芋頭5-2:
      latlng: 37.49410473,140.99970668
      name:
      - サンシャイン浪江
    大字棚塩字北棚64:
      latlng: 37.50333504,141.02082440
      name:
      - 北棚塩総合集会所
    大字棚塩字向川原214:
      latlng: 37.48816707,141.03694821
      name:
      - マリンパークなみえ
    大字棚塩字荒井前28:
      latlng: 37.49274998,141.03447337
      name:
      - 南棚塩総合集会所
    大字権現堂字下川原9:
      latlng: 37.49763492,140.99363212
      name:
      - 浪江町民第一体育館
    大字権現堂字北深町34-1:
      latlng: ''
      name:
      - 中央公園
    大字権現堂字北深町5:
      latlng: 37.49425177,140.99242387
      name:
      - 浪江町立浪江小学校
    大字権現堂字新町20:
      latlng: 37.49312134,140.99406820
      name:
      - 新町ふれあい広場
    大字権現堂字矢沢町40-1:
      latlng: ''
      name:
      - コスモス保育園
    大字権現堂字矢沢町6番地の1:
      latlng: 37.49153514,140.98706592
      name:
      - ふれあいセンターなみえ
    大字苅宿字鹿畑16:
      latlng: 37.50613309,140.95455447
      name:
      - 浪江町立苅野小学校
    大字苅宿字鹿畑38:
      latlng: ''
      name:
      - 浪江町中央公民館苅野分館
    大字請戸字御壇ノ西50:
      latlng: 37.47753455,141.03589839
      name:
      - 浪江町中央公民館請戸分館
    大字請戸字持平56:
      latlng: 37.47522360,141.03473738
      name:
      - 浪江町立請戸小学校
    大字酒田字東2丁目9の1:
      latlng: 37.50153981,140.98297169
      name:
      - 福島県立浪江高等学校
    大字高瀬字丈六644:
      latlng: ''
      name:
      - 町営高瀬野球場
    高瀬字丈六10:
      latlng: 37.47959736,140.99902337
      name:
      - 福島いこいの村なみえ
  湯川村:
    大字三川字中台141:
      latlng: ''
      name:
      - 湯川村運動広場
    大字三川字的場50:
      latlng: ''
      name:
      - 湯川村営野球場
    大字勝常字堂後827:
      latlng: 37.56340437,139.87163713
      name:
      - 勝常小学校校庭
    大字清水田字川入3:
      latlng: 37.56492402,139.88817156
      name:
      - 湯川村体育館
    大字清水田字長瀞17:
      latlng: 37.56567114,139.88749658
      name:
      - 湯川村公民館
    大字笈川字殿田37:
      latlng: 37.56696542,139.88649661
      name:
      - 湯川中学校屋内運動場
      - 湯川中学校校庭
    大字笈川字舘238:
      latlng: ''
      name:
      - 湯川村笈川運動広場
    大字笈川字舘24:
      latlng: 37.57372026,139.88753506
      name:
      - 笈川小学校校庭
  猪苗代町:
    大字三ツ和字家北906:
      latlng: 37.53877762,140.07252821
      name:
      - 翁島地区コミニティセンター
      - 翁島小学校
    大字中小松字狐川原甲1566-1:
      latlng: 37.51657919,140.13171443
      name:
      - 緑小学校
    大字八幡字山神374-2:
      latlng: 37.55812403,140.14015886
      name:
      - 長瀬小学校
    大字千代田字中島5-1:
      latlng: ''
      name:
      - 猪苗代中学校
    大字千代田字前田甲312-1:
      latlng: 37.54768593,140.10803793
      name:
      - 千里小学校体育館
      - 千里地区コミニティセンター
    大字山潟字湊志田191:
      latlng: 37.49074678,140.15616557
      name:
      - 旧山潟小学校
      - みどり幼稚園
    大字川桁字上川原2262-75:
      latlng: 37.53817143,140.14455909
      name:
      - 東中学校体育館
    大字川桁字新町3601:
      latlng: 37.53676859,140.13629901
      name:
      - 猪苗代町防災センター
    大字川桁字長町3480:
      latlng: 37.53702146,140.14024020
      name:
      - 猪苗代町第二町民体育館
    大字蚕養字下平乙613-53:
      latlng: 37.60208797,140.13559917
      name:
      - 吾妻中学校
    大字蚕養字中島乙591-6:
      latlng: 37.59981323,140.13679085
      name:
      - 樋ノ口多目的集会所
    大字蚕養字中島乙592-3:
      latlng: 37.60112697,140.13607418
      name:
      - 吾妻小学校体育館
    大字蚕養字沼尻山甲2855-171:
      latlng: 37.61471434,140.20660354
      name:
      - 中ノ沢運動場
    大字蚕養字沼尻山甲2855-173:
      latlng: 37.61591129,140.20462868
      name:
      - 猪苗代町老人福祉センター
    大字蚕養字沼尻山甲2855ー173:
      latlng: 37.61591129,140.20462868
      name:
      - 中ノ沢体育館(旧勤労者体育センター)
    大字金田字西川原380-3:
      latlng: 37.51717912,140.13169218
      name:
      - 月輪地区コミニティセンター
    字上園1340-1:
      latlng: 37.55673491,140.12235822
      name:
      - 猪苗代町運動公園
    字下園1329-1:
      latlng: 37.55660715,140.12226934
      name:
      - 猪苗代町水防センター
    字古城町132-2:
      latlng: ''
      name:
      - 猪苗代町公民館
    字城南100:
      latlng: 37.55779816,140.10479343
      name:
      - 猪苗代町農村環境改善センター
    字茶園5770:
      latlng: 37.56384450,140.10358775
      name:
      - 猪苗代小学校体育館
    字鶴田141-2:
      latlng: 37.56147808,140.10020484
      name:
      - 猪苗代町総合体育館
  玉川村:
    大字中字前作田71:
      latlng: 37.21872139,140.41118213
      name:
      - 玉川村立泉中学校体育館
    大字南須釜字奥平108:
      latlng: 37.21348732,140.45055387
      name:
      - 玉川村立須釜中学校体育館
  田村市:
    大越町上大越字元池175:
      latlng: 37.37926312,140.63215396
      name:
      - 大越体育館
    大越町上大越字元池70:
      latlng: 37.38190451,140.63133446
      name:
      - 上大越小学校
    大越町上大越字元池87-5:
      latlng: 37.37984919,140.63272055
      name:
      - 大越教育分室
    大越町上大越字古川49-2:
      latlng: 37.39223373,140.62485117
      name:
      - 大越高齢者生活福祉センター
    大越町上大越字水神宮17:
      latlng: 37.37394424,140.63672605
      name:
      - 屋内ゲートボール場
    大越町上大越字水神宮62-1:
      latlng: 37.37556493,140.63608908
      name:
      - おおごえふるさと館
    大越町下大越字古川197:
      latlng: ''
      name:
      - 大越保健センター
    大越町下大越字大荷場1-2:
      latlng: 37.39660590,140.64491583
      name:
      - つつじケ丘運動公園管理センター
      - ふれあい音楽館
    大越町早稲川字高野作70:
      latlng: 37.37978584,140.66706536
      name:
      - 大越早稲川体育館
    大越町栗出字東畑26:
      latlng: 37.35900622,140.61748654
      name:
      - 大越転作技術研修センター
    大越町牧野字堺68-2:
      latlng: 37.36335843,140.61054247
      name:
      - 高柴児童館
    常葉町常葉字町裏1:
      latlng: 37.43750340,140.64410763
      name:
      - 常葉保健センター
      - 常葉公民館
    常葉町常葉字舘1-8:
      latlng: 37.44193066,140.64639063
      name:
      - 常葉児童生活センター
    常葉町関本字岡ノ内143:
      latlng: ''
      name:
      - 常葉公民館関本分館
    滝根町広瀬字針湯33:
      latlng: 37.31311777,140.66013461
      name:
      - 天地人大学
    滝根町広瀬字針湯55:
      latlng: 37.31272058,140.65938746
      name:
      - 滝根総合福祉センター
    滝根町広瀬字針湯62:
      latlng: 37.31245672,140.65934580
      name:
      - 老人憩いの家「針湯荘」
    滝根町神俣字中広土193:
      latlng: ''
      name:
      - 滝根中学校
    滝根町神俣字入新田16:
      latlng: 37.33092786,140.69851339
      name:
      - 入新田集会所
    滝根町神俣字河原154:
      latlng: 37.32527472,140.66355620
      name:
      - 滝根体育館
    滝根町神俣字関場118:
      latlng: 37.32160276,140.65753750
      name:
      - 滝根町行政局庁舎
    滝根町菅谷字入水630:
      latlng: 37.35490730,140.65523647
      name:
      - 入水多目的集会所
    船引町上移字後田118-1:
      latlng: 37.51446487,140.65505675
      name:
      - 移屋内運動場
    船引町上移字後田172:
      latlng: 37.51520918,140.65258745
      name:
      - 北部ディサービスセンター
    船引町上移字橋本125:
      latlng: 37.51111244,140.65177666
      name:
      - 移中学校
    船引町中山字表12:
      latlng: 37.49488640,140.65972997
      name:
      - 中山生涯学習センター
    船引町北鹿又字宮ノ後89-1:
      latlng: 37.46779924,140.58478345
      name:
      - 美山屋内運動場
    船引町北鹿又字後和田30:
      latlng: 37.47308478,140.58825794
      name:
      - 美山小学校
    船引町堀越字丸森2:
      latlng: 37.39759832,140.57048572
      name:
      - 堀越小学校
    船引町堀越字丸森70:
      latlng: 37.39793719,140.57232447
      name:
      - 船引南中学校
    船引町文殊字江戸内50:
      latlng: ''
      name:
      - 文殊屋内運動場
    船引町文殊字馬場平90:
      latlng: ''
      name:
      - 文殊地区公民館
    船引町新舘字下459:
      latlng: 37.49565705,140.58289603
      name:
      - 瀬川地区公民館
    船引町新舘字軽井沢1054:
      latlng: 37.49193784,140.57626620
      name:
      - 瀬川屋内運動場
    船引町春山字道之原51:
      latlng: ''
      name:
      - 春山小学校
    船引町椚山字池ノ辺1:
      latlng: 37.40922784,140.58862549
      name:
      - 椚山小学校
    船引町石森字舘108:
      latlng: 37.45405872,140.55774180
      name:
      - 石森小学校
    船引町笹山字寺屋敷388:
      latlng: 37.45458824,140.52980521
      name:
      - 要田屋内運動場
    船引町笹山字立石604-1:
      latlng: 37.45522697,140.52669991
      name:
      - 要田地区公民館
    船引町船引字南元町1:
      latlng: 37.43614708,140.57986336
      name:
      - 船引小学校
    船引町船引字南元町29-2:
      latlng: 37.43569160,140.58122995
      name:
      - 田村市文化センター
    船引町船引字四城内前317:
      latlng: ''
      name:
      - 船引屋内運動場
    船引町船引字東部台2丁目1:
      latlng: 37.44208816,140.58046016
      name:
      - 船引中学校
    船引町船引字源次郎120-3:
      latlng: 37.44614887,140.58141539
      name:
      - 屋内ゲートボール場
    船引町船引字源次郎131:
      latlng: 37.45314812,140.58193161
      name:
      - 船引保健センター
    船引町船引字石崎15-3:
      latlng: 37.44842636,140.57920710
      name:
      - 福島県立船引高等学校
    船引町芦沢字今坂内299-3:
      latlng: 37.40924105,140.54269286
      name:
      - 芦沢屋内運動場
    船引町芦沢字大越293:
      latlng: 37.40718849,140.53833783
      name:
      - 芦沢小学校
    船引町門沢字宮ノ平182:
      latlng: 37.38807759,140.59164018
      name:
      - 門沢小学校
    船引町門沢字直道184-3:
      latlng: 37.38919121,140.58603500
      name:
      - 七郷屋内運動場
    都路町古道字北町4番地6:
      latlng: 37.43653642,140.79225475
      name:
      - 都路中学校
    都路町古道字寺ノ前39番地:
      latlng: 37.43398953,140.79449358
      name:
      - 都路保健センター
    都路町古道字戸屋70番地:
      latlng: 37.43522290,140.80150668
      name:
      - 田村市都路多目的研修集会施設
    都路町古道字春日前56番地:
      latlng: 37.39468578,140.79935881
      name:
      - 大久保小学校
    都路町古道字遠下前80番地:
      latlng: ''
      name:
      - 都路の郷ふれあいセンター
    都路町字平蔵内181番地1:
      latlng: 37.45851122,140.73531432
      name:
      - 都路村岩井沢民体育館
    都路町岩井沢字中作76番地:
      latlng: 37.45846956,140.73372833
      name:
      - 岩井沢小学校
    都路町岩井沢字北向185番地1:
      latlng: ''
      name:
      - グリーンパーク都路草原の家やすらぎ
  白河市:
    中田140:
      latlng: 37.12084050,140.22915790
      name:
      - 白河市地域職業訓練センター
    久田野字豆柄山3:
      latlng: 37.12587948,140.25903544
      name:
      - 白河第四小学校体育館
    八幡小路7-1:
      latlng: 37.12637836,140.21092317
      name:
      - 白河市役所
    南登リ町54番地:
      latlng: ''
      name:
      - 福島県立白河高等学校
    大信上新城字原畑地内:
      latlng: ''
      name:
      - 大信総合運動公園
    大信下小屋字西宿79:
      latlng: ''
      name:
      - 大屋小学校
    大信中新城字内屋敷5-2:
      latlng: ''
      name:
      - 中新城構造改善センター
    大信中新城字愛宕山108-1:
      latlng: 37.21100864,140.26794032
      name:
      - 信夫第一小学校
    大信増見字中沢10:
      latlng: 37.18297807,140.21944864
      name:
      - 信夫第二小学校
    大信増見字北田58:
      latlng: 37.20359545,140.24815377
      name:
      - 大信公民館
    大信町屋字沢田18:
      latlng: ''
      name:
      - 大信農協環境改善センター
      - 大信保健センター
    大信町屋字渋川70:
      latlng: 37.20912259,140.24375951
      name:
      - 大信中学校
    大信豊地字分切田137-1:
      latlng: ''
      name:
      - 開進多目的集会所
    大字久田野字城内31:
      latlng: 37.13375635,140.25857684
      name:
      - サンフレッシュ白河
    大字旗宿字白河内13-1:
      latlng: 37.04608236,140.23034381
      name:
      - 白河都市農村交流センター
    大字泉田字南之内1:
      latlng: 37.14289131,140.25446040
      name:
      - 東北中学校体育館
    大字泉田字大久保88:
      latlng: 37.15417872,140.24665805
      name:
      - 小田川市民センター
    大字泉田字池ノ上239:
      latlng: 37.15368436,140.24771909
      name:
      - 小田川小学校体育館
    大字田島字明治11-1:
      latlng: 37.11707565,140.28221153
      name:
      - 五箇市民センター
    大字田島字田島165-2:
      latlng: 37.11832286,140.28629170
      name:
      - 五箇小学校体育館
    大字田島字結城館43-2:
      latlng: 37.11466498,140.28791675
      name:
      - 五箇中学校体育館
    天神町2:
      latlng: 37.12759752,140.20421538
      name:
      - 白河中央公民館
    字みさか二丁目120:
      latlng: 37.11117396,140.18725917
      name:
      - みさか小学校体育館
    字中北川原313:
      latlng: ''
      name:
      - 白河市中央保健センター
    字北中川原30:
      latlng: 37.12372626,140.22890505
      name:
      - 白河市中央体育館
    字北中川原8-1:
      latlng: 37.12386508,140.22622195
      name:
      - わかば保育園
    字明戸72-5:
      latlng: 37.12776731,140.22182498
      name:
      - 白河中央中学校体育館
    寺小路64-2:
      latlng: 37.12285675,140.22020861
      name:
      - 白河第三小学校体育館
    日影2-8:
      latlng: 37.12637260,140.20186007
      name:
      - 白河第二小学校体育館
      - 白河第二小学校校庭
    旭町1丁目3番地:
      latlng: 37.12140697,140.22225848
      name:
      - 福島県立白河旭高等学校
    明戸72-5:
      latlng: 37.12776731,140.22182498
      name:
      - 白河中央中学校校庭
    東上野出島字干草場153-3:
      latlng: 37.10592299,140.36373479
      name:
      - 東総合保健福祉センター
    東下野出島字滑志14:
      latlng: 37.10547340,140.38803516
      name:
      - 東多目的センター
    東下野出島字髪内195:
      latlng: 37.10820354,140.38477424
      name:
      - 小野田小学校
    東釜子字殿田表35:
      latlng: 37.10159284,140.35003084
      name:
      - 東公民館
    東釜子字狐内25:
      latlng: 37.10198734,140.36070195
      name:
      - 東中学校
    東釜子字狐内47:
      latlng: 37.10500645,140.36454308
      name:
      - きつねうち温泉健康館
    東釜子字狐内50:
      latlng: ''
      name:
      - 東風の台総合運動公園プール
    東釜子字狐内51:
      latlng: ''
      name:
      - 東風の台総合運動公園弓道場
    東釜子字西ノ内1:
      latlng: 37.10119836,140.34227886
      name:
      - 釜子小学校
    栄町55:
      latlng: 37.11861265,140.21299272
      name:
      - ひまわり保育園
    瀬戸原6-1:
      latlng: 37.10256770,140.22633654
      name:
      - 福島県立白河実業高等学校
    白坂字愛宕山209-1:
      latlng: 37.08292210,140.19170929
      name:
      - 白坂コミュニティセンター
    白坂字陣場202:
      latlng: 37.09304857,140.18613720
      name:
      - 白坂多目的研修センター
    白坂字陣場317:
      latlng: 37.08450243,140.18863446
      name:
      - 白河第五小学校体育館
    表郷番沢字和田46-9:
      latlng: 37.05836011,140.27876998
      name:
      - 表郷多目的研修センター
    表郷番沢字成金142:
      latlng: 37.06442881,140.27636995
      name:
      - おもてごう保育園
    表郷番沢字柳沼60:
      latlng: ''
      name:
      - 表郷中学校
    表郷番沢字桜下23:
      latlng: 37.06102132,140.29246026
      name:
      - 表郷公民館
    表郷金山字瀬戸原108:
      latlng: 37.05900235,140.30144003
      name:
      - 表郷小学校
    表郷金山字長者久保2:
      latlng: 37.05440853,140.30558704
      name:
      - 表郷庁舎
  相馬市:
    中村字大手先57ー1:
      latlng: 37.79517905,140.91372271
      name:
      - 福島県立相馬高等学校
    北飯渕字阿弥陀堂200:
      latlng: 37.80601516,140.93911436
      name:
      - 相馬東高等学校
    原釜字北高野56:
      latlng: 37.82564420,140.95620913
      name:
      - 東部公民館
    坪田字北田68:
      latlng: 37.77097586,140.91317920
      name:
      - 八幡公民館
    山上字上ノ台1-1:
      latlng: 37.77824618,140.87983818
      name:
      - 山上公民館
    石上字鵃沢326-1:
      latlng: ''
      name:
      - 大野公民館
    程田字明神前142-4:
      latlng: 37.78810365,140.95369726
      name:
      - 飯豊公民館
  矢吹町:
    一本木100-11:
      latlng: 37.20204338,140.34006065
      name:
      - 矢吹町文化センター
    一本木101番地:
      latlng: 37.20128234,140.33861084
      name:
      - 矢吹町役場庁舎
    中町100番地:
      latlng: 37.20156820,140.32392076
      name:
      - 矢吹小学校
    中畑127-1:
      latlng: 37.17595540,140.34996352
      name:
      - 中畑公民館
    中畑329番地:
      latlng: 37.16857307,140.35233027
      name:
      - 中畑小学校
    大町184-10:
      latlng: 37.20201533,140.32028503
      name:
      - 矢吹幼稚園
    小松384番地2:
      latlng: 37.20603716,140.33405834
      name:
      - 善郷小学校
    文京町118番地:
      latlng: 37.19178092,140.34239418
      name:
      - 矢吹中学校
    曙町17番地:
      latlng: 37.20200986,140.32875355
      name:
      - 矢吹町中央公民館
    田町532:
      latlng: 37.18470653,140.31879719
      name:
      - 福島県立光南高等学校
    神田西130-2:
      latlng: 37.20025339,140.38421777
      name:
      - 三神小学校
    神田西130番地3:
      latlng: 37.20084221,140.38435385
      name:
      - 三神公民館
  矢祭町:
    大字下関河内字天神前58:
      latlng: 36.83945133,140.44782893
      name:
      - 矢祭町立下関河内小学校
    大字中石井字御殿川原1:
      latlng: 36.90731499,140.41661507
      name:
      - 矢祭町立石井小学校
      - 矢祭町立石井小学校体育館
    大字内川字トキノス25:
      latlng: 36.86271362,140.38190898
      name:
      - 矢祭町立内川小学校
    大字小田川字春田16-1:
      latlng: ''
      name:
      - 矢祭町山村開発センター
    大字東舘字下上野内10:
      latlng: 36.86841957,140.42572431
      name:
      - 矢祭町立東舘小学校
    大字東舘字大寄40:
      latlng: 36.87864336,140.42410729
      name:
      - 矢祭町立矢祭中学校
      - 矢祭町立矢祭中学校体育館
    大字金沢字蕨平4-7:
      latlng: 36.88502596,140.42387921
      name:
      - 矢祭町営運動場
    大字関岡字橋場8:
      latlng: 36.86280884,140.41370623
      name:
      - 矢祭町立関岡小学校
  石川町:
    大字中田字八反396:
      latlng: ''
      name:
      - 石川町中谷第二小学校体育館
    大字南山形字中ノ沢55:
      latlng: ''
      name:
      - 山橋自治センター
    大字双里字川向165:
      latlng: 37.14617914,140.46504996
      name:
      - 石川町立石川中学校
    大字双里字川向91:
      latlng: 37.14622355,140.46419727
      name:
      - 石川町第二体育館
    大字双里字神主34:
      latlng: 37.14740716,140.47712923
      name:
      - 中谷自治センター(体育館)
    大字山形字須沢133:
      latlng: 37.12082638,140.44899033
      name:
      - 石川町立山形小学校体育館
    大字形見字形見217:
      latlng: 37.14075570,140.49170285
      name:
      - 石川町立中谷第1小学校体育館
    大字曲木字燈篭場5:
      latlng: 37.17926003,140.42921279
      name:
      - 石川町立野木沢小学校体育館
    大字母畑字梅木入71-8:
      latlng: 37.19499612,140.48419100
      name:
      - 母畑レークサイドセンター体育館
    大字沢井字上ノ原75:
      latlng: 37.14324379,140.39704416
      name:
      - 石川町立沢田中学校体育館
    大字沢井字大池下77-1:
      latlng: 37.14280227,140.40019394
      name:
      - 石川町立沢田小学校体育館
    字当町418-1:
      latlng: 37.14431186,140.44137133
      name:
      - 石川町勤労青少年ホーム
    字松木下88:
      latlng: 37.13595189,140.44306306
      name:
      - 石川町老人福祉センター
    字渡里沢296-8:
      latlng: 37.14404221,140.43562176
      name:
      - 石川町総合体育館
    字高田200-2:
      latlng: 37.15015600,140.45297305
      name:
      - 石川町公民館
    関根1-1:
      latlng: 37.14653161,140.45721178
      name:
      - 石川町共同福祉施設
    高田200番地1:
      latlng: 37.15122530,140.45275636
      name:
      - 福島県立石川高等学校
  磐梯町:
    大字大谷字屋敷前33:
      latlng: 37.57438295,139.95982052
      name:
      - 磐梯第二小学校校庭
      - 磐梯第二小学校体育館
    大字大谷字日知坂6564:
      latlng: 37.55825694,139.97440319
      name:
      - 磐梯ふるさとの森公園
    大字更科字六郎原6843-1:
      latlng: ''
      name:
      - 更科分校跡地
    大字更科字堰下4638-101:
      latlng: ''
      name:
      - 更科農村公園
    大字更科字樋下2123:
      latlng: 37.54735630,140.02503506
      name:
      - 布藤農村公園
    大字磐梯字仁渡1018:
      latlng: 37.56251515,139.98969598
      name:
      - 磐梯町中央公民館
    大字磐梯字仁渡914:
      latlng: 37.56251798,139.99250681
      name:
      - 磐梯中学校校庭
      - 磐梯中学校体育館
    大字磐梯字仁渡977:
      latlng: ''
      name:
      - 磐梯町民運動場
    大字磐梯字口明石522-1:
      latlng: ''
      name:
      - 大寺農村公園
    大字磐梯字小原1872:
      latlng: 37.56260955,139.98759063
      name:
      - 磐梯幼稚園
    大字磐梯字東妙法59:
      latlng: ''
      name:
      - 妙法原農村公園
    大字磐梯字水口2528:
      latlng: 37.56025145,139.98648805
      name:
      - 磐梯第一小学校校庭
      - 磐梯第一小学校体育館
    大字磐梯字漆方1023:
      latlng: ''
      name:
      - 磐梯町民体育館
    大字磐梯字漆方1054:
      latlng: 37.56033488,139.99195417
      name:
      - 磐梯町老人福祉センター
    大字磐梯字漆方1060-1:
      latlng: 37.56063761,139.99107092
      name:
      - 磐梯町保育所
  福島市:
    三河南町17-7:
      latlng: 37.75774156,140.45379933
      name:
      - 三河台小学校
    上名倉字下田16-1:
      latlng: 37.73223435,140.39110148
      name:
      - 佐倉幼稚園
    上名倉字大光内1:
      latlng: 37.73295647,140.39026820
      name:
      - 佐倉小学校体育館
    上名倉字妻下4-2:
      latlng: 37.72537939,140.38376380
      name:
      - 西学習センター(旧:西公民館)
    上名倉字道上6:
      latlng: 37.72742358,140.38550519
      name:
      - 西信中学校
    上町4-25:
      latlng: 37.75424510,140.46961458
      name:
      - 福島テルサ
    上野寺字下平場35-1:
      latlng: 37.75867883,140.39621880
      name:
      - 吾妻学習センター分館(旧:吾妻公民館)
    上鳥渡字茶中40:
      latlng: 37.73441535,140.41766515
      name:
      - 鳥川小学校
    丸子字石名田6:
      latlng: 37.78831984,140.48358981
      name:
      - 鎌田小学校南校舎・体育館
    丸子字辰ノ尾1番地:
      latlng: 37.78417565,140.47624327
      name:
      - 福島県立福島商業高等学校
    仁井田字西下川原1-1:
      latlng: 37.75377207,140.43666242
      name:
      - 吉井田学習センター
    仁井田字西下川原41-1:
      latlng: 37.75263052,140.43633473
      name:
      - 福島市国体記念体育館
    伏拝字沢口18:
      latlng: 37.72408699,140.46353574
      name:
      - 杉妻小学校体育館
    伏拝字沢口18-1:
      latlng: ''
      name:
      - 杉妻幼稚園
    佐倉下字観ノ守北46:
      latlng: ''
      name:
      - 西部勤労者センター
    佐原字田中前24:
      latlng: 37.72271005,140.35560553
      name:
      - 佐原小学校校舎・体育館
    佐原字神事場1番地:
      latlng: 37.72481828,140.36492958
      name:
      - あづま総合運動公園
    光が丘1番地:
      latlng: 37.68916892,140.47024241
      name:
      - 公立大学法人福島県立医科大学
    入江町1-1:
      latlng: 37.76970492,140.47858813
      name:
      - 福島市音楽堂
    北沢又字愛宕1:
      latlng: 37.78592979,140.43156430
      name:
      - 北沢又小学校
      - 北沢又幼稚園
    南向台二丁目36-1:
      latlng: 37.72536506,140.48196465
      name:
      - 南向台小学校校舎体育館
    南平5-8:
      latlng: 37.76652423,140.46216478
      name:
      - 福島第四中学校・特別教室・体育館
    南沢又字柳清水20:
      latlng: 37.78013897,140.44288569
      name:
      - 清水小学校
    南沢又字柳清水8-1:
      latlng: 37.77899740,140.44233859
      name:
      - 清水学習センター分館(旧:清水公民館)
    南沢又字清水端23:
      latlng: 37.77282005,140.43616730
      name:
      - 清水中学校校舎・体育館
    南町480:
      latlng: 37.74135459,140.46368230
      name:
      - 福島第一中学校校舎・体育館
    南矢野目字関端2-1:
      latlng: 37.79033298,140.46403306
      name:
      - 矢野目小学校
    古川44の2:
      latlng: 37.77655730,140.49104249
      name:
      - 福島第三中学校
    吉倉字桜内48:
      latlng: 37.74474240,140.43243548
      name:
      - 吉井田小学校南校舎・体育館
    土湯温泉町字菅沢48:
      latlng: 37.68103683,140.32948751
      name:
      - 土湯小学校
    土船字原野町19-1:
      latlng: 37.74886310,140.38464830
      name:
      - 水保小学校校舎・体育館
    在庭坂字薬師田14-3:
      latlng: 37.75747317,140.37597098
      name:
      - 庭塚幼稚園
    在庭坂字薬師田19:
      latlng: 37.75756759,140.37479333
      name:
      - 庭塚小学校校舎・体育館
    大森字南中道4:
      latlng: 37.72714720,140.44189879
      name:
      - 大森小学校東校舎・体育館
    大森字南内町31-1:
      latlng: 37.72335586,140.43615235
      name:
      - 信夫中学校校舎・体育館
    大森字馬場1:
      latlng: 37.72618055,140.43669665
      name:
      - 信夫学習センター
    大波字滝ノ入1:
      latlng: 37.75798026,140.55473834
      name:
      - 大波小学校
    大笹生字中南25-3:
      latlng: 37.79947512,140.40326611
      name:
      - 大笹生幼稚園
    大笹生字俎板山341:
      latlng: 37.81553745,140.41600869
      name:
      - 十六沼公園体育館
    大笹生字緑田1:
      latlng: 37.79907791,140.40256619
      name:
      - 大笹生小学校
    天神町11-31:
      latlng: 37.75992216,140.46354825
      name:
      - 福島第四小学校
    天神町12-32:
      latlng: 37.75871395,140.46354275
      name:
      - ふくしま西幼稚園(旧:福島第四幼稚園)
    宮下町7番41号:
      latlng: 37.76215815,140.46739500
      name:
