北海道:
  えりも町:
    字えりも岬:
      latlng: 41.97399466,143.22347626
      name:
      - えりも町立えりも岬小学校校舎
      - えりも町立えりも岬小学校屋内体育館
      - えりも町立えりも岬小学校グラウンド
      - 林業総合センター
    字大和:
      latlng: 42.04988089,143.16622605
      name:
      - 大和共同作業所
      - 西えりも生活館
    字庶野:
      latlng: 42.04552585,143.26565230
      name:
      - えりも町立庶野小学校校舎
      - えりも町立庶野小学校屋内体育館
      - えりも町立庶野小学校グラウンド
      - 庶野さくら公園
      - 桜岡生活館
      - 庶野共同作業所
      - 庶野生活館
      - 美島共同作業所
    字新浜:
      latlng: 42.01131255,143.16539305
      name:
      - えりも町立えりも小学校校舎
      - えりも町立えりも小学校屋内体育館
      - えりも町立えりも小学校グラウンド
      - えりも町立えりも中学校校舎
      - えりも町立えりも中学校屋内体育館
      - えりも町立えりも中学校グラウンド
      - えりも町民体育館
      - えりも町スポーツ公園
    字本町:
      latlng: 42.02641280,143.16672976
      name:
      - 福祉センター
    字東洋:
      latlng: 41.95438050,143.21130684
      name:
      - えりも町立東洋小学校校舎
      - えりも町立東洋小学校屋内体育館
      - えりも町立東洋小学校グラウンド
      - 東洋共同作業所
      - 東洋生活館
      - 東洋第2生活館
    字歌別:
      latlng: 42.02801411,143.20133947
      name:
      - 歌別第二体育館
      - 歌別生活館
      - 上歌別生活館
      - 歌別共同作業所
    字目黒:
      latlng: 42.13214345,143.24871713
      name:
      - 目黒生活館
    字笛舞:
      latlng: 42.06275271,143.15580694
      name:
      - えりも町立笛舞小学校校舎
      - えりも町立笛舞小学校屋内体育館
      - えりも町立笛舞小学校グラウンド
      - 下笛舞共同作業所
      - 笛舞ふれあい館
    字近浦:
      latlng: 42.05657211,143.07908235
      name:
      - 近浦多目的集会施設
      - 近浦共同作業所
  せたな町:
    北檜山区丹羽1番地5:
      latlng: 42.43143880,139.93038144
      name:
      - せたな町立玉川小学校校舎
      - せたな町立玉川小学校グラウンド
    北檜山区丹羽360:
      latlng: 42.43086419,139.94135032
      name:
      - 北海道檜山北高等学校校舎
      - 北海道檜山北高等学校屋内体育館
      - 北海道檜山北高等学校グラウンド
    北檜山区丹羽5-7:
      latlng: 42.43033613,139.93041762
      name:
      - 丹羽活性化センター
    北檜山区二俣271番地:
      latlng: 42.31317795,139.90748920
      name:
      - せたな町立二俣小学校校舎
      - せたな町立二俣小学校体育館
      - せたな町立二俣小学校グラウンド
    北檜山区太櫓141番地:
      latlng: 42.38026116,139.81820490
      name:
      - せたな町立太櫓小学校体育館
      - せたな町立太櫓小学校グラウンド
    北檜山区富里213番地:
      latlng: 42.31356259,139.95366294
      name:
      - せたな町立左股小学校校舎
      - せたな町立左股小学校体育館
      - せたな町立左股小学校グラウンド
    北檜山区小倉山567番地:
      latlng: 42.48500125,139.96756772
      name:
      - せたな町立小倉山小学校校舎
      - せたな町立小倉山小学校体育館
      - せたな町立小倉山小学校グラウンド
    北檜山区徳島63-1:
      latlng: 42.41678323,139.88368450
      name:
      - せたな町健康センター
    北檜山区徳島8-1:
      latlng: 42.41644145,139.87965417
      name:
      - せたな町民ふれあいプラザ
    北檜山区松岡158番地1:
      latlng: ''
      name:
      - 真駒内ダム公園休憩所
    北檜山区若松461番地:
      latlng: 42.35446811,139.90603340
      name:
      - せたな町立若松小学校校舎
      - せたな町立若松小学校体育館
      - せたな町立若松小学校グラウンド
    北檜山区若松513-1:
      latlng: 42.35789002,139.90710813
      name:
      - 若松基幹集落センター
    北檜山区豊岡200番地:
      latlng: 42.41775477,139.86835471
      name:
      - せたな町立北檜山小学校校舎
      - せたな町立北檜山小学校体育館
      - せたな町立北檜山小学校グラウンド
    北檜山区豊岡212番地2:
      latlng: 42.41804383,139.87334885
      name:
      - せたな町町民体育館
    北檜山区豊岡233番地1:
      latlng: 42.42134637,139.87548467
      name:
      - せたな町立北檜山中学校校舎
      - せたな町立北檜山中学校体育館
      - せたな町立北檜山中学校グラウンド
    大成区平浜378番地:
      latlng: ''
      name:
      - (道の駅)「てっくいランド大成」
    大成区平浜385番地:
      latlng: 42.21386821,139.87483017
      name:
      - せたな町立平田内小学校校舎
      - せたな町立平田内小学校体育館
      - せたな町立平田内小学校グラウンド
    大成区都219番地:
      latlng: 42.22580729,139.82353060
      name:
      - せたな町立久遠小学校グラウンド
    大成区都366番地:
      latlng: 42.22932353,139.81800028
      name:
      - せたな町立大成中学校校舎
      - せたな町立大成中学校体育館
      - せたな町立大成中学校グラウンド
    大成区都387:
      latlng: 42.22794869,139.81960301
      name:
      - 大成町民センター
    大成区都425:
      latlng: 42.22729600,139.82141679
      name:
      - 大成農漁村総合センター
    大成区長磯456番地:
      latlng: 42.13951345,139.92148979
      name:
      - せたな町立長磯小学校校舎
      - せたな町立長磯小学校体育館
      - せたな町立長磯小学校グラウンド
    瀬棚区共和404番地1:
      latlng: 42.45034590,139.85628685
      name:
      - せたな町立瀬棚中学校校舎
      - せたな町立瀬棚中学校体育館
      - せたな町立瀬棚中学校グラウンド
    瀬棚区共和590-4:
      latlng: 42.45172385,139.86291412
      name:
      - 瀬棚ふれあいセンター
    瀬棚区島歌193番地:
      latlng: 42.51744294,139.84715179
      name:
      - せたな町立島歌小学校校舎
      - せたな町立島歌小学校体育館
      - せたな町立島歌小学校グラウンド
    瀬棚区本町513番地1:
      latlng: 42.45394271,139.85320073
      name:
      - せたな町立瀬棚小学校校舎
      - せたな町立瀬棚小学校体育館
      - せたな町立瀬棚小学校グラウンド
    瀬棚区本町559番地:
      latlng: 42.45503448,139.85731149
      name:
      - せたな町B&G海洋センター体育館
    瀬棚区本町638:
      latlng: 42.45270676,139.85467015
      name:
      - 瀬棚町民センター
    瀬棚区瀬棚港:
      latlng: ''
      name:
      - 瀬棚漁火公園
    瀬棚区西大里310番地4:
      latlng: 42.48169143,139.87337581
      name:
      - せたな町立馬場川小学校屋内体育館
      - せたな町立馬場川小学校グラウンド
  むかわ町:
    二宮315番地2:
      latlng: 42.60964653,141.94200820
      name:
      - 生涯学習センター
    宮戸128番地1:
      latlng: 42.57351534,141.95288695
      name:
      - 宮戸集会所
    宮戸280番地2:
      latlng: 42.57428762,141.95941688
      name:
      - むかわ町立宮戸小学校校舎
      - むかわ町立宮戸小学校屋内体育館
      - むかわ町立宮戸小学校グラウンド
    宮戸715番地2:
      latlng: 42.57478793,141.97277121
      name:
      - 川東第1集落センター
    文京3丁目4番地:
      latlng: 42.57693896,141.91867882
      name:
      - 鵡川町民体育館
    文京4丁目2番地:
      latlng: 42.57726105,141.91588741
      name:
      - むかわ町立鵡川中学校校舎・屋内体育館
      - むかわ町立鵡川中学校グラウンド
    旭岡58番地3:
      latlng: 42.60700145,142.07731687
      name:
      - 旭岡生活館
    春日165番地5:
      latlng: 42.59119213,141.99699588
      name:
      - 萠別生活館
    春日190番地2:
      latlng: 42.58347093,141.99819626
      name:
      - 春日生活館
    有明38番地1:
      latlng: 42.61356781,142.09103771
      name:
      - 有明集会所
    末広2丁目38番地6:
      latlng: 42.57827787,141.92483093
      name:
      - ム・ペツ館
    松風3丁目31番地:
      latlng: 42.57317037,141.93050288
      name:
      - ふれあい町民会館
    汐見416番地2:
      latlng: 42.56690775,141.94893488
      name:
      - 汐見生活館
    汐見752番地先:
      latlng: ''
      name:
      - 漁村センター
    生田255番地:
      latlng: 42.59703016,142.07059287
      name:
      - (旧)生田小学校グラウンド
    生田441番地3:
      latlng: 42.59472999,142.05822720
      name:
      - 川東第2集落センター
    田浦199番地11:
      latlng: 42.59776655,141.90936185
      name:
      - 川西第1集落センター
    福住2丁目180番地:
      latlng: 42.57905835,141.92566136
      name:
      - 婦人研修センター
    福住4丁目2番地1:
      latlng: 42.58361314,141.91983667
      name:
      - 北海道鵡川高等学校校舎
      - 北海道鵡川高等学校屋内体育館
      - 北海道鵡川高等学校グラウンド
    穂別104:
      latlng: 42.76781604,142.14242758
      name:
      - むかわ町立穂別中学校屋内体育館
      - むかわ町立穂別中学校グラウンド
    穂別115:
      latlng: 42.76756603,142.14138327
      name:
      - むかわ町立穂別小学校屋内体育館
      - むかわ町立穂別小学校グラウンド
    穂別127番地3:
      latlng: 42.77095164,142.13988326
      name:
      - 北海道穂別高等学校校舎
      - 北海道穂別高等学校屋内体育館
      - 北海道穂別高等学校グラウンド
    穂別2:
      latlng: 42.76130266,142.13370115
      name:
      - むかわ町穂別町民センター
    穂別449-4:
      latlng: 42.75284841,142.13744558
      name:
      - むかわ町穂別スポーツセンター
    穂別80:
      latlng: 42.76699100,142.13874750
      name:
      - さくら保育園
    穂別仁和199-4:
      latlng: 42.64806319,142.07915623
      name:
      - 仁和下生活館
    穂別仁和334:
      latlng: ''
      name:
      - むかわ町立仁和小学校屋内体育館
      - むかわ町立仁和小学校グラウンド
      - むかわ町立仁和中学校屋内体育館
      - むかわ町立仁和中学校グラウンド
    穂別仁和339-1:
      latlng: ''
      name:
      - 仁和会館
    穂別仁和347-19:
      latlng: ''
      name:
      - 栄和荘
    穂別和泉109:
      latlng: 42.71000027,142.12799048
      name:
      - (旧)和泉小学校グラウンド
    穂別和泉226-16:
      latlng: 42.72758746,142.13185853
      name:
      - 和泉上生活館
    穂別和泉76-1:
      latlng: ''
      name:
      - 中央生活館
    穂別安住72-2:
      latlng: 42.78387583,142.23337907
      name:
      - 安住生活館
    穂別富内84-1地先:
      latlng: ''
      name:
      - 富内生活館
    穂別富内91-3:
      latlng: 42.78861094,142.22259644
      name:
      - むかわ町立富内小学校屋内体育館
      - むかわ町立富内小学校グラウンド
    穂別富内95-15:
      latlng: ''
      name:
      - 富久寿荘
    穂別栄71-7:
      latlng: ''
      name:
      - 栄生活館
    穂別稲里224-1:
      latlng: ''
      name:
      - (旧)稲里小学校グラウンド
    穂別豊田294-13:
      latlng: 42.71317726,142.11508858
      name:
      - 豊田生活館
    美幸3丁目3番地1:
      latlng: 42.57397289,141.92547832
      name:
      - (道の駅)「むかわ四季の館」
    花園1丁目14番地:
      latlng: 42.57755032,141.92925277
      name:
      - むかわ町立鵡川中央小学校校舎
      - むかわ町立鵡川中央小学校屋内体育館
      - むかわ町立鵡川中央小学校グラウンド
    花園2丁目3番地:
      latlng: 42.57638944,141.93199701
      name:
      - 寿の家
    花岡310番地:
      latlng: 42.57488644,142.01692311
      name:
      - たんぽぽ保育所
    豊城311番地36:
      latlng: 42.59845650,141.95101913
      name:
      - 川西第2集落センター
    駒場127番地:
      latlng: ''
      name:
      - 若草町民会館
  ニセコ町:
    字元町77番地10:
      latlng: 42.79949169,140.70239453
      name:
      - (道の駅)「ニセコビュープラザ」
    字富士見123番地10:
      latlng: ''
      name:
      - ニセコ町農村公園
    字富士見12番地:
      latlng: 42.80628772,140.68940355
      name:
      - ニセコ町立ニセコ小学校校舎
      - ニセコ町立ニセコ小学校体育館
      - ニセコ町立ニセコ小学校グラウンド
    字富士見141番地9:
      latlng: 42.80490752,140.69528099
      name:
      - 北海道ニセコ高等学校校舎
      - 北海道ニセコ高等学校体育館
    字富士見143番地:
      latlng: 42.80402152,140.69558379
      name:
      - ニセコ町立ニセコ中学校校舎
      - ニセコ町立ニセコ中学校体育館
    字富士見168番地4:
      latlng: ''
      name:
      - ニセコ町運動公園
    字富士見95番地:
      latlng: 42.80469903,140.68991193
      name:
      - ニセコ町総合体育館
    字近藤266番地:
      latlng: ''
      name:
      - ニセコ町立近藤小学校校舎
      - ニセコ町立近藤小学校体育館
      - ニセコ町立近藤小学校グラウンド
  七飯町:
    大中山2丁目1-5:
      latlng: 41.86510697,140.71708182
      name:
      - 旧大中山公民館
    大中山2丁目1番5号:
      latlng: 41.86510697,140.71708182
      name:
      - 七飯町立大中山小学校校舎
      - 七飯町立大中山小学校屋内体育館
      - 七飯町立大中山小学校グラウンド
      - 七飯町立大中山中学校グラウンド
    大中山3丁目275番地2:
      latlng: 41.87012584,140.71812039
      name:
      - 大中山コモン
    大中山3丁目291番地1:
      latlng: 41.86835107,140.71832603
      name:
      - 七飯町立大中山中学校校舎
      - 七飯町立大中山中学校屋内体育館
    大川1丁目2-17:
      latlng: 41.85400013,140.71984618
      name:
      - 七飯大川コミュニティセンター
    大川2丁目18-12:
      latlng: 41.85307009,140.72767077
      name:
      - 松の木会館
    大川4丁目10-1:
      latlng: 41.85911074,140.72220411
      name:
      - 大川美園振興会館
    大川9丁目25-11:
      latlng: 41.86011932,140.72914812
      name:
      - 東大川振興会館
    字上藤城5番地1:
      latlng: 41.90907604,140.68161979
      name:
      - 上藤城会館
    字上軍川180番地2:
      latlng: 41.98351696,140.68989460
      name:
      - 七飯町立大沼中学校屋内体育館
      - 七飯町立大沼中学校グラウンド
    字上軍川808:
      latlng: 41.97664573,140.71590125
      name:
      - 軍川振興会館
    字上軍川808番地1:
      latlng: 41.97664573,140.71590125
      name:
      - 七飯町立軍川小学校校舎
      - 七飯町立軍川小学校屋内体育館
      - 七飯町立軍川小学校グラウンド
    字中島197:
      latlng: 41.86419550,140.70649072
      name:
      - 中島会館
    字大沼町212-2:
      latlng: 41.98124169,140.67166844
      name:
      - 南北海道大沼婦人会館
    字大沼町429番地2:
      latlng: 41.97721993,140.67619615
      name:
      - 七飯町立大沼小学校屋内体育館
      - 七飯町立大沼小学校グラウンド
    字大沼町502-1:
      latlng: 41.97350066,140.67211895
      name:
      - 大沼多目的会館
    字大沼町699:
      latlng: 41.97110095,140.67588272
      name:
      - 大沼公民館
    字大沼町914:
      latlng: 41.97340389,140.69059248
      name:
      - 吉野山会館
    字峠下159-2:
      latlng: 41.92667567,140.64915134
      name:
      - 峠下公民館
    字峠下420番地1:
      latlng: 41.92930622,140.65397599
      name:
      - 七飯町立峠下小学校屋内体育館
      - 七飯町立峠下小学校グラウンド
    字東大沼19-8:
      latlng: ''
      name:
      - 東大沼駅前会館
    字東大沼401:
      latlng: 41.99977746,140.72921219
      name:
      - 東大沼地区生活館
    字東大沼403番地:
      latlng: 42.00004412,140.72997599
      name:
      - 七飯町立東大沼小学校屋内体育館
      - 七飯町立東大沼小学校グラウンド
    字桜町101-1:
      latlng: ''
      name:
      - 桜町振興会館
    字緑町92-4:
      latlng: ''
      name:
      - 緑町会館
    字藤城268番地:
      latlng: 41.91813872,140.67449793
      name:
      - 七飯町立藤城小学校校舎
      - 七飯町立藤城小学校屋内体育館
      - 七飯町立藤城小学校グラウンド
    字藤城9-2:
      latlng: 41.91718882,140.67387029
      name:
      - 藤城公民館
    字西大沼町340-2:
      latlng: 41.99415860,140.63578436
      name:
      - 西大沼会館
    字豊田171-1:
      latlng: ''
      name:
      - 豊田会館
    字軍川66:
      latlng: 41.98935279,140.70192645
      name:
      - 池田園駅前会館
    字鶴野229番地2:
      latlng: 41.88104014,140.68097001
      name:
      - 七飯町立鶴野小学校屋内体育館
      - 七飯町立鶴野小学校グラウンド
    字鶴野248-3:
      latlng: ''
      name:
      - 鶴野会館
    本町3丁目17-62:
      latlng: 41.88978672,140.69025227
      name:
      - 本町振興会館
    本町4丁目8-1:
      latlng: 41.89746367,140.69012999
      name:
      - 七飯町社会福祉センター
    本町5丁目17-19:
      latlng: 41.89292268,140.69664317
      name:
      - 見晴地区振興会館
    本町5丁目6-1:
      latlng: 41.89446693,140.69576269
      name:
      - 七飯町スポーツセンター
    本町6丁目1-2:
      latlng: 41.89693884,140.69435171
      name:
      - 七飯町文化センター
    本町6丁目2-11:
      latlng: 41.89716932,140.69248804
      name:
      - 七飯町立七重小学校校舎
      - 七飯町立七重小学校屋内体育館
      - 七飯町立七重小学校グラウンド
    本町6丁目9-1:
      latlng: 41.90004407,140.69528212
      name:
      - 七飯町立七飯中学校校舎
      - 七飯町立七飯中学校屋内体育館
      - 七飯町立七飯中学校グラウンド
    鳴川3丁目12-1:
      latlng: 41.88627058,140.69575729
      name:
      - 鳴川振興会館
    鳴川5丁目13番1号:
      latlng: 41.89210899,140.69975952
      name:
      - 北海道七飯高等学校校舎
      - 北海道七飯高等学校屋内体育館
      - 北海道七飯高等学校グラウンド
    鳴川5丁目21番1号:
      latlng: 41.89157301,140.70177877
      name:
      - 北海道七飯養護学校校舎
      - 北海道七飯養護学校屋内体育館
      - 北海道七飯養護学校グラウンド
  三笠市:
    唐松青山町140番地:
      latlng: 43.25059980,141.91149880
      name:
      - 三笠市立新幌内小学校グラウンド
    岡山1056番地1:
      latlng: ''
      name:
      - (道の駅)「三笠」
    岡山60番地:
      latlng: 43.23444660,141.82074043
      name:
      - 三笠市立岡山小学校校舎
      - 三笠市立岡山小学校屋内体育館
      - 三笠市立岡山小学校グラウンド
    弥生並木町45番地:
      latlng: 43.26042231,141.94350038
      name:
      - 三笠市立幾春別小学校グラウンド
    本郷町484番地:
      latlng: 43.24736303,141.86362542
      name:
      - 三笠市立三笠中学校校舎
      - 三笠市立三笠中学校屋内体育館
      - 三笠市立三笠中学校グラウンド
    本郷町485番地:
      latlng: 43.24529655,141.86016193
      name:
      - 三笠市立三笠小学校校舎
      - 三笠市立三笠小学校屋内体育館
      - 三笠市立三笠小学校グラウンド
    清住町97番地:
      latlng: 43.25515608,141.89904091
      name:
      - 三笠市立三笠中央中学校グラウンド
    美園町62番地:
      latlng: 43.25513984,141.89292753
      name:
      - 三笠市立美園小学校グラウンド
    若草町282番地:
      latlng: ''
      name:
      - 三笠市武道館
    若草町397番地:
      latlng: 43.24821306,141.88544850
      name:
      - 北海道三笠高等学校校舎
      - 北海道三笠高等学校屋内体育館
      - 北海道三笠高等学校グラウンド
    萱野192番地:
      latlng: 43.22547768,141.82617914
      name:
      - 三笠市立萱野中学校校舎
      - 三笠市立萱野中学校屋内体育館
      - 三笠市立萱野中学校グラウンド
  上ノ国町:
    上ノ国274-7:
      latlng: ''
      name:
      - 上ノ国町高齢者能力活用センター
    中須田375-2外:
      latlng: ''
      name:
      - 上ノ国町女性活動支援センター
    北村134-1:
      latlng: ''
      name:
      - 北村コミュニティセンター
    原歌72:
      latlng: ''
      name:
      - 原歌生活改善センター
    向浜208:
      latlng: ''
      name:
      - 向浜生活改善センター
    大崎186-1:
      latlng: ''
      name:
      - 大崎生活改善センター
    大留228-7:
      latlng: ''
      name:
      - 大留生活改善センター
    大留91:
      latlng: ''
      name:
      - 上ノ国町林業センター
    字原歌3:
      latlng: ''
      name:
      - (道の駅)「上ノ国もんじゅ」
    字大留351番地:
      latlng: ''
      name:
      - 北海道上ノ国高等学校校舎
      - 北海道上ノ国高等学校屋内体育館
      - 北海道上ノ国高等学校グラウンド
    宮越155-4:
      latlng: ''
      name:
      - 宮越地区農業担い手センター
    小森246-4:
      latlng: ''
      name:
      - 小森生活改善センター
    小砂子163番地の2:
      latlng: ''
      name:
      - 上ノ国町立小砂子小学校校舎
      - 上ノ国町立小砂子小学校体育館
      - 上ノ国町立小砂子小学校グラウンド
    小砂子80:
      latlng: ''
      name:
      - 小砂子へき地保健福祉館
    扇石84:
      latlng: ''
      name:
      - 扇石地区多目的集会施設
    新村375:
      latlng: ''
      name:
      - ハンノキ地区コミュニティ施設
    早瀬71ー1:
      latlng: ''
      name:
      - 早瀬生活改善センター
    木ノ子14ー2:
      latlng: ''
      name:
      - 木ノ子児童館
    桂岡149-4:
      latlng: ''
      name:
      - 桂岡生活改善センター
    汐吹184-1:
      latlng: ''
      name:
      - 汐吹生活館
    湯ノ岱160:
      latlng: ''
      name:
      - 湯ノ岱生活改善センター
    湯ノ岱355-2:
      latlng: ''
      name:
      - 神明地区集会施設
    石崎331番地の1:
      latlng: ''
      name:
      - 上ノ国町立早川小学校校舎
      - 上ノ国町立早川小学校体育館
      - 上ノ国町立早川小学校グラウンド
    豊田126-4:
      latlng: ''
      name:
      - 豊田生活改善センター
  上士幌町:
    字ぬかびら源泉郷北区44番地3:
      latlng: ''
      name:
      - 糠平温泉文化ホール
    字ぬかびら源泉郷北区72:
      latlng: ''
      name:
      - 上士幌町立糠平小学校グラウンド
    字上士幌東1-233:
      latlng: ''
      name:
      - 上士幌町立上士幌小学校校舎
      - 上士幌町立上士幌小学校屋内体育館
      - 上士幌町立上士幌小学校グラウンド
    字上士幌東1線227番地:
      latlng: 43.22545883,143.27913261
      name:
      - 北海道上士幌高等学校校舎
      - 北海道上士幌高等学校屋内体育館
      - 北海道上士幌高等学校グラウンド
    字上士幌東4-243:
      latlng: ''
      name:
      - 上士幌町立上士幌中学校校舎
      - 上士幌町立上士幌中学校屋内体育館
      - 上士幌町立上士幌中学校グラウンド
    字上音更東1-274:
      latlng: ''
      name:
      - 上士幌町立上音更小学校グラウンド
    字上音更東1線274番地:
      latlng: 43.24605882,143.24905027
      name:
      - 上音更コミュニティーセンター
    字居辺東15-229:
      latlng: ''
      name:
      - 上士幌町立東居辺小学校グラウンド
    字居辺東15-291:
      latlng: ''
      name:
      - 上士幌町立北門小学校校舎
      - 上士幌町立北門小学校屋内体育館
      - 上士幌町立北門小学校グラウンド
    字居辺東15線229番地:
      latlng: 43.21652736,143.37224738
      name:
      - 東居辺コニュニティーセンター
    字居辺東6-300:
      latlng: ''
      name:
      - 上士幌町立萩ヶ岡小学校校舎
      - 上士幌町立萩ヶ岡小学校屋内体育館
      - 上士幌町立萩ヶ岡小学校グラウンド
    字居辺東9-235:
      latlng: ''
      name:
      - 上士幌町立北居辺小学校校舎
      - 上士幌町立北居辺小学校屋内体育館
      - 上士幌町立北居辺小学校グラウンド
  上富良野町:
    丘町1丁目1番:
      latlng: 43.44978958,142.47612481
      name:
      - 富原運動公園
    中町1丁目1番8号:
      latlng: 43.46213256,142.46880527
      name:
      - セントラルプラザ
    中町3丁目4番43号:
      latlng: 43.46301285,142.46439444
      name:
      - 大雄寺
    十人牧場:
      latlng: 43.45625307,142.56878006
      name:
      - 旭野公民館
    十勝岳:
      latlng: ''
      name:
      - 吹上温泉保養センター
      - 国民宿舎カミホロ荘
      - 十勝岳温泉凌雲閣
    大町2丁目2番11号:
      latlng: 43.45564979,142.46701406
      name:
      - 上富良野役場
    大町2丁目8番4号:
      latlng: 43.45505823,142.46836121
      name:
      - 上富良野町保健福祉総合センター
    大町3丁目2番22号:
      latlng: 43.45387770,142.46578091
      name:
      - 子どもセンター
    宮町1丁目3番13号:
      latlng: 43.45791917,142.47113031
      name:
      - 上富良野町立上富良野小学校校舎
      - 上富良野町立上富良野小学校屋内体育館
      - 上富良野町立上富良野小学校グラウンド
    富町1丁目3番25号:
      latlng: 43.45875221,142.46588899
      name:
      - 上富良野町公民館
    富町1丁目4番:
      latlng: 43.45792436,142.46182822
      name:
      - 島津公園
    富町1丁目4番90号:
      latlng: 43.45912159,142.46500015
      name:
      - 中央保育所
    扇町3丁目:
      latlng: 43.47176974,142.46210639
      name:
      - 上富良野町立上富良野西小学校校舎
      - 上富良野町立上富良野西小学校屋内体育館
      - 上富良野町立上富良野西小学校グラウンド
    旭町1丁目1番5号:
      latlng: 43.45621669,142.47498290
      name:
      - 上富良野町立上富良野中学校校舎
      - 上富良野町立上富良野中学校屋内体育館
      - 上富良野町立上富良野中学校グラウンド
    旭町3丁目5番43号:
      latlng: 43.45808605,142.47747985
      name:
      - わかば愛育園
    本町2丁目3番5号:
      latlng: 43.45982730,142.47048304
      name:
      - 聞信寺
    本町3丁目:
      latlng: 43.46220210,142.47099092
      name:
      - 町民コミュニティ広場
    本町6丁目:
      latlng: 43.46745665,142.47194088
      name:
      - 日東会館
    東1線北27号:
      latlng: 43.46556872,142.47839606
      name:
      - 日の出公園
    東3線北23号:
      latlng: 43.44210154,142.47822227
      name:
      - 富原公民館
    東8線北18号:
      latlng: 43.40753015,142.48359863
      name:
      - 上富良野町立上富良野東中中学校校舎
      - 上富良野町立上富良野東中中学校屋内体育館
      - 上富良野町立上富良野東中中学校グラウンド
      - 上富良野東中小学校校舎
      - 上富良野町立上富良野東中小学校屋内体育館
      - 上富良野町立上富良野東中小学校グラウンド
      - 東中公民館
    東町3丁目1番3号:
      latlng: 43.45661967,142.48183239
      name:
      - 北海道上富良野高等学校校舎
      - 北海道上富良野高等学校屋内体育館
      - 北海道上富良野高等学校グラウンド
    東町5丁目1番3号:
      latlng: ''
      name:
      - 東明会館
    松井牧場:
      latlng: 43.48663697,142.56690201
      name:
      - 清富公民館
    栄町2丁目2番45号:
      latlng: 43.46408505,142.46613870
      name:
      - ふらの農業協同組合上富良野支所
    栄町3丁目2番27号:
      latlng: 43.46456826,142.46433048
      name:
      - 専誠寺
    栄町3丁目2番30号:
      latlng: 43.46424885,142.46452770
      name:
      - 上富良野町高田幼稚園
    泉町1丁目5番1号:
      latlng: 43.46651805,142.46375542
      name:
      - 泉栄防災センター
    緑町1丁目:
      latlng: 43.45344308,142.47488138
      name:
      - 社会教育総合センター
    西11線北36号:
      latlng: 43.53388256,142.44346490
      name:
      - 里仁公民館
    西1線北24号:
      latlng: 43.45936835,142.45478423
      name:
      - 特別養護老人ホーム ラベンダーハイツ
    西2線北25号:
      latlng: 43.46495936,142.45236746
      name:
      - 葬斎場
    西2線北29号:
      latlng: 43.48226958,142.46765984
      name:
      - 草分1会館
    西3線北28号:
      latlng: 43.48161927,142.45927998
      name:
      - 草分防災センター
    西5線北23号:
      latlng: 43.45773433,142.43010833
      name:
      - 江花公民館
    西6線北31号:
      latlng: 43.50225893,142.45641531
      name:
      - 深山食堂
    西9線北29号:
      latlng: 43.49994111,142.42943401
      name:
      - 江幌公民館
    西町1丁目1番1号:
      latlng: 43.46160452,142.46120309
      name:
      - 明憲寺
  上川町:
    中央町:
      latlng: 43.84942220,142.76655667
      name:
      - 駅前広場
    共進202-25:
      latlng: ''
      name:
      - みずほ公園
    北町114番:
      latlng: 43.85175148,142.77342194
      name:
      - 上川町立上川中学校校舎
      - 上川町立上川中学校屋内体育館
      - 上川町立上川中学校グラウンド
    北町114番2:
      latlng: ''
      name:
      - かみんぐホール
    南町109-2:
      latlng: ''
      name:
      - 南町公園
    字層雲峡未定番地:
      latlng: ''
      name:
      - 上川町立層雲峡小学校校舎
      - 上川町立層雲峡小学校屋内体育館
      - 上川町立層雲峡小学校グラウンド
    字日東:
      latlng: 43.83943352,142.83543660
      name:
      - 日東第2会館
    字清川:
      latlng: 43.79722241,142.89777761
      name:
      - 生活改善センター
      - 青少年旅行村
    字菊水:
      latlng: 43.80887901,142.78440677
      name:
      - 菊水第一会館
    字越路:
      latlng: 43.88809944,142.75284159
      name:
      - 越路老人クラブ寿の家
    新光町46-23:
      latlng: ''
      name:
      - つつじ公園
    新町139:
      latlng: ''
      name:
      - 上川町立上川小学校校舎
      - 上川町立上川小学校屋内体育館
      - 上川町立上川小学校グラウンド
    新町278:
      latlng: ''
      name:
      - 新町公園
    旭町2-5:
      latlng: ''
      name:
      - 旭町公園
    本町:
      latlng: 43.84652467,142.77376722
      name:
      - 上川町福祉会館
    東町148番地:
      latlng: 43.84782714,142.77812184
      name:
      - 北海道上川高等学校校舎
      - 北海道上川高等学校屋内体育館
      - 北海道上川高等学校グラウンド
    東町27:
      latlng: ''
      name:
      - 山の下公園
    東町271-40:
      latlng: ''
      name:
      - 東町公園
    栄町:
      latlng: 43.84794608,142.75801827
      name:
      - 上川町営球場
    栄町70-35:
      latlng: ''
      name:
      - 栄町公園
    花園町164:
      latlng: ''
      name:
      - 花園公園
    花園町3:
      latlng: 43.85454822,142.76683060
      name:
      - 上川町総合体育館
    西町21-2:
      latlng: 43.85343712,142.76184490
      name:
      - 西町公園
  上砂川町:
    字338番地1:
      latlng: ''
      name:
      - 中央ふれあいセンター
    字上砂川22番地16:
      latlng: ''
      name:
      - 上砂川町デイサービスセンター
    字上砂川3番地21:
      latlng: ''
      name:
      - 朝駒集会所
    字上砂川町127番地7:
      latlng: ''
      name:
      - 上砂川勤労者体育センター
    字上砂川町92番地8:
      latlng: ''
      name:
      - 上砂川町民センター
    字鶉240番地:
      latlng: ''
      name:
      - 鶉本町生活館
    字鶉265番地:
      latlng: ''
      name:
      - 鶉若葉生活館
    字鶉266番地1:
      latlng: ''
      name:
      - 双葉保育園
    字鶉267番地1:
      latlng: ''
      name:
      - 上砂川町立上砂川中学校校舎
      - 上砂川町立上砂川中学校屋内体育館
      - 上砂川町立上砂川中学校グラウンド
    字鶉308番地:
      latlng: ''
      name:
      - 上砂川町立中央小学校校舎
      - 上砂川町立中央小学校屋内体育館
      - 上砂川町立中央小学校グラウンド
    字鶉74番地:
      latlng: ''
      name:
      - 下鶉生活館
    字鶉90番地4:
      latlng: ''
      name:
      - 緑が丘集会所
  下川町:
    一の橋603番地2:
      latlng: ''
      name:
      - 一の橋コミュニティセンター
    一の橋766番地:
      latlng: ''
      name:
      - 幸成会館
    上名寄1181番地:
      latlng: 44.31174691,142.57868169
      name:
      - 下川町農業活性化センター「おうる」
    上名寄2048番地:
      latlng: ''
      name:
      - 上名寄第一会館
    上名寄2858番地:
      latlng: ''
      name:
      - 上名寄川向会館
    上名寄596番地:
      latlng: 44.30957520,142.58592558
      name:
      - 上名寄生活改善センター
    二の橋630番地:
      latlng: ''
      name:
      - 二の橋会館
    共栄町6番地:
      latlng: 44.30089174,142.63813537
      name:
      - バスターミナル合同センター
    北町137番地1:
      latlng: ''
      name:
      - 北海道下川商業高等学校校舎
      - 北海道下川商業高等学校屋内体育館
      - 北海道下川商業高等学校グラウンド
    北町230番地1:
      latlng: ''
      name:
      - 北町会館
    南町178番地:
      latlng: ''
      name:
      - 新町会館
    南町351番地1:
      latlng: ''
      name:
      - スポーツセンター
    南町417番地:
      latlng: 44.29704199,142.63573297
      name:
      - 下川町立下川中学校校舎
      - 下川町立下川中学校屋内体育館
      - 下川町立下川中学校グラウンド
    南町439番地1:
      latlng: ''
      name:
      - 末広会館
    幸町95番地:
      latlng: 44.30319974,142.63496603
      name:
      - 町民会館
      - 公民館
    渓和452番地:
      latlng: ''
      name:
      - 渓和生活改善センター
    班渓1137番地:
      latlng: ''
      name:
      - 南部会館
    班渓980番地:
      latlng: ''
      name:
      - 桑の沢会館
    緑町17番地1:
      latlng: ''
      name:
      - 緑町、三和会館
    西町1026番地2:
      latlng: ''
      name:
      - 桜ケ丘アリーナ
    西町40番地:
      latlng: 44.30282187,142.63131912
      name:
      - 下川町立下川小学校校舎
      - 下川町立下川小学校屋内体育館
      - 下川町立下川小学校グラウンド
    西町429番地:
      latlng: ''
      name:
      - りんどう会館
  中富良野町:
    丘町7番18号:
      latlng: 43.39762063,142.41099345
      name:
      - 富良野土地改良区
    北町8番8号:
      latlng: 43.40910338,142.42744118
      name:
      - 中富良野町立中富良野小学校校舎
      - 中富良野町立中富良野小学校講堂
      - 中富良野町立中富良野小学校グラウンド
    南町10番11号:
      latlng: 43.40520089,142.42468887
      name:
      - 中富良野町農村環境改善センター
    南町10番5号:
      latlng: 43.40525641,142.42393336
      name:
      - 中富良野町老人福祉センター
    南町4番31号:
      latlng: 43.40516192,142.42201684
      name:
      - ふらの農業協同組合中富良野支所
    南町9番19号:
      latlng: 43.40411762,142.42368346
      name:
      - 中富良野町立中富良野中学校校舎
      - 中富良野町立中富良野中学校講堂
      - 中富良野町立中富良野中学校グラウンド
    字中富良野ベベルイ:
      latlng: 43.37809296,142.51339180
      name:
      - 中富良野町立本幸小学校校舎
      - 中富良野町立本幸小学校講堂
      - 中富良野町立本幸小学校グラウンド
      - 本幸地区集会施設
    字中富良野奈江:
      latlng: 43.43739817,142.37806493
      name:
      - 奈江地区集会施設
    字中富良野新田中農場:
      latlng: 43.44166326,142.41143931
      name:
      - 新田中地区集会施設
    字中富良野東1線北18号:
      latlng: 43.42679103,142.44698341
      name:
      - 中富良野町立西中小学校校舎
      - 中富良野町立西中小学校講堂
      - 中富良野町立西中小学校グラウンド
      - 西中地区集会施設
    字中富良野東4線北7号:
      latlng: 43.37289844,142.42281401
      name:
      - 中富良野町立宇文小学校校舎
      - 中富良野町立宇文小学校講堂
      - 中富良野町立宇文小学校グラウンド
      - 宇文地区集会施設
    字中富良野東9線北12号:
      latlng: 43.38002708,142.46973186
      name:
      - 中富良野町立旭中小学校校舎
      - 中富良野町立旭中小学校講堂
      - 中富良野町立旭中小学校グラウンド
      - 旭中地区集会施設
    字中富良野鹿討農場:
      latlng: 43.38565532,142.38723785
      name:
      - 中富良野町立南中小学校校舎
      - 中富良野町立南中小学校講堂
      - 中富良野町立南中小学校グラウンド
    宮町1番41号:
      latlng: 43.41015591,142.42253866
      name:
      - 中富良野町北星ハウス
    宮町2番地1:
      latlng: 43.41135026,142.42323854
      name:
      - なかふらのフラワーパーク
    新町6番1号:
      latlng: 43.40214276,142.42232537
      name:
      - 寿コミュニティセンター
    本町10番:
      latlng: 43.40719521,142.42674136
      name:
      - コミュニティ広場
    本町9番1号:
      latlng: 43.40580641,142.42538600
      name:
      - 中富良野町役場駐車場
    本町9番2号:
      latlng: 43.40626747,142.42524709
      name:
      - 中富良野町公民館
    西町2番5号:
      latlng: 43.40624508,142.41979751
      name:
      - 弘南コミュニティハウス
    西町3番地1:
      latlng: 43.40728668,142.42075845
      name:
      - 弘北小公園
    西町4番28号:
      latlng: 43.41055591,142.42372466
      name:
      - こ辰コミュニティハウス
  中川町:
    字中川217番地の2:
      latlng: 44.81892526,142.07406700
      name:
      - 北海道中川商業高等学校校舎
      - 北海道中川商業高等学校屋内体育館
      - 北海道中川商業高等学校グラウンド
    字中川224-22:
      latlng: ''
      name:
      - 中川町立中川中学校校舎
      - 中川町立中川中学校屋内体育館
      - 中川町立中川中学校グラウンド
    字中川336-1:
      latlng: ''
      name:
      - 山村開発センター
    字共和360-6:
      latlng: ''
      name:
      - 共和地区集会センター
    字国府122-9:
      latlng: ''
      name:
      - 国府農作業管理休養施設
    字大富368-8:
      latlng: ''
      name:
      - 大富一農作業管理休養施設
    字安川28-9:
      latlng: 44.74460451,142.03483813
      name:
      - エコミュージアムセンター
    字安川293-6:
      latlng: ''
      name:
      - 安川一集会センター
    字誉498番1:
      latlng: 44.80169097,142.06734692
      name:
      - (道の駅)「なかがわ」
    字誉88-4:
      latlng: ''
      name:
      - 誉二会館
  中札内村:
    上札内133番地:
      latlng: 42.63785424,143.09471641
      name:
      - 中札内公民館
    上札内134番地:
      latlng: 42.63827092,143.09654121
      name:
      - 中札内村立上札内小学校校舎
      - 中札内村立上札内小学校屋内体育館
      - 中札内村立上札内小学校グラウンド
    上札内基線322番地4:
      latlng: 42.63028290,143.09310313
      name:
      - 中札内みのり園
    上札内基線324番地12:
      latlng: ''
      name:
      - 中札内のぞみ園
    中戸蔦東6線:
      latlng: 42.72045940,143.12814278
      name:
      - 中戸蔦会館
    元大正基線:
      latlng: 42.72052444,143.15152086
      name:
      - 元大正会館
    元更別:
      latlng: 42.62563330,143.10367962
      name:
      - 元更別会館
    元札内西1線:
      latlng: 42.64887614,143.10006154
      name:
      - 元札内会館
    共栄東4線:
      latlng: 42.70921450,143.17557304
      name:
      - 共栄会館
    協和東2線:
      latlng: 42.69446847,143.15198307
      name:
      - 協和会館
    南常盤会館:
      latlng: ''
      name:
      - 南常盤会館
    大通南2丁目1番地:
      latlng: 42.69798808,143.13245364
      name:
      - 中札内村農村環境改善センター
    大通南7丁目:
      latlng: 42.69196374,143.12667720
      name:
      - (道の駅)「なかさつない」
    常盤西1線:
      latlng: 42.67364522,143.11572539
      name:
      - 常盤会館
    新札内南東5線:
      latlng: 42.66007690,143.07186667
      name:
      - 新札内南会館
    新札内東5線:
      latlng: 42.67986147,143.08600777
      name:
      - 新札内会館
    新生東1線:
      latlng: 42.71796895,143.15813120
      name:
      - 新生会館
    東1条北8丁目3番地:
      latlng: ''
      name:
      - 体育館分館2
    東1条南2丁目18番地:
      latlng: 42.69764092,143.13295640
      name:
      - 中札内村体育館
    東1条南5丁目24番地:
      latlng: ''
      name:
      - 中札内村立中札内中学校校舎
      - 中札内村立中札内中学校屋内体育館
      - 中札内村立中札内中学校グラウンド
    東2条南1丁目1番地:
      latlng: 42.69766879,143.13521733
      name:
      - 中札内村地域集会所
    東4条南6丁目3番地:
      latlng: ''
      name:
      - 中札内村文化創造センター
    東4条南7丁目2番地:
      latlng: ''
      name:
      - 中札内小学校校舎
      - 中札内小学校屋内体育館
      - 中札内小学校グラウンド
    東5条南1丁目8番地:
      latlng: 42.69436653,143.13860058
      name:
      - 北海道中札内高等養護学校校舎
      - 北海道中札内高等養護学校屋内体育館
      - 北海道中札内高等養護学校グラウンド
    東戸蔦東5線:
      latlng: 42.70468539,143.10615113
      name:
      - 中島農業センター
    栄東2線:
      latlng: 42.67703177,143.14094104
      name:
      - 栄会館
    興和東5線:
      latlng: 42.72089656,143.19099066
      name:
      - 興和会館
    西2条南2丁目3番地:
      latlng: ''
      name:
      - 中札内村老人保健福祉センター
    西戸蔦東3線:
      latlng: 42.71082537,143.09616372
      name:
      - 西戸蔦会館
    西札内:
      latlng: 42.63475392,143.05249508
      name:
      - 西札内会館
  中標津町:
    丸山1丁目6番地:
      latlng: 43.55338912,144.96351130
      name:
      - 中標津武道館
    丸山2丁目:
      latlng: 43.55417086,144.96925769
      name:
      - 丸山公園多目的広場
      - 丸山公園多目的広場
    丸山2丁目1番地:
      latlng: 43.55512782,144.96522775
      name:
      - 中標津町立中標津中学校校舎
      - 中標津町立中標津中学校屋内体育館
      - 中標津町立中標津中学校グラウンド
    丸山2丁目4:
      latlng: 43.55560547,144.96350288
      name:
      - 中標津町立丸山小学校校舎
      - 中標津町立丸山小学校屋内体育館
      - 中標津町立丸山小学校グラウンド
    北中2ー5:
      latlng: ''
      name:
      - 北海道立ゆめの森公園
    字上標津364番地1:
      latlng: ''
      name:
      - 上標津僻地集会所
    字俣落1915番地1:
      latlng: ''
      name:
      - 拓友館
    字俣落405番地1:
      latlng: 43.55580588,144.89258384
      name:
      - 中標津町立俣落小学校屋内体育館
      - 中標津町立俣落小学校グラウンド
    字俵橋938番地:
      latlng: 43.58553169,145.03902603
      name:
      - 中標津町立俵橋小学校屋内体育館
      - 中標津町立俵橋小学校グラウンド
    字協和4831番地:
      latlng: 43.51175101,144.99844881
      name:
      - 協和部落会館
    字武佐15線85番地:
      latlng: 43.62322936,144.96260500
      name:
      - 中標津町立武佐小中学校屋内体育館
      - 中標津町立武佐小中学校グラウンド
    字西竹353番地2:
      latlng: 43.56410283,144.81139028
      name:
      - 中標津町立西竹小学校校舎
      - 中標津町立西竹小学校屋内体育館
      - 中標津町立西竹小学校グラウンド
    字開陽24線北88:
      latlng: 43.59851659,144.91065310
      name:
      - 中標津町立開陽小学校屋内体育館
      - 中標津町立開陽小学校グラウンド
    字養老牛347番地:
      latlng: 43.54542208,144.71862483
      name:
      - 中標津町立養老牛小学校屋内体育館
      - 中標津町立養老牛小学校グラウンド
    東10条南7丁目:
      latlng: 43.54922396,144.98672949
      name:
      - 中標津町立広陵中学校校舎
      - 中標津町立広陵中学校屋内体育館
      - 中標津町立広陵中学校グラウンド
    東13条北7丁目15-2:
      latlng: 43.56051644,144.97972629
      name:
      - 北海道中標津高等養護学校校舎
      - 北海道中標津高等養護学校屋内体育館
      - 北海道中標津高等養護学校グラウンド
    東14条北4丁目:
      latlng: 43.55737171,144.98448125
      name:
      - 東中児童公園
    東14条南11丁目:
      latlng: 43.54887010,144.99376889
      name:
      - 白樺児童公園
    東17条南4丁目:
      latlng: 43.55493922,144.99075581
      name:
      - 東児童公園
    東27条南1丁目:
      latlng: 43.56165576,144.99802491
      name:
      - 睦児童公園
    東29条北7丁目:
      latlng: 43.56864356,144.99232712
      name:
      - まこと児童公園
    東2条南3丁目:
      latlng: 43.54894184,144.97805025
      name:
      - 中標津町総合文化会館
      - しるべっと広場
    東38条北3丁目:
      latlng: 43.56923282,145.00599895
      name:
      - 明生児童公園
    東7条南1丁目:
      latlng: 43.55185731,144.97995106
      name:
      - 東7条緑地
    東7条南7丁目:
      latlng: 43.54800716,144.98450773
      name:
      - 中標津町立中標津東小学校校舎
      - 中標津町立中標津東小学校屋内体育館
      - 中標津町立中標津東小学校グラウンド
    東当幌20番地:
      latlng: 43.51107053,144.90951770
      name:
      - 当幌研修館
    西11条北8丁目:
      latlng: 43.54667932,144.95796505
      name:
      - 泉児童公園
    西2条北5丁目:
      latlng: 43.55010415,144.96733112
      name:
      - 中標津町営野球場(末広公園)
    西3条南2丁目:
      latlng: 43.54528106,144.97200782
      name:
      - 双葉児童公園
    西5条北3丁目:
      latlng: 43.54687867,144.96677430
      name:
      - 西児童館
    西6条南5丁目1番地:
      latlng: ''
      name:
      - 北海道中標津高等学校校舎
      - 北海道中標津高等学校屋内体育館
      - 北海道中標津高等学校グラウンド
    西7条北5丁目:
      latlng: 43.54696855,144.96348047
      name:
      - 皆川児童公園
    西9条北1丁目:
      latlng: 43.54429704,144.96413553
      name:
      - 中標津町立中標津小学校校舎
      - 中標津町立中標津小学校屋内体育館
      - 中標津町立中標津小学校グラウンド
    西9条南9丁目:
      latlng: 43.53793315,144.97219921
      name:
      - 南町児童公園
    計根別南1条東2丁目:
      latlng: 43.48860631,144.81379517
      name:
      - 中標津町交流センター
  中頓別町:
    字182番地4:
      latlng: ''
      name:
      - 中頓別町民体育館
    字中頓別175番地:
      latlng: 44.97027660,142.28479346
      name:
      - 保健センター
    字中頓別182番地:
      latlng: 44.96922142,142.28957369
      name:
      - 中頓別町民センター
    字中頓別182番地4:
      latlng: ''
      name:
      - 中頓別町体育館
    字中頓別305番地:
      latlng: 44.97683721,142.29250093
      name:
      - 中頓別町立中頓別中学校校舎
      - 中頓別町立中頓別中学校屋内体育館
      - 中頓別町立中頓別中学校グラウンド
    字中頓別37番地:
      latlng: 44.97383744,142.28888467
      name:
      - 中頓別町青少年柔剣道場
    字中頓別47番地:
      latlng: 44.97487880,142.28531268
      name:
      - 中頓別ふれあいスポーツ広場
    字中頓別998番地1:
      latlng: ''
      name:
      - 中頓別町立中頓別小学校校舎
      - 中頓別町立中頓別小学校屋内体育館
      - 中頓別町立中頓別小学校グラウンド
    字兵安184番地:
      latlng: 44.91214815,142.31108357
      name:
      - 天北厚生園
    字小頓別205番地:
      latlng: ''
      name:
      - 中頓別町立小頓別小中学校グラウンド
    字小頓別604番地4:
      latlng: ''
      name:
      - 小頓別多目的集会施設
    字敏音知148番地:
      latlng: ''
      name:
      - 敏音知コミュニティーセンター
    字敏音知72番7:
      latlng: 44.87745892,142.21340708
      name:
      - (道の駅)「ピンネシリ」
  乙部町:
    字元町:
      latlng: 41.96804699,140.13145572
      name:
      - 宮の森公園
    字姫川523番地2:
      latlng: ''
      name:
      - 旧乙部町立姫川小学校グラウンド
    字栄浜477番地1:
      latlng: 42.00197881,140.12364902
      name:
      - 乙部町立栄浜小学校校舎
      - 乙部町立栄浜小学校体育館
      - 乙部町立栄浜小学校グラウンド
    字潮見183番地:
      latlng: 42.03916011,140.08855314
      name:
      - 乙部町立明和小学校校舎
      - 乙部町立明和小学校体育館
    字緑町139番地2:
      latlng: 41.96941104,140.14122422
      name:
      - 乙部町立乙部中学校校舎
      - 乙部町立乙部中学校体育館
      - 乙部町立乙部中学校グラウンド
    字緑町641番地1:
      latlng: 41.96830827,140.13741628
      name:
      - 乙部町立乙部小学校校舎
      - 乙部町立乙部小学校体育館
      - 乙部町立乙部小学校グラウンド
  京極町:
    字三崎91番地:
      latlng: 42.85757145,140.88235442
      name:
      - 京極町立京極小学校校舎
      - 京極町立京極小学校体育館
      - 京極町立京極小学校グラウンド
      - 京極町立京極中学校校舎
      - 京極町立京極中学校体育館
      - 京極町立京極中学校グラウンド
    字京極160:
      latlng: 42.86375700,140.88466779
      name:
      - 京極町公民館
    字京極160番地:
      latlng: 42.86375700,140.88466779
      name:
      - 京極町総合体育館
    字川西156番地:
      latlng: 42.83463243,140.88672972
      name:
      - 京極町立南京極小学校校舎
      - 京極町立南京極小学校体育館
      - 京極町立南京極小学校グラウンド
    字川西45番地1:
      latlng: 42.85890714,140.87090219
      name:
      - (道の駅)「名水の郷きょうごく」
  仁木町:
    北町4丁目52番地:
      latlng: 43.15960431,140.76314839
      name:
      - 仁木町立仁木中学校校舎
      - 仁木町立仁木中学校体育館
      - 仁木町立仁木中学校グラウンド
    大江1丁目345番地:
      latlng: 43.09731529,140.71935024
      name:
      - 旧仁木町立大江小学校体育館
      - 旧仁木町立大江小学校グラウンド
    大江2丁目295番地:
      latlng: 43.09382120,140.71849219
      name:
      - 仁木町大江生活改善センター
    東町5丁目4番地:
      latlng: 43.15495517,140.77462545
      name:
      - 北海道仁木商業高等学校校舎
      - 北海道仁木商業高等学校屋内体育館
      - 北海道仁木商業高等学校グラウンド
    西町1丁目36番地1:
      latlng: 43.15167473,140.76616805
      name:
      - 仁木町民センター
      - 仁木町保健センター
    西町1丁目52番地:
      latlng: 43.15233015,140.76421540
      name:
      - 仁木町山村開発センター
    西町1丁目52番地4:
      latlng: ''
      name:
      - 仁木町立仁木小学校校舎
      - 仁木町立仁木小学校体育館
      - 仁木町立仁木小学校グラウンド
    銀山2丁目113番地:
      latlng: 43.04161623,140.72653917
      name:
      - 仁木町立銀山中学校校舎
      - 仁木町立銀山中学校体育館
      - 仁木町立銀山中学校グラウンド
    銀山2丁目446番地:
      latlng: 43.03942780,140.73196386
      name:
      - 仁木町立銀山小学校校舎
      - 仁木町立銀山小学校体育館
      - 仁木町立銀山小学校グラウンド
    銀山2丁目470番地:
      latlng: 43.04248587,140.73224417
      name:
      - 仁木町銀山生活改善センター
  今金町:
    字今金17-2:
      latlng: 42.42973535,140.00746076
      name:
      - 総合福祉施設
    字今金281-13:
      latlng: 42.42631064,140.00354740
      name:
      - 西部百年記念館
    字今金412:
      latlng: 42.42338348,140.01334675
      name:
      - 南栄会館
    字今金435-230:
      latlng: ''
      name:
      - あったかランド
    字今金435-57:
      latlng: 42.42674707,140.01594640
      name:
      - 老人福祉センター
    字今金68:
      latlng: 42.42992154,140.01072716
      name:
      - 今金町民センター
    字住吉270-4:
      latlng: ''
      name:
      - 住吉生活改善センター
    字日進261:
      latlng: 42.31737770,140.00081157
      name:
      - 日進寿の家
    字白石552-2:
      latlng: ''
      name:
      - 白石寿の家
    字神丘820-1:
      latlng: ''
      name:
      - 神丘構造改善センター
    字種川284-2:
      latlng: ''
      name:
      - 種川構造改善センター
    字金原197-7:
      latlng: ''
      name:
      - 金原基幹集落センター
    字鈴岡82-2:
      latlng: ''
      name:
      - 鈴岡会館
  伊達市:
    三階滝町174番地1:
      latlng: ''
      name:
      - 三階滝公園
    中稀府町85:
      latlng: 42.43620791,140.90306275
      name:
      - 伊達市立稀府小学校校舎
      - 伊達市立稀府小学校屋内体育館
      - 伊達市立稀府小学校グラウンド
    伊達市松ヶ枝町105番地13:
      latlng: 42.47113499,140.88916180
      name:
      - 北海道伊達高等養護グラウンド
    優徳町58番地1:
      latlng: ''
      name:
      - 優徳友情公園
    元町78-1:
      latlng: 42.46815443,140.87128398
      name:
      - 伊達市立伊達小学校校舎
      - 伊達市立伊達小学校屋内体育館
      - 伊達市立伊達小学校グラウンド
    北黄金町49-135:
      latlng: 42.42045699,140.91381793
      name:
      - 伊達市立達南中学校校舎
      - 伊達市立達南中学校屋内体育館
      - 伊達市立達南中学校グラウンド
    北黄金町65-1:
      latlng: 42.39671528,140.90835820
      name:
      - 伊達市立黄金小学校校舎
      - 伊達市立黄金小学校屋内体育館
      - 伊達市立黄金小学校グラウンド
    南稀府町180番地4:
      latlng: 42.42873098,140.90937635
      name:
      - 北海道伊達緑丘高等学校校舎
      - 北海道伊達緑丘高等学校屋内体育館
      - 北海道伊達緑丘高等学校グラウンド
    向有珠町161-1:
      latlng: ''
      name:
      - 伊達市B&G海洋センター体育館
    向有珠町195-2:
      latlng: 42.51129184,140.78985744
      name:
      - 伊達市立有珠小学校校舎
      - 伊達市立有珠小学校屋内体育館
      - 伊達市立有珠小学校グラウンド
    大滝区優徳町113番地1:
      latlng: ''
      name:
      - 優徳農村公園コミュニティ施設
    大滝区優徳町90番地1:
      latlng: ''
      name:
      - 伊達市立大滝小学校校舎
      - 伊達市立大滝小学校屋内体育館
      - 伊達市立大滝小学校グラウンド
    大滝区大成町1番地:
      latlng: 42.64711484,141.06226144
      name:
      - 伊達市立大滝中学校校舎
      - 伊達市立大滝中学校屋内体育館
    大滝区本町63番地6:
      latlng: ''
      name:
      - 本町公園
    弄月町207-1:
      latlng: 42.46702431,140.88644873
      name:
      - 伊達市立東小学校校舎
      - 伊達市立東小学校屋内体育館
      - 伊達市立東小学校グラウンド
    末永町8-21:
      latlng: 42.47499198,140.86114485
      name:
      - 伊達市立伊達西小学校校舎
      - 伊達市立伊達西小学校屋内体育館
      - 伊達市立伊達西小学校グラウンド
    東関内町78-1:
      latlng: ''
      name:
      - 伊達市立関内小学校校舎
      - 伊達市立関内小学校屋内体育館
      - 伊達市立関内小学校グラウンド
    松ヶ枝町105番地13:
      latlng: 42.47113499,140.88916180
      name:
      - 北海道伊達高等養護校舎
      - 北海道伊達高等養護屋内体育館
    竹原町44番地:
      latlng: 42.47766162,140.87576548
      name:
      - 北海道伊達高等学校校舎
      - 北海道伊達高等学校屋内体育館
      - 北海道伊達高等学校グラウンド
    舟岡町226-12:
      latlng: 42.46892401,140.88238520
      name:
      - 伊達市立伊達中学校校舎
      - 伊達市立伊達中学校屋内体育館
      - 伊達市立伊達中学校グラウンド
    長和町630-1:
      latlng: 42.49728868,140.84134214
      name:
      - 伊達市立長和小学校校舎
      - 伊達市立長和小学校屋内体育館
      - 伊達市立長和小学校グラウンド
    館山町33:
      latlng: 42.47885530,140.86004721
      name:
      - 伊達市市民研修センター体育館
    館山町49-1:
      latlng: 42.48299377,140.86346589
      name:
      - 伊達市立光陵中学校校舎
      - 伊達市立光陵中学校屋内体育館
      - 伊達市立光陵中学校グラウンド
  佐呂間町:
    字中園:
      latlng: 43.96597946,143.70957209
      name:
      - 中園公民館
    字中園38-1:
      latlng: 43.97884949,143.69537768
      name:
      - 佐呂間町立若佐小学校校舎
      - 佐呂間町立若佐小学校屋内体育館
      - 佐呂間町立若佐小学校グラウンド
    字仁倉:
      latlng: 44.02331359,143.91129213
      name:
      - 仁倉公民館
    字北:
      latlng: 44.03398969,143.77376894
      name:
      - 北公民館
    字北311番地1:
      latlng: 44.02295225,143.76941899
      name:
      - 北海道佐呂間高等学校校舎
      - 北海道佐呂間高等学校屋内体育館
      - 北海道佐呂間高等学校グラウンド
    字啓生:
      latlng: 43.97047470,143.67430759
      name:
      - 啓生公民館
    字富丘:
      latlng: 44.00228963,143.73102905
      name:
      - 朝富公民館
    字富武士:
      latlng: 44.09420919,143.80448867
      name:
      - 富武士公民館
    字富武士54-1:
      latlng: 44.09007635,143.80654424
      name:
      - 漁村環境改善総合センター
    字川西:
      latlng: 43.99842706,143.68901847
      name:
      - 川西公民館
    字幌岩:
      latlng: 44.08458921,143.88490874
      name:
      - 幌岩公民館
    字幸町1-1:
      latlng: 44.02049144,143.77034124
      name:
      - 佐呂間町立佐呂間小学校校舎
      - 佐呂間町立佐呂間小学校屋内体育館
      - 佐呂間町立佐呂間小学校グラウンド
    字幸町65-6:
      latlng: ''
      name:
      - 佐呂間町交通公園
      - 佐呂間町100年多目的広場
    字幸町9-1:
      latlng: 44.01902781,143.77354934
      name:
      - 佐呂間町立佐呂間中学校校舎
      - 佐呂間町立佐呂間中学校屋内体育館
      - 佐呂間町立佐呂間中学校グラウンド
    字東:
      latlng: 44.01380104,143.79302845
      name:
      - 東公民館
    字栃木:
      latlng: 43.91845136,143.71393815
      name:
      - 栃木公民館
    字栄:
      latlng: 43.95773384,143.66233236
      name:
      - 栄公民館
    字栄3-1:
      latlng: ''
      name:
      - 栄地域交流センター
    字武士105-1:
      latlng: ''
      name:
      - 武士公民館
    字永代町166-1:
      latlng: 44.01698092,143.77804070
      name:
      - 佐呂間町町民センター
    字永代町171-3:
      latlng: 44.01569770,143.77724362
      name:
      - 老人福祉センター
    字永代町3:
      latlng: 44.01842790,143.77450484
      name:
      - 佐呂間コミュニティセンター
    字浜佐呂間167:
      latlng: 44.08286681,143.94819165
      name:
      - 佐呂間町立浜佐呂間小学校校舎
      - 佐呂間町立浜佐呂間小学校屋内体育館
      - 佐呂間町立浜佐呂間小学校グラウンド
    字浜佐呂間310:
      latlng: 44.07915325,143.94372551
      name:
      - 浜佐呂間活性化センター
    字浪速121番地3:
      latlng: 44.09991754,143.82414279
      name:
      - (道の駅)「サロマ湖」
    字知来:
      latlng: 44.04177882,143.83984262
      name:
      - 知来公民館
    字若佐185-1:
      latlng: 43.98567423,143.70820138
      name:
      - 若佐コミュニティセンター
    字若里:
      latlng: 44.06501619,143.74438385
      name:
      - 若里漁村センター
    字若里498-4:
      latlng: 44.05595618,143.74951088
      name:
      - 若里活性化センター
    字西富:
      latlng: 43.99979317,143.76225862
      name:
      - 西富公民館
      - 西中央公民館
    字西富1-1:
      latlng: 44.02188564,143.76752755
      name:
      - 佐呂間町武道館温水プール
    字西富230-1:
      latlng: ''
      name:
      - 佐呂間町総合グラウンド
    字西富232:
      latlng: 44.00334567,143.75378253
      name:
      - 佐呂間町体育館
  余市町:
    入舟町420番地:
      latlng: 43.18939912,140.78514189
      name:
      - 余市運動公園
    入舟町420番地1:
      latlng: 43.18939912,140.78514189
      name:
      - 余市町総合体育館
    大川町10丁目1番地:
      latlng: 43.19350769,140.80322644
      name:
      - 余市町立大川小学校校舎
      - 余市町立大川小学校体育館
      - 余市町立大川小学校グラウンド
    大川町16丁目1番地:
      latlng: 43.19312754,140.81327021
      name:
      - 余市町立旭中学校校舎
      - 余市町立旭中学校体育館
      - 余市町立旭中学校グラウンド
    大川町4-143-13:
      latlng: ''
      name:
      - 余市町中央公民館
    富沢町2丁目32番地1:
      latlng: 43.20132178,140.76507870
      name:
      - 余市町円山公園ふれあい交流施設
      - 円山公園
    富沢町5-13:
      latlng: 43.20398301,140.77250303
      name:
      - 余市町福祉センター
    朝日町71番地:
      latlng: 43.19417902,140.78151687
      name:
      - 余市町立東中学校校舎
      - 余市町立東中学校体育館
      - 余市町立東中学校グラウンド
    栄町645番地:
      latlng: 43.18179647,140.84644652
      name:
      - 余市町立栄小学校校舎
      - 余市町立栄小学校体育館
      - 余市町立栄小学校グラウンド
    梅川町339番地:
      latlng: 43.21167093,140.76830017
      name:
      - 余市町立西中学校校舎
      - 余市町立西中学校体育館
      - 余市町立西中学校グラウンド
    梅川町377番地3:
      latlng: 43.21020424,140.76442553
      name:
      - 北海道余市養護学校校舎
      - 北海道余市養護学校屋内体育館
      - 北海道余市養護学校グラウンド
    沢町4丁目22番地:
      latlng: 43.20012504,140.77149777
      name:
      - 余市町立沢町小学校校舎
      - 余市町立沢町小学校体育館
      - 余市町立沢町小学校グラウンド
    沢町6丁目1番地:
      latlng: 43.19516708,140.76787337
      name:
      - 北海道余市紅志高等学校校舎
      - 北海道余市紅志高等学校屋内体育館
      - 北海道余市紅志高等学校グラウンド
    登町1015番地:
      latlng: 43.16678876,140.82198499
      name:
      - 余市町立登小学校校舎
      - 余市町立登小学校体育館
      - 余市町立登小学校グラウンド
    黒川町:
      latlng: 43.17628577,140.80239047
      name:
      - (道の駅)「スペース・アップルよいち」
    黒川町122番地3:
      latlng: 43.18262233,140.79296391
      name:
      - ふじ公園
    黒川町1268番地:
      latlng: ''
      name:
      - 都市公園予定地
    黒川町9丁目147番地:
      latlng: 43.18173624,140.79115299
      name:
      - 余市町立黒川小学校校舎
      - 余市町立黒川小学校体育館
      - 余市町立黒川小学校グラウンド
  倶知安町:
    北3東7:
      latlng: 42.90210207,140.76786403
      name:
      - 東地域会館
    北4東9ー12:
      latlng: ''
      name:
      - 倶知安町立東小学校グラウンド
    北4東9ー8:
      latlng: ''
      name:
      - 倶知安町立東小学校校舎
      - 倶知安町立東小学校体育館
    北5西2ー1-1:
      latlng: ''
      name:
      - 倶知安町立倶知安中学校校舎
      - 倶知安町立倶知安中学校屋内体育館
      - 倶知安町立倶知安中学校グラウンド
    北6東9ー2-2:
      latlng: ''
      name:
      - 倶知安町立東陵中学校校舎
      - 倶知安町立東陵中学校体育館
      - 倶知安町立東陵中学校グラウンド
    北6西2ー1-1:
      latlng: ''
      name:
      - 倶知安町立北陽小学校校舎
      - 倶知安町立北陽小学校体育館
      - 倶知安町立北陽小学校グラウンド
    北7条西2丁目:
      latlng: 42.91037093,140.74999495
      name:
      - 北海道倶知安高等学校校舎
      - 北海道倶知安高等学校屋内体育館
      - 北海道倶知安高等学校グラウンド
    南1東1:
      latlng: 42.89328667,140.75305026
      name:
      - 後志労働福祉センター
    南2西1:
      latlng: 42.89726839,140.75054833
      name:
      - 中小企業センター
    南3東3ー1:
      latlng: 42.90049108,140.76756130
      name:
      - 倶知安町立倶知安小学校校舎
      - 倶知安町立倶知安小学校体育館
      - 倶知安町立倶知安小学校グラウンド
    南3西4ー1-3:
      latlng: 42.90105164,140.74386885
      name:
      - 倶知安町総合体育館
    南6西3ー13:
      latlng: 42.89617947,140.74643474
      name:
      - 倶知安町立西小学校校舎
      - 倶知安町立西小学校体育館
      - 倶知安町立西小学校グラウンド
    字寒別:
      latlng: 42.90112907,140.83858850
      name:
      - 東部地域会館
    字旭:
      latlng: 42.90502365,140.72410279
      name:
      - 雪ん子館
    字旭15番地:
      latlng: 42.89647090,140.73925473
      name:
      - 北海道倶知安農業高等学校校舎
      - 北海道倶知安農業高等学校屋内体育館
      - 北海道倶知安農業高等学校グラウンド
    字樺山:
      latlng: 42.84701151,140.70360864
      name:
      - サンスポーツランドくっちゃん
    字高砂:
      latlng: 42.87893250,140.75272035
      name:
      - 高砂地域センター
    樺山106-2:
      latlng: ''
      name:
      - 倶知安町立西小学校樺山分校グラウンド
  八雲町:
    上八雲296番地の1:
      latlng: 42.28808896,140.15624630
      name:
      - 八雲町立大関小学校校舎
      - 八雲町立大関小学校グラウンド
    住初町140番地の1:
      latlng: ''
      name:
      - 八雲町立八雲小学校校舎
      - 八雲町立八雲小学校屋内体育館
      - 八雲町立八雲小学校グラウンド
    住初町88番地1:
      latlng: ''
      name:
      - 北海道八雲高等学校校舎
      - 北海道八雲高等学校屋内体育館
      - 北海道八雲高等学校グラウンド
    入沢360番地の1:
      latlng: ''
      name:
      - 落部公園
    大新6番地の5:
      latlng: ''
      name:
      - 八雲スポーツ公園
    宮園町128番地:
      latlng: 42.25173205,140.26143433
      name:
      - 北海道八雲養護学校校舎
      - 北海道八雲養護学校屋内体育館
    山崎375番地:
      latlng: 42.31785983,140.27296320
      name:
      - 八雲町立山崎小学校校舎
      - 八雲町立山崎小学校屋内体育館
      - 八雲町立山崎小学校グラウンド
    山越474番地の2:
      latlng: 42.23039962,140.32389815
      name:
      - 八雲町立山越小学校校舎
      - 八雲町立山越小学校屋内体育館
      - 八雲町立山越小学校グラウンド
    春日269番地:
      latlng: 42.23777443,140.24108943
      name:
      - 八雲町立春日小学校校舎
      - 八雲町立春日小学校屋内体育館
      - 八雲町立春日小学校グランウド
    本町110-1:
      latlng: 42.25511811,140.27123638
      name:
      - はぴあ八雲
    東野469番地の1:
      latlng: 42.20890968,140.39041440
      name:
      - 八雲町立東野小学校校舎
      - 八雲町立東野小学校屋内体育館
      - 八雲町立東野小学校グラウンド
    東雲町31番地の1:
      latlng: ''
      name:
      - 八雲町立八雲中学校校舎
      - 八雲町立八雲中学校屋内体育館
      - 八雲町立八雲中学校グラウンド
    栄浜95番地:
      latlng: ''
      name:
      - 旧八雲町立栄浜小学校グラウンド
    栄町1番地の12:
      latlng: ''
      name:
      - さらんべ公園
    浜松239番地の1:
      latlng: ''
      name:
      - 八雲町立浜松小学校校舎
      - 八雲町立浜松小学校グラウンド
    浜松368番地8:
      latlng: ''
      name:
      - 北海道立噴火湾パノラマパーク
    熊石折戸町204番地の2:
      latlng: ''
      name:
      - 八雲町立熊石第二中学校校舎
      - 八雲町立熊石第二中学校屋内体育館
      - 八雲町立熊石第二中学校グランド
    熊石泊川町236番地:
      latlng: 42.09142782,140.05254608
      name:
      - 八雲町立泊川小学校校舎
      - 八雲町立泊川小学校屋内体育館
      - 八雲町立泊川小学校グランド
    熊石相沼町350番地:
      latlng: ''
      name:
      - 八雲町立相沼小学校校舎
      - 八雲町立相沼小学校屋内体育館
      - 八雲町立相沼小学校グランド
    熊石関内町75番地:
      latlng: 42.13565870,139.93384197
      name:
      - 八雲町立関内小学校校舎
      - 八雲町立関内小学校屋内体育館
      - 八雲町立関内小学校グランド
    熊石雲石町492番地:
      latlng: 42.13120220,139.97692812
      name:
      - 八雲町立熊石第一中学校校舎
      - 八雲町立熊石第一中学校屋内体育館
      - 八雲町立熊石第一中学校グランド
    熊石雲石町744番地:
      latlng: 42.13082715,139.97469775
      name:
      - 八雲町立雲石小学校校舎
      - 八雲町立雲石小学校屋内体育館
      - 八雲町立雲石小学校グランド
    熊石鮎川町103番地4:
      latlng: 42.12276830,140.01445389
      name:
      - 北海道熊石高等学校校舎
      - 北海道熊石高等学校屋内体育館
      - 北海道熊石高等学校グラウンド
    相生町113番地の2:
      latlng: ''
      name:
      - 相生公園
    落部313番地:
      latlng: 42.18797708,140.42500463
      name:
      - 八雲町立落部小学校グラウンド
    落部347番地:
      latlng: 42.18749942,140.42718500
      name:
      - 八雲町立落部中学校校舎
      - 八雲町立落部中学校屋内体育館
    野田生457番地の2:
      latlng: 42.21451419,140.37642332
      name:
      - 八雲町立野田生小学校校舎
      - 八雲町立野田生小学校屋内体育館
      - 八雲町立野田生小学校グラウンド
    黒岩212番地:
      latlng: 42.37227279,140.28928285
      name:
      - 八雲町立黒岩小学校校舎
      - 八雲町立黒岩小学校屋内体育館
      - 八雲町立黒岩小学校グランウド
  共和町:
    共和町前田11番地15:
      latlng: 42.98092695,140.57143104
      name:
      - 共和町立南幼稚園(中央幼児センター)
    前田120番地2:
      latlng: 42.98864282,140.57544416
      name:
      - 北海道共和高等学校校舎
      - 北海道共和高等学校屋内体育館
      - 北海道共和高等学校グラウンド
    前田167番地:
      latlng: 42.98096034,140.57424196
      name:
      - きょうわ農業協同組合本所
    南幌似103番地13:
      latlng: 42.98023616,140.60572306
      name:
      - 共和町かかし古里館
    南幌似143番地12:
      latlng: ''
      name:
      - 西村計雄記念美術館
    南幌似37番地22:
      latlng: 42.98115565,140.61185583
      name:
      - 町民会館
    南幌似57番地12:
      latlng: ''
      name:
      - 共和町保健福祉センター
    南幌似57番地13:
      latlng: 42.97723955,140.61479195
      name:
      - 共和町特別養護老人ホーム
    国富20番地の2:
      latlng: 42.98055920,140.64244218
      name:
      - 共和町立東陽小学校校舎
      - 共和町立東陽小学校体育館
      - 共和町立東陽小学校グラウンド
    宮丘184番地11:
      latlng: 43.03366420,140.54263583
      name:
      - 共和町農村環境改善センター
    宮丘184番地34:
      latlng: 43.03413355,140.54074151
      name:
      - ほくでん体育館
    小沢95番地30:
      latlng: 42.96837563,140.68093453
      name:
      - 共和町ふれあいセンター
      - 共和町いきいきセンター
    小沢95番地の30:
      latlng: 42.96837563,140.68093453
      name:
      - 小沢体育館
    幌似2119番地:
      latlng: 42.97702592,140.62402452
      name:
      - 共和町立共和中学校校舎
      - 共和町立共和中学校体育館
      - 共和町立共和中学校グラウンド
    梨野舞納330番地1:
      latlng: 43.00808679,140.54357296
      name:
      - 共和町立北幼稚園(はまなす幼児センター)
    梨野舞納42番地の3:
      latlng: 42.98320682,140.54215238
      name:
      - 共和町立西陵小学校校舎
      - 共和町立西陵小学校体育館
      - 共和町立西陵小学校グラウンド
    梨野舞納47番地3:
      latlng: 42.98342903,140.54350225
      name:
      - 西部住民センター
    発足14番地8:
      latlng: 43.01570873,140.56937917
      name:
      - 克雪管理センター
    発足190番地:
      latlng: 43.01535321,140.56893477
      name:
      - きょうわ農業協同組合発足支所
    発足2900番地:
      latlng: 43.02316851,140.55659639
      name:
      - 共和町立北辰小学校校舎
      - 共和町立北辰小学校体育館
      - 共和町立北辰小学校グラウンド
  函館市:
    上新川町18:
      latlng: 41.77994214,140.73907530
      name:
      - 新川公園
    上湯川町295:
      latlng: 41.78373115,140.81613436
      name:
      - 函館市立上湯川小学校校舎
      - 函館市立上湯川小学校屋内体育館
      - 函館市立上湯川小学校グランド
    上湯川町327番1号:
      latlng: 41.78732533,140.81982262
      name:
      - 市民の森
    中島町30-5:
      latlng: 41.78449177,140.74354704
      name:
      - 函館市立中島小学校校舎
      - 函館市立中島小学校屋内体育館
      - 函館市立中島小学校グランド
    中浜町79:
      latlng: 41.75636653,141.07686952
      name:
      - 函館市立えさん小学校校舎
      - 函館市立えさん小学校屋内体育館
      - 函館市立えさん小学校グランド
    亀尾町28:
      latlng: 41.79422018,140.85745912
      name:
      - 函館市立亀尾小・中学校校舎
      - 函館市立亀尾小・中学校屋内体育館
      - 函館市立亀尾小・中学校グランド
    亀田中野町116番地2:
      latlng: 41.84181732,140.76696825
      name:
      - 公立はこだて未来大学
    亀田港町57番:
      latlng: 41.81104375,140.72042844
      name:
      - 北海道大学水産学部グラウンド
    亀田港町8:
      latlng: 41.80717494,140.72828351
      name:
      - 亀田港児童公園
    亀田町中野町内:
      latlng: ''
      name:
      - 北海道立道南四季の杜公園
    五稜郭町24:
      latlng: 41.79961825,140.75329320
      name:
      - 梁川公園
    五稜郭町39番13号:
      latlng: 41.79243866,140.75727943
      name:
      - 北海道五稜郭養護学校校舎
      - 北海道五稜郭養護学校屋内体育館
    元町7番17号:
      latlng: 41.76329322,140.71055640
      name:
      - 北海道函館西高等学校校舎
      - 北海道函館西高等学校屋内体育館
      - 北海道函館西高等学校グラウンド
    八幡町15-30:
      latlng: 41.79356282,140.73733887
      name:
      - 函館市立八幡小学校校舎
      - 函館市立八幡小学校屋内体育館
      - 函館市立八幡小学校グランド
    八幡町3:
      latlng: 41.79082699,140.73678622
      name:
      - 八幡公園
    北浜町1:
      latlng: 41.79669842,140.73108090
      name:
      - 万年橋公園
    北美原1-9-16:
      latlng: 41.82609027,140.74904512
      name:
      - 函館市立北美原小学校校舎
      - 函館市立北美原小学校屋内体育館
      - 函館市立北美原小学校グランド
    千代台町10-7:
      latlng: 41.78193950,140.74943845
      name:
      - 函館市立千代ヶ岱小学校校舎
      - 函館市立千代ヶ岱小学校屋内体育館
      - 函館市立千代ヶ岱小学校グランド
    千代台町22:
      latlng: 41.78492515,140.74636626
      name:
      - 千代台公園
    千代台町22-19:
      latlng: 41.78728051,140.74790225
      name:
      - 函館市立凌雲中学校校舎
      - 函館市立凌雲中学校屋内体育館
      - 函館市立凌雲中学校グランド
    千代台町27番5号:
      latlng: 41.78471970,140.74844952
      name:
      - 青年センター
    千歳町15番5号:
      latlng: 41.77285959,140.73744803
      name:
      - はこだて幼稚園
    古部町252-3:
      latlng: ''
      name:
      - 函館市古部体育館
    吉川町6-22:
      latlng: 41.79593460,140.73063097
      name:
      - 函館市立万年橋小学校校舎
      - 函館市立万年橋小学校屋内体育館
      - 函館市立万年橋小学校グランド
    大川町10:
      latlng: 41.79825960,140.73993852
      name:
      - 大川公園
    大川町12-38:
      latlng: 41.79987056,140.74095227
      name:
      - 函館市立大川中学校校舎
      - 函館市立大川中学校屋内体育館
      - 函館市立大川中学校グランド
    大森町2番14号:
      latlng: 41.76501864,140.73021574
      name:
      - 勤労者総合福祉センター
    大森町33:
      latlng: 41.76945445,140.73768433
      name:
      - 大森公園
    大森町34-7:
      latlng: 41.76937396,140.73941476
      name:
      - 函館市立宇賀の浦中学校校舎
      - 函館市立宇賀の浦中学校屋内体育館
      - 函館市立宇賀の浦中学校グランド
    大森町6-11:
      latlng: 41.76663240,140.73244602
      name:
      - 函館市立あさひ小学校校舎
      - 函館市立あさひ小学校屋内体育館
      - 函館市立あさひ小学校グランド
    大町15番:
      latlng: 41.77071752,140.71413622
      name:
      - 緑の島(大町緑地)
    大縄町24-26:
      latlng: 41.78296940,140.73328398
      name:
      - 函館市立北星小学校校舎
      - 函館市立北星小学校屋内体育館
      - 函館市立北星小学校グランド
    大船町24:
      latlng: 41.95800629,140.92762781
      name:
      - 函館市立大船小学校校舎
      - 函館市立大船小学校屋内体育館
      - 函館市立大船小学校グランド
    富岡町1丁目18-1:
      latlng: 41.80150098,140.74276597
      name:
      - 函館市立亀田小学校校舎
      - 函館市立亀田小学校屋内体育館
      - 函館市立亀田小学校グランド
    富岡町1丁目18-2:
      latlng: 41.80254531,140.74274649
      name:
      - 函館市立桐花中学校校舎
      - 函館市立桐花中学校屋内体育館
      - 函館市立桐花中学校グランド
    富岡町1丁目64:
      latlng: 41.81107499,140.74592367
      name:
      - 富岡中央公園
    小安町548-1:
      latlng: 41.74123534,140.92589823
      name:
      - 函館市立戸井西小学校校舎
      - 函館市立戸井西小学校屋内体育館
      - 函館市立戸井西小学校グランド
    尾札部町1609-1:
      latlng: 41.89610948,140.99488970
      name:
      - 函館市立磨光小学校校舎
      - 函館市立磨光小学校屋内体育館
      - 函館市立磨光小学校グランド
    尾札部町2023:
      latlng: 41.88817835,141.02182676
      name:
      - 函館市立尾札部中学校校舎
      - 函館市立尾札部中学校屋内体育館
      - 函館市立尾札部中学校グランド
    山の手3丁目58-1:
      latlng: 41.80534965,140.78687975
      name:
      - 函館市立北中学校校舎
      - 函館市立北中学校屋内体育館
      - 函館市立北中学校グランド
    岩戸町214:
      latlng: ''
      name:
      - 函館市磯谷体育館
    川上町506:
      latlng: 41.76354908,141.07546649
      name:
      - 函館市恵山総合体育館
    川原町5番13号:
      latlng: 41.79236973,140.76804018
      name:
      - 北海道函館工業高等学校校舎
      - 北海道函館工業高等学校屋内体育館
      - 北海道函館工業高等学校グラウンド
    川汲町1520番地4:
      latlng: 41.90597128,140.97126147
      name:
      - 南茅部公民館
      - 旧町民の庭
    川汲町1560:
      latlng: 41.90456297,140.96853127
      name:
      - 北海道南茅部高等学校校舎
      - 北海道南茅部高等学校屋内体育館
      - 北海道南茅部高等学校グラウンド
    川汲町1657:
      latlng: ''
      name:
      - 南茅部運動広場
    弁才町279-1:
      latlng: 41.71917898,140.99148921
      name:
      - 函館市立日新小学校校舎
      - 函館市立日新小学校屋内体育館
      - 函館市立日新小学校グランド
    弥生町11-16:
      latlng: 41.76978673,140.70298998
      name:
      - 函館市立西中学校校舎
      - 函館市立西中学校屋内体育館
      - 函館市立西中学校グランド
    弥生町12-1:
      latlng: 41.77001167,140.70155954
      name:
      - 函館市立弥生小学校校舎
      - 函館市立弥生小学校屋内体育館
      - 函館市立弥生小学校グランド
    志海苔町298番地1:
      latlng: ''
      name:
      - 空港緑地志海苔ふれあい広場
    戸倉町26-1:
      latlng: 41.78620540,140.80619649
      name:
      - 函館市立戸倉中学校校舎
      - 函館市立戸倉中学校屋内体育館
      - 函館市立戸倉中学校グランド
    新八幡町86-1:
      latlng: 41.83091401,141.14358999
      name:
      - 函館市立椴法華小学校校舎
      - 函館市立椴法華小学校屋内体育館
      - 函館市立椴法華小学校グランド
    新川町30-26:
      latlng: 41.77807283,140.73657558
      name:
      - 函館市立中部小学校校舎
      - 函館市立中部小学校屋内体育館
      - 函館市立中部小学校グランド
    新浜町151-1:
      latlng: 41.83471906,141.14118714
      name:
      - 函館市立椴法華中学校校舎
      - 函館市立椴法華中学校屋内体育館
      - 函館市立椴法華中学校グランド
    新浜町156番地1:
      latlng: 41.83316369,141.14137890
      name:
      - 椴法華総合センター
    日ノ浜町31番2:
      latlng: 41.77945393,141.10159093
      name:
      - 道の駅「なとわ・えさん」
    日吉町2丁目34-1:
      latlng: 41.79414816,140.78738359
      name:
      - 函館市立日吉が丘小学校校舎
      - 函館市立日吉が丘小学校屋内体育館
      - 函館市立日吉が丘小学校グランド
    日吉町4丁目5-5:
      latlng: 41.80029489,140.79271032
      name:
      - 函館市立北日吉小学校校舎
      - 函館市立北日吉小学校屋内体育館
      - 函館市立北日吉小学校グランド
    日吉町4丁目8:
      latlng: 41.80491109,140.79431525
      name:
      - 日吉公園
    旭岡町2番地:
      latlng: 41.80227123,140.83142024
      name:
      - 北海道函館養護学校校舎
      - 北海道函館養護学校屋内体育館
      - 北海道函館養護学校グラウンド
    昭和1丁目17番1号:
      latlng: 41.81405234,140.74268490
      name:
      - 北海道函館商業高等学校校舎
      - 北海道函館商業高等学校屋内体育館
      - 北海道函館商業高等学校グラウンド
    昭和1丁目5-5:
      latlng: 41.81286362,140.74384042
      name:
      - 函館市立昭和小学校校舎
      - 函館市立昭和小学校屋内体育館
      - 函館市立昭和小学校グランド
    昭和4丁目38-1:
      latlng: 41.82142905,140.73098554
      name:
      - 函館市立北昭和小学校校舎
      - 函館市立北昭和小学校屋内体育館
      - 函館市立北昭和小学校グランド
    昭和町20-6:
      latlng: ''
      name:
      - 昭和公園
    時任町11番3号:
      latlng: 41.78300894,140.75217166
      name:
      - 北海道函館中部高等学校校舎
      - 北海道函館中部高等学校屋内体育館
      - 北海道函館中部高等学校グラウンド
    木直町991:
      latlng: 41.88333885,141.07021792
      name:
      - 旧函館市立木直小学校校舎
      - 旧函館市立木直小学校屋内体育館
      - 旧函館市立木直小学校グランド
    末広町5番14号:
      latlng: 41.76367953,140.71774464
      name:
      - 函館市企業局
    本通1丁目47-2:
      latlng: 41.79914939,140.76531765
      name:
      - 函館市立本通小学校校舎
      - 函館市立本通小学校屋内体育館
      - 函館市立本通小学校グランド
    本通2丁目35:
      latlng: 41.79881367,140.77260901
      name:
      - 本通公園
    本通2丁目56-7:
      latlng: 41.80379347,140.76836721
      name:
      - 函館市立本通中学校校舎
      - 函館市立本通中学校屋内体育館
      - 函館市立本通中学校グランド
    本通3丁目10-1:
      latlng: 41.79491135,140.77308983
      name:
      - 函館市立南本通小学校校舎
      - 函館市立南本通小学校屋内体育館
      - 函館市立南本通小学校グランド
    東山2丁目3-1:
      latlng: 41.80561296,140.77384177
      name:
      - 函館市立東山小学校校舎
      - 函館市立東山小学校屋内体育館
      - 函館市立東山小学校グランド
    東山町114番地:
      latlng: 41.83038682,140.81271242
      name:
      - 東山墓園
    東川町11番12号:
      latlng: 41.76369354,140.72154709
      name:
      - 東川児童館
    松陰町5-10:
      latlng: 41.79135278,140.75972383
      name:
      - 函館市立柏野小学校校舎
      - 函館市立柏野小学校屋内体育館
      - 函館市立柏野小学校グランド
    柏野町117番地209:
      latlng: ''
      name:
      - 恵山市民センター
    柏野町9:
      latlng: 41.78739642,141.14105123
      name:
      - 函館市立恵山中学校校舎
      - 函館市立恵山中学校屋内体育館
      - 函館市立恵山中学校グランド
    桔梗1丁目13-2:
      latlng: 41.83129467,140.72818265
      name:
      - 函館市立桔梗小学校校舎
      - 函館市立桔梗小学校屋内体育館
      - 函館市立桔梗小学校グランド
    桔梗5丁目25-5:
      latlng: 41.84956245,140.73359556
      name:
      - 函館市立中の沢小学校校舎
      - 函館市立中の沢小学校屋内体育館
      - 函館市立中の沢小学校グランド
    桔梗町429-4:
      latlng: 41.84113838,140.73485687
      name:
      - 函館市立桔梗中学校校舎
      - 函館市立桔梗中学校屋内体育館
      - 函館市立桔梗中学校グランド
    梁川町23-4:
      latlng: 41.79253275,140.74880204
      name:
      - 函館市立千代田小学校校舎
      - 函館市立千代田小学校屋内体育館
      - 函館市立千代田小学校グランド
    泊町126:
      latlng: 41.71621021,141.00242737
      name:
      - 函館市立日新中学校校舎
      - 函館市立日新中学校屋内体育館
      - 函館市立日新中学校グランド
    浜町308番地1:
      latlng: 41.72048217,141.00892392
      name:
      - 戸井総合学習センター
    浜町717番地:
      latlng: 41.72622039,141.00842360
      name:
      - 北海道戸井高等学校校舎
      - 北海道戸井高等学校屋内体育館
      - 北海道戸井高等学校グラウンド
    深堀町14-2:
      latlng: 41.78844021,140.78039008
      name:
      - 函館市立深堀小学校校舎
      - 函館市立深堀小学校屋内体育館
      - 函館市立深堀小学校グランド
    深堀町27番8号:
      latlng: 41.78607934,140.77973197
      name:
      - 北海道函館聾学校校舎
      - 北海道函館聾学校屋内体育館
      - 北海道函館聾学校グラウンド
    深堀町28-1:
      latlng: 41.78622105,140.78100694
      name:
      - 函館市立深堀中学校校舎
      - 函館市立深堀中学校屋内体育館
      - 函館市立深堀中学校グランド
    港町1丁目18:
      latlng: 41.80194214,140.72620054
      name:
      - 港公園
    港町1丁目22-1:
      latlng: 41.80432515,140.72413673
      name:
      - 函館市立港小学校校舎
      - 函館市立港小学校屋内体育館
      - 函館市立港小学校グランド
    港町2丁目10-1:
      latlng: 41.80872453,140.71937860
      name:
      - 函館市立港中学校校舎
      - 函館市立港中学校屋内体育館
      - 函館市立港中学校グランド
    湯川町1丁目32-2:
      latlng: 41.78218835,140.78464581
      name:
      - 函館市民体育館
    湯川町1丁目32番1号:
      latlng: 41.78301601,140.78402640
      name:
      - 市民会館
    湯川町1丁目35:
      latlng: 41.78038564,140.78180986
      name:
      - 鮫川公園
    湯川町2丁目33:
      latlng: 41.78282721,140.78569848
      name:
      - 坂の上公園
    湯川町2丁目41-1:
      latlng: 41.78476596,140.78795657
      name:
      - 函館市立湯川中学校校舎
      - 函館市立湯川中学校屋内体育館
      - 函館市立湯川中学校グランド
    湯川町3丁目42-1:
      latlng: 41.78005855,140.79701428
      name:
      - 函館市立湯川小学校校舎
      - 函館市立湯川小学校屋内体育館
      - 函館市立湯川小学校グランド
    湯川町3丁目6ほか:
      latlng: 41.77590614,140.79411466
      name:
      - 根崎公園
    田家町19番12号:
      latlng: 41.80017896,140.74442424
      name:
      - 北海道函館盲学校校舎
      - 北海道函館盲学校屋内体育館
      - 北海道函館盲学校グラウンド
    田家町5-17:
      latlng: 41.79884317,140.74916567
      name:
      - 函館市立五稜中学校校舎
      - 函館市立五稜中学校屋内体育館
      - 函館市立五稜中学校グランド
    白石町202:
      latlng: ''
      name:
      - 白石公園
    白鳥町4番:
      latlng: 41.79315474,140.74417729
      name:
      - 北海道教育大学教育学部函館校球技場
    的場町12-7:
      latlng: 41.77952043,140.75188844
      name:
      - 函館市立的場中学校校舎
      - 函館市立的場中学校屋内体育館
      - 函館市立的場中学校グランド
    石崎町438:
      latlng: 41.75630223,140.87713154
      name:
      - 函館市立石崎小学校校舎
      - 函館市立石崎小学校屋内体育館
      - 函館市立石崎小学校グランド
    石川町181番地8:
      latlng: 41.83883053,140.74169254
      name:
      - 北海道函館稜北高等学校校舎
      - 北海道函館稜北高等学校屋内体育館
      - 北海道函館稜北高等学校グラウンド
    石川町5-65:
      latlng: ''
      name:
      - 石川公園
    神山町233-1:
      latlng: 41.82030537,140.76374437
      name:
      - 函館市立神山小学校校舎
      - 函館市立神山小学校屋内体育館
      - 函館市立神山小学校グランド
    美原1丁目26番12号:
      latlng: 41.81502760,140.75231199
      name:
      - 亀田福祉センター
    美原2丁目28-1:
      latlng: 41.81585845,140.76032813
      name:
      - 函館市立中央小学校校舎
      - 函館市立中央小学校屋内体育館
      - 函館市立中央小学校グランド
    美原3丁目30-3:
      latlng: 41.81902134,140.74688990
      name:
      - 函館市立亀田中学校校舎
      - 函館市立亀田中学校屋内体育館
      - 函館市立亀田中学校グランド
    美原3丁目48番6号:
      latlng: 41.82133504,140.74723148
      name:
      - 北海道教育大学附属函館中学校グラウンド
    臼尻町234番地1:
      latlng: ''
      name:
      - 臼尻会館
    臼尻町595:
      latlng: 41.93034254,140.94077804
      name:
      - 函館市立臼尻小学校校舎
      - 函館市立臼尻小学校屋内体育館
      - 函館市立臼尻小学校グランド
    臼尻町604番地1:
      latlng: 41.93188125,140.93978363
      name:
      - 南茅部スポーツセンター
    若松町33番6号:
      latlng: 41.77722276,140.73073723
      name:
      - 総合福祉センター
    西旭岡町1丁目33-1:
      latlng: 41.79629943,140.82385213
      name:
      - 函館市立旭岡小学校校舎
      - 函館市立旭岡小学校屋内体育館
      - 函館市立旭岡小学校グランド
    西旭岡町2丁目38:
      latlng: 41.79940755,140.82765977
      name:
      - 旭岡公園
    西旭岡町3丁目5:
      latlng: 41.80388772,140.83184509
      name:
      - 函館市立旭岡中学校校舎
      - 函館市立旭岡中学校屋内体育館
      - 函館市立旭岡中学校グランド
    西桔梗町587-2:
      latlng: ''
      name:
      - 西桔梗公園
    西桔梗町589番地53:
      latlng: ''
      name:
      - 西桔梗中央緑地
    西桔梗町589番地65:
      latlng: ''
      name:
      - 西桔梗西緑地
    見晴町56:
      latlng: 41.79199899,140.80279092
      name:
      - 見晴公園
    谷地頭町9番:
      latlng: 41.75441972,140.71280690
      name:
      - 函館八幡宮外苑野球場
    豊崎町205:
      latlng: 41.95441494,140.92653919
      name:
      - 函館市立臼尻中学校校舎
      - 函館市立臼尻中学校屋内体育館
      - 函館市立臼尻中学校グランド
    赤川町125:
      latlng: 41.83025710,140.76164412
      name:
      - 函館市立赤川中学校校舎
      - 函館市立赤川中学校屋内体育館
      - 函館市立赤川中学校グランド
    赤川町367:
      latlng: 41.83563174,140.76523808
      name:
      - 函館市立赤川小学校校舎
      - 函館市立赤川小学校屋内体育館
      - 函館市立赤川小学校グランド
    金堀町10番8号:
      latlng: 41.77639360,140.76430216
      name:
      - 函館競輪場駐車場
    金堀町3-1:
      latlng: 41.77674319,140.75659399
      name:
      - 函館市立金堀小学校校舎
      - 函館市立金堀小学校屋内体育館
      - 函館市立金堀小学校グランド
    釜谷町227:
      latlng: ''
      name:
      - 函館市立潮光中学校校舎
      - 函館市立潮光中学校屋内体育館
      - 函館市立潮光中学校グランド
    銚子町46番地2:
      latlng: 41.83979617,141.14257556
      name:
      - 銚子会館
    銭亀町339:
      latlng: 41.76116524,140.83679697
      name:
      - 函館市立東小学校校舎
      - 函館市立東小学校屋内体育館
      - 函館市立東小学校グランド
    鍛治2丁目46-4:
      latlng: 41.81126475,140.76600578
      name:
      - 函館市立鍛神小学校校舎
      - 函館市立鍛神小学校屋内体育館
      - 函館市立鍛神小学校グランド
    陣川町59番地:
      latlng: 41.83186638,140.78921691
      name:
      - 史跡四稜郭
    青柳町10-7:
      latlng: 41.75800248,140.71498696
      name:
      - 函館市立潮見中学校校舎
      - 函館市立潮見中学校屋内体育館
      - 函館市立潮見中学校グランド
    青柳町17:
      latlng: 41.75501414,140.71574826
      name:
      - 函館公園
    青柳町22-13:
      latlng: 41.75780817,140.71799505
      name:
      - 函館市立青柳小学校校舎
      - 函館市立青柳小学校屋内体育館
      - 函館市立青柳小学校グランド
    駒場町1-6:
      latlng: 41.78285693,140.76811846
      name:
      - 函館市立駒場小学校校舎
      - 函館市立駒場小学校屋内体育館
      - 函館市立駒場小学校グランド
    高丘町3-2:
      latlng: 41.78759676,140.80295505
      name:
      - 函館市立高丘小学校校舎
      - 函館市立高丘小学校屋内体育館
      - 函館市立高丘小学校グランド
    高松町105番地:
      latlng: 41.77781183,140.80245275
      name:
      - 空港緑地高松ふれあい広場
    高盛町17-1:
      latlng: 41.77381800,140.74383356
      name:
      - 函館市立高盛小学校校舎
      - 函館市立高盛小学校屋内体育館
      - 函館市立高盛小学校グランド
    高盛町32-2:
      latlng: 41.77387924,140.74781942
      name:
      - 函館市立光成中学校校舎
      - 函館市立光成中学校屋内体育館
      - 函館市立光成中学校グランド
    鱒川町91:
      latlng: 41.82532172,140.85078070
      name:
      - 函館市立鱒川小・中学校校舎
      - 函館市立鱒川小・中学校屋内体育館
      - 函館市立鱒川小・中学校グランド
  初山別村:
    字共成109番地1:
      latlng: 44.62969075,141.81674851
      name:
      - 福祉の家共成館
    字初山別149番地:
      latlng: 44.53367848,141.76928365
      name:
      - 初山別村高齢者生活福祉センター
    字初山別153番地1:
      latlng: 44.53456726,141.76890584
      name:
      - ふじみへき地保育所
    字初山別155番地1:
      latlng: 44.53546438,141.76893355
      name:
      - 初山別村自然交流センター
    字初山別173番地1:
      latlng: 44.53280359,141.77005031
      name:
      - 初山別村立初山別小学校校舎
      - 初山別村立初山別小学校屋内体育館
      - 初山別村立初山別小学校グラウンド
      - 初山別村立初山別中学校校舎
      - 初山別村立初山別中学校屋内体育館
      - 初山別村立初山別中学校グラウンド
    字初山別183番地1:
      latlng: ''
      name:
      - 初山別村スポーツ公園
    字千代田:
      latlng: 44.51307239,141.80272901
      name:
      - 南千代田会館
    字明里:
      latlng: 44.57176690,141.78568774
      name:
      - 北明里部落会館
      - 南明里部落会館
      - 旧明里生活改善センター
    字有明336番地1:
      latlng: 44.44237743,141.77584744
      name:
      - 初山別村立有明小学校校舎
      - 初山別村立有明小学校屋内体育館
      - 初山別村立有明小学校グラウンド
    字有明39番地4:
      latlng: 44.44755392,141.75866229
      name:
      - 有明特別母と子の家
    字栄:
      latlng: 44.47635678,141.80972801
      name:
      - 第1栄部落会館
      - 旧第2栄生活改善センター
    字豊岬182番地1:
      latlng: 44.56815889,141.78572136
      name:
      - 初山別村立豊岬小中学校校舎
      - 初山別村立豊岬小中学校屋内体育館
      - 初山別村立豊岬小中学校グラウンド
    字豊岬220番地1:
      latlng: 44.57140857,141.78477396
      name:
      - ふれあいの里豊岬館
  別海町:
    上春別123の12:
      latlng: 43.43253509,144.89405043
      name:
      - 別海町立上春別小学校屋内体育館
      - 別海町立上春別小学校グラウンド
    上春別旭町30:
      latlng: 43.43218264,144.90096372
      name:
      - 別海町立上春別中学校屋内体育館
      - 別海町立上春別中学校グラウンド
    上春別栄町44:
      latlng: 43.43063542,144.89584758
      name:
      - 上春別地域センター
    上風連174-17:
      latlng: 43.26809184,145.09641026
      name:
      - 上風連地域センター
    上風連174の9:
      latlng: ''
      name:
      - 別海町立上風連中学校屋内体育館
      - 別海町立上風連中学校グラウンド
    上風連181の4:
      latlng: 43.26651151,145.09740745
      name:
      - 別海町立上風連小学校屋内体育館
      - 別海町立上風連小学校グラウンド
    中春別南町17:
      latlng: 43.47270760,145.05906441
      name:
      - 別海町立中春別中学校屋内体育館
      - 別海町立中春別中学校グラウンド
    中春別東町103:
      latlng: 43.47882349,145.05967804
      name:
      - 中春別福祉館
    中春別西町34:
      latlng: 43.47666257,145.05644504
      name:
      - 別海町立中春別小学校屋内体育館
      - 別海町立中春別小学校グラウンド
    中西別光町40:
      latlng: ''
      name:
      - 中西別福祉館
    中西別光町48:
      latlng: 43.36474743,144.98849706
      name:
      - 別海町立中西別小学校屋内体育館
      - 別海町立中西別小学校グラウンド
    中西別朝日町14:
      latlng: 43.36553076,144.99134674
      name:
      - 別海町立中西別中学校校舎
      - 別海町立中西別中学校屋内体育館
      - 別海町立中西別中学校グラウンド
    別海141の10:
      latlng: 43.38391279,145.11300488
      name:
      - 別海町町民体育館
    別海常盤町280:
      latlng: 43.39408657,145.11797075
      name:
      - 別海町役場庁舎
    別海旭町431:
      latlng: 43.39500077,145.13221930
      name:
      - 別海町立別海中央小学校校舎
      - 別海町立別海中央小学校屋内体育館
      - 別海町立別海中央小学校グラウンド
    別海旭町67-1:
      latlng: 43.39290089,145.12692823
      name:
      - 別海町交流館
    別海緑町116:
      latlng: 43.38492700,145.12840891
      name:
      - 別海町立別海中央中学校校舎
      - 別海町立別海中央中学校屋内体育館
      - 別海町立別海中央中学校グラウンド
    別海緑町70番地の1:
      latlng: 43.38478529,145.12631190
      name:
      - 北海道別海高等学校校舎
      - 北海道別海高等学校屋内体育館
      - 北海道別海高等学校グラウンド
    尾岱沼潮見町203:
      latlng: 43.55985929,145.22034773
      name:
      - 別海町立野付中学校屋内体育館
      - 別海町立野付中学校グラウンド
    尾岱沼潮見町213-1:
      latlng: ''
      name:
      - 尾岱沼地域センター
    尾岱沼潮見町217:
      latlng: 43.55651526,145.22142832
      name:
      - 別海町立野付小学校屋内体育館
      - 別海町立野付小学校グラウンド
    尾岱沼潮見町72:
      latlng: 43.56959973,145.21706987
      name:
      - 別海町東公民館
    床丹4-46:
      latlng: ''
      name:
      - 床丹地域防災センター
    本別海2-155:
      latlng: 43.38562597,145.28571687
      name:
      - 本別海地域防災センター
    本別海3の1:
      latlng: 43.37762434,145.28583662
      name:
      - 別海町立別海中学校屋内体育館
      - 別海町立別海中学校グラウンド
      - 別海町立別海小学校屋内体育館
    西春別75の4:
      latlng: 43.41894136,144.76128131
      name:
      - 別海町立上西春別中学校屋内体育館
      - 別海町立上西春別中学校グラウンド
    西春別95-53:
      latlng: 43.40919287,144.77173663
      name:
      - 西春別体育館
    西春別宮園町50:
      latlng: 43.39397917,144.80937641
      name:
      - 別海町立西春別小学校屋内体育館
      - 別海町立西春別小学校グラウンド
    西春別宮園町73:
      latlng: 43.39467615,144.80480175
      name:
      - 西春別地域センター
    西春別本久町1:
      latlng: 43.38892123,144.80156620
      name:
      - 別海町立西春別中学校屋内体育館
      - 別海町立西春別中学校グラウンド
    西春別駅前栄町28:
      latlng: 43.41431708,144.76628119
      name:
      - 西春別ふれあいセンター
    西春別駅前西町2:
      latlng: 43.41689717,144.76087309
      name:
      - 別海町立上西春別小学校屋内体育館
      - 別海町立上西春別小学校グラウンド
    走古丹1-44:
      latlng: 43.32383807,145.33163355
      name:
      - 走古丹地域防災センター
  利尻富士町:
    鬼脇字二石:
      latlng: 45.15485384,141.29282126
      name:
      - 二石自治会館
    鬼脇字南浜:
      latlng: 45.12217529,141.26893448
      name:
      - 南浜自治会館
    鬼脇字旭浜:
      latlng: 45.19003057,141.30074208
      name:
      - 旭浜自治会館
    鬼脇字沼浦:
      latlng: 45.12249526,141.27743921
      name:
      - 沼浦自治会館
    鬼脇字清川:
      latlng: 45.14370607,141.31091185
      name:
      - 利尻郡学校給食センター
    鬼脇字石崎:
      latlng: 45.17433715,141.28520073
      name:
      - 石崎自治会館
    鬼脇字野中:
      latlng: 45.10734807,141.25376470
      name:
      - 野中自治会館
    鬼脇字金崎:
      latlng: 45.12766513,141.29305117
      name:
      - 金崎自治会館
    鬼脇字鬼脇:
      latlng: 45.13650025,141.30629465
      name:
      - 総合交流促進施設
      - 鬼脇公民館
    鬼脇字鬼脇191:
      latlng: ''
      name:
      - 利尻富士町立鬼脇中学校校舎
      - 利尻富士町立鬼脇中学校屋内体育館
      - 利尻富士町立鬼脇中学校グラウンド
    鬼脇字鬼脇318:
      latlng: ''
      name:
      - 利尻富士町立利尻小学校校舎
      - 利尻富士町立利尻小学校屋内体育館
      - 利尻富士町立利尻小学校グラウンド
    鬼脇字鰊泊:
      latlng: 45.19583733,141.28469869
      name:
      - 鰊泊自治会館
    鴛泊字大磯:
      latlng: 45.22804832,141.17222560
      name:
      - 大磯自治会館
    鴛泊字富士岬:
      latlng: 45.25776794,141.19776585
      name:
      - 富士岬自治会館
    鴛泊字本泊155:
      latlng: ''
      name:
      - 利尻富士町立本泊小学校校舎
      - 利尻富士町立本泊小学校屋内体育館
      - 利尻富士町立本泊小学校グラウンド
    鴛泊字本町120:
      latlng: ''
      name:
      - 利尻富士町立鴛泊小学校校舎
      - 利尻富士町立鴛泊小学校屋内体育館
      - 利尻富士町立鴛泊小学校グラウンド
    鴛泊字栄町:
      latlng: 45.24561584,141.21950127
      name:
      - 利尻富士町総合交流促進施設「りぷら」
    鴛泊字栄町225:
      latlng: 45.24600083,141.22208125
      name:
      - 利尻富士町立鴛泊中学校校舎
      - 利尻富士町立鴛泊中学校屋内体育館
      - 利尻富士町立鴛泊中学校グラウンド
    鴛泊字野塚:
      latlng: 45.22644962,141.26958908
      name:
      - 野塚自治会館
    鴛泊字雄忠志内:
      latlng: 45.20586603,141.26947701
      name:
      - 雄忠志内自治会館
  利尻町:
    仙法志字久連:
      latlng: 45.15368957,141.18350434
      name:
      - 利尻町自然の家グラウンド
    仙法志字政泊:
      latlng: 45.12770840,141.23037598
      name:
      - 仙法志パークゴルフ場
      - 仙法志保育所
      - 利尻町立博物館駐車場
    仙法志字本町:
      latlng: 45.11230678,141.22104453
      name:
      - 利尻町立仙法志中学校校舎
      - 利尻町立仙法志中学校屋内体育館
      - 利尻町立仙法志中学校グラウンド
      - 利尻町立仙法志小学校校舎
      - 利尻町立仙法志小学校屋内体育館
      - 利尻町立仙法志小学校グラウンド
    沓形字富士見町:
      latlng: 45.18622869,141.13003321
      name:
      - 利尻町交流促進施設
      - 利尻町交流促進施設駐車場
    沓形字富野:
      latlng: 45.19026962,141.18346356
      name:
      - 富野公園
    沓形字新湊:
      latlng: 45.20557214,141.15223943
      name:
      - 旧利尻町立新湊小学校校舎
      - 旧利尻町立新湊小学校屋内体育館
      - 旧利尻町立新湊小学校グラウンド
    沓形字日出町:
      latlng: 45.18700112,141.13739094
      name:
      - 利尻町立沓形中学校校舎
      - 利尻町立沓形中学校屋内体育館
      - 利尻町立沓形中学校グラウンド
      - 利尻町立沓形小学校校舎
      - 利尻町立沓形小学校屋内体育館
      - 利尻町立沓形小学校グラウンド
    沓形字泉町:
      latlng: 45.17976877,141.14449614
      name:
      - 泉公園
      - 利尻町森林公園キャンプ場
    沓形字神居:
      latlng: 45.16920065,141.15228767
      name:
      - 利尻町総合体育館
    沓形字神居189番地1:
      latlng: ''
      name:
      - 北海道利尻高等学校校舎
      - 北海道利尻高等学校屋内体育館
      - 北海道利尻高等学校グラウンド
    沓形字緑町:
      latlng: 45.18590686,141.13918807
      name:
      - 利尻大志館駐車場
      - 利尻大志館
      - 利尻町老人福祉センター
    沓形字蘭泊:
      latlng: 45.16921625,141.19126409
      name:
      - 利尻町ヘリポート
  剣淵町:
    仲町21番1号:
      latlng: 44.10296220,142.36500005
      name:
      - 剣淵町B&G海洋センター
    仲町22番1号:
      latlng: 44.10212611,142.36286974
      name:
      - 北海道剣淵高等学校校舎
      - 北海道剣淵高等学校屋内体育館
      - 北海道剣淵高等学校グラウンド
    仲町28番1号:
      latlng: 44.10086788,142.36153939
      name:
      - 剣淵町健康福祉総合センター
    仲町37番1号:
      latlng: 44.09574622,142.36100646
      name:
      - 剣淵町民センター
    元町6番11号:
      latlng: 44.09873227,142.36919444
      name:
      - 元町自治会館
    南桜町1496番地:
      latlng: 44.06204080,142.33536650
      name:
      - 旧第5区公民館
    南桜町506番地:
      latlng: 44.05762276,142.35384019
      name:
      - 南桜町自治会館
    東町2411番地:
      latlng: 44.09527251,142.39103438
      name:
      - 剣淵町東地区農業研修館
    東町2420番地:
      latlng: 44.09383100,142.39097893
      name:
      - (道の駅)「絵本の里けんぶち」
    藤本町115番地:
      latlng: 44.13216588,142.39444532
      name:
      - 旧第13区公民館
    藤本町1575番地:
      latlng: 44.12852857,142.35124658
      name:
      - 藤本町自治会館
    西原町3083番地:
      latlng: ''
      name:
      - 剣淵町西原地区農業研修館
    西岡町1201番地:
      latlng: 44.09029206,142.31496930
      name:
      - 西岡町農業研修館
    西岡町1918番地:
      latlng: 44.10465706,142.31190465
      name:
      - 西岡町自治会館
    西町20番1号:
      latlng: 44.10172296,142.35102357
      name:
      - 剣淵町立剣淵中学校校舎
      - 剣淵町立剣淵中学校屋内体育館
      - 剣淵町立剣淵中学校グラウンド
    西町23番1号:
      latlng: 44.09834287,142.35344582
      name:
      - 剣淵町立剣淵小学校校舎
      - 剣淵町立剣淵小学校屋内体育館
      - 剣淵町立剣淵小学校グラウンド
  北広島市:
    中央2丁目7番地3.4:
      latlng: 42.98610701,141.56608902
      name:
      - にこにこ公園
    中央4丁目4番地:
      latlng: 42.98392660,141.56354769
      name:
      - 北広島市立東部小学校校舎
      - 北広島市立東部小学校屋内体育館
      - 北広島市立東部小学校グランド
    中央5丁目3番地1:
      latlng: 42.94262380,141.50273887
      name:
      - どんぐり公園
    中央6丁目8番地8:
      latlng: ''
      name:
      - くるみ公園
    共栄274番地1:
      latlng: 42.99235309,141.54670712
      name:
      - 北海道札幌養護学校共栄分校校舎
      - 北海道札幌養護学校共栄分校屋内体育館
      - 北海道札幌養護学校共栄分校グラウンド
    共栄305番地3:
      latlng: 42.98691493,141.55391230
      name:
      - 北海道北広島高等学校校舎
      - 北海道北広島高等学校屋内体育館
      - 北海道北広島高等学校第二屋内体育館
      - 北海道北広島高等学校グラウンド
    共栄315-2:
      latlng: 42.98810658,141.55740082
      name:
      - 北広島市総合体育館
    共栄42番地2:
      latlng: ''
      name:
      - 広島工業団地公園
    共栄町1丁目25番地:
      latlng: ''
      name:
      - わんぱく公園
    共栄町2丁目12番地:
      latlng: 42.99159787,141.55609521
      name:
      - 広島公園
    共栄町3丁目37番地:
      latlng: ''
      name:
      - なかよし公園
    共栄町4丁目31番地:
      latlng: ''
      name:
      - めばえ公園
    共栄町4丁目6番地1:
      latlng: 42.99371441,141.55882820
      name:
      - 北広島市立北の台小学校校舎
      - 北広島市立北の台小学校屋内体育館
      - 北広島市立北の台小学校グランド
    共栄町5丁目12番地:
      latlng: 42.99234234,141.55952820
      name:
      - かぜの子公園
    北の里57番地5外:
      latlng: ''
      name:
      - みはらし公園
    北進町2丁目52番地:
      latlng: ''
      name:
      - あじさい公園
    南町2丁目53番地:
      latlng: ''
      name:
      - はまなす公園
    南町3丁目51番地:
      latlng: ''
      name:
      - 南公園
    大曲並木3丁目13番地6:
      latlng: ''
      name:
      - みどり公園
    大曲並木3丁目19番地2:
      latlng: ''
      name:
      - くじら公園
    大曲中央2丁目4番地1:
      latlng: 42.97167820,141.47880383
      name:
      - 北広島市立大曲中学校校舎
      - 北広島市立大曲中学校屋内体育館
      - 北広島市立大曲中学校グランド
    大曲中央2丁目4番地3:
      latlng: 42.97127827,141.47992043
      name:
      - 大曲ファミリー体育館
    大曲中央3丁目74:
      latlng: ''
      name:
      - 桜ヶ丘公園
    大曲光2丁目3番地7:
      latlng: ''
      name:
      - すくすく公園
    大曲光2丁目8番地:
      latlng: 42.98226326,141.48679118
      name:
      - 北広島市立大曲東小学校校舎
      - 北広島市立大曲東小学校屋内体育館
      - 北広島市立大曲東小学校グランド
    大曲光4丁目14番地4:
      latlng: ''
      name:
      - いきいき公園
    大曲南ヶ丘4丁目10番地3:
      latlng: ''
      name:
      - 南ヶ丘公園
    大曲工業団地7丁目50番地:
      latlng: ''
      name:
      - つつじヶ丘公園
    大曲工業団地8丁目64番地:
      latlng: ''
      name:
      - はるにれ公園
    大曲末広1丁目109番地、5-6:
      latlng: ''
      name:
      - 末広どんぐり公園
    大曲末広3丁目96:
      latlng: ''
      name:
      - のぞみの公園
    大曲末広4丁目58:
      latlng: ''
      name:
      - 大曲公園
    大曲柏葉1丁目13番地4:
      latlng: ''
      name:
      - そよかぜ公園
    大曲柏葉1丁目2番地6:
      latlng: ''
      name:
      - はるかぜ公園
    大曲柏葉2丁目14番地6:
      latlng: 42.97144502,141.48505050
      name:
      - 北広島市立大曲小学校校舎
      - 北広島市立大曲小学校屋内体育館
      - 北広島市立大曲小学校グランド
    大曲柏葉2丁目1番地21:
      latlng: ''
      name:
      - やまびこ公園
    大曲柏葉4丁目4番地4:
      latlng: ''
      name:
      - 柏葉公園
    大曲柏葉4丁目6番地16外:
      latlng: ''
      name:
      - あおぞら公園
    大曲柏葉5丁目8番地7:
      latlng: ''
      name:
      - 四里塚公園
    大曲緑ヶ丘1丁目12番地6:
      latlng: ''
      name:
      - こぐま公園
    大曲緑ヶ丘5丁目4番地1:
      latlng: ''
      name:
      - ほのぼの公園
    大曲緑ヶ丘6丁目5-1:
      latlng: ''
      name:
      - のびのび公園
    大曲緑ヶ丘7丁目20番地1外:
      latlng: ''
      name:
      - 大曲東公園
    山手町2丁目53番地:
      latlng: ''
      name:
      - すみれ公園
    山手町4丁目51番地:
      latlng: ''
      name:
      - さくら公園
    山手町6丁目56番地:
      latlng: ''
      name:
      - たんぽぽ公園
    希望ヶ丘1丁目2番地2:
      latlng: ''
      name:
      - きらきら公園
    希望ヶ丘1丁目9番地1:
      latlng: ''
      name:
      - こもれび公園
    希望ヶ丘4丁目9番地14:
      latlng: ''
      name:
      - わくわく公園
    希望ヶ丘5丁目5番地3・4:
      latlng: ''
      name:
      - 輪厚自然公園
    広葉町2丁目53番地:
      latlng: ''
      name:
      - やまぶき公園
    広葉町3丁目1番地:
      latlng: 42.97559661,141.55412115
      name:
      - 北広島市立広葉小学校校舎
      - 北広島市立広葉小学校屋内体育館
      - 北広島市立広葉小学校グランド
    広葉町3丁目53番地:
      latlng: ''
      name:
      - りんどう公園
    広葉町5丁目1番地:
      latlng: 42.97386910,141.55751538
      name:
      - 北広島市立広葉中学校校舎
      - 北広島市立広葉中学校屋内体育館
      - 北広島市立広葉中学校グランド
    新富町東2丁目2番地:
      latlng: 42.97293897,141.56956160
      name:
      - 日の出公園
    新富町西1丁目2番地:
      latlng: 42.97338330,141.56681460
      name:
      - 新富公園
    新富町西4丁目1番地:
      latlng: 42.96983646,141.56763138
      name:
      - かわぞい公園
    朝日町3丁目6番地1:
      latlng: ''
      name:
      - ひかり公園
    東共栄1丁目5番4:
      latlng: ''
      name:
      - つくし公園
    東共栄2丁目25番地:
      latlng: 42.99549777,141.56620521
      name:
      - わかくさ公園
    松葉町2丁目53番地:
      latlng: ''
      name:
      - ききょう公園
    松葉町5丁目10番地6:
      latlng: ''
      name:
      - ひなぎく公園
    松葉町6丁目50番地:
      latlng: ''
      name:
      - ヒルズ公園
    栄町2丁目51番地:
      latlng: ''
      name:
      - 北広公園
    泉町3丁目54番地:
      latlng: ''
      name:
      - あやめ公園
    白樺町2丁目52番地:
      latlng: ''
      name:
      - ふじ公園
    稲穂町東11丁目3番地1:
      latlng: ''
      name:
      - わらべ公園
    稲穂町東2丁目2番地:
      latlng: 42.98384069,141.57053873
      name:
      - めぐみ公園
    稲穂町東8丁目4番地:
      latlng: 42.98566004,141.57366335
      name:
      - 東公園
    稲穂町西7丁目6番地1外:
      latlng: ''
      name:
      - ひばり公園
    緑陽町1丁目2番地:
      latlng: 42.96719722,141.54578892
      name:
      - 北広島市立緑陽小学校校舎
      - 北広島市立緑陽小学校屋内体育館
      - 北広島市立緑陽小学校グランド
    緑陽町1丁目53番地・山手町1丁目53番地:
      latlng: 42.96991925,141.54899686
      name:
      - 緑葉公園
    緑陽町3丁目4番地:
      latlng: 42.96429467,141.54325871
      name:
      - 北広島市立緑陽中学校校舎
      - 北広島市立緑陽中学校屋内体育館
      - 北広島市立緑陽中学校グランド
    緑陽町3丁目50番地:
      latlng: ''
      name:
      - あさがお公園
    美咲き野1丁目12番地1:
      latlng: 42.99305925,141.57116876
      name:
      - 北広島市立東部中学校校舎
      - 北広島市立東部中学校屋内体育館
      - 北広島市立東部中学校グランド
    美咲き野2丁目16番地3外:
      latlng: ''
      name:
      - 美咲き野げんき公園
    美沢1丁目6番地1:
      latlng: ''
      name:
      - すずむし公園
    美沢2丁目4番地3:
      latlng: ''
      name:
      - とんぼ公園
    美沢3丁目11番地1:
      latlng: ''
      name:
      - ほたる公園
    美沢3丁目6番地2:
      latlng: ''
      name:
      - みつばち公園
    若葉町2丁目56番地:
      latlng: ''
      name:
      - ひまわり公園
    若葉町3丁目12番地:
      latlng: 42.96860579,141.55864331
      name:
      - 北広島市立若葉小学校校舎
      - 北広島市立若葉小学校屋内体育館
      - 北広島市立若葉小学校グランド
    虹ヶ丘5丁目6番地5:
      latlng: ''
      name:
      - クロッカス公園
    虹ヶ丘6丁目6番地15:
      latlng: ''
      name:
      - アイリス公園
    虹ヶ丘7丁目1番地1:
      latlng: ''
      name:
      - 虹ヶ丘公園
    西の里401番地:
      latlng: 43.00980552,141.50489892
      name:
      - 北広島市立西の里小学校校舎
      - 北広島市立西の里小学校屋内体育館
      - 北広島市立西の里小学校グランド
    西の里790番地1:
      latlng: ''
      name:
      - 北広島市立西の里中学校校舎
      - 北広島市立西の里中学校屋内体育館
      - 北広島市立西の里中学校グランド
    西の里北2丁目11番地1:
      latlng: ''
      name:
      - パンジ-公園
    西の里北2丁目3番地:
      latlng: 43.01767117,141.49962679
      name:
      - サルビア公園
    西の里北5丁目5番地:
      latlng: 43.01697944,141.49664654
      name:
      - マ-ガレット公園
    西の里南1丁目2-3:
      latlng: 43.01362716,141.50034360
      name:
      - 西の里ファミリー体育館
    西の里東3丁目2番地:
      latlng: 43.01554671,141.50692345
      name:
      - 西の里公園
    西の里東3丁目3番地3:
      latlng: 43.01617169,141.50789000
      name:
      - 北海道北広島西高等学校校舎
      - 北海道北広島西高等学校屋内体育館
      - 北海道北広島西高等学校グラウンド
    西の里東4丁目3番地9:
      latlng: ''
      name:
      - さつみ公園
    輝美町53番地:
      latlng: ''
      name:
      - ゆり公園
    輪厚508番地3:
      latlng: 42.94504025,141.50571343
      name:
      - 北広島市立西部小学校校舎
      - 北広島市立西部小学校屋内体育館
      - 北広島市立西部小学校グランド
    輪厚621番地1:
      latlng: 42.94012428,141.51036586
      name:
      - 北海道白樺高等養護学校校舎
      - 北海道白樺高等養護学校屋内体育館
      - 北海道白樺高等養護学校グラウンド
    輪厚中央1丁目12番地:
      latlng: 42.94535403,141.50286098
      name:
      - 北広島市立西部中学校校舎
      - 北広島市立西部中学校屋内体育館
      - 北広島市立西部中学校グランド
    輪厚中央4丁目12-19:
      latlng: 42.94082690,141.50728562
      name:
      - 輪厚児童体育館
    輪厚中央4丁目13番地2:
      latlng: ''
      name:
      - くりの木公園
    里見町1丁目52番地:
      latlng: ''
      name:
      - こすもす公園
    里見町3丁目53番地:
      latlng: ''
      name:
      - あざみ公園
    里見町5丁目52番地:
      latlng: ''
      name:
      - さつき公園
    里見町7丁目1番地161:
      latlng: ''
      name:
      - かえで公園
    青葉町3丁目50番地:
      latlng: ''
      name:
      - ばら公園
    高台町1丁目55番地:
      latlng: ''
      name:
      - すずらん公園
    高台町2丁目1番地:
      latlng: 42.96366423,141.54477250
      name:
      - 北広島市立高台小学校校舎
      - 北広島市立高台小学校屋内体育館
      - 北広島市立高台小学校グランド
    高台町2丁目51番地:
      latlng: ''
      name:
      - 竹葉公園
  北斗市:
    一本木134-2:
      latlng: 41.83535849,140.66393719
      name:
      - 一本木会館
    一本木77-1:
      latlng: 41.84048551,140.65915706
      name:
      - 北斗市立島川小学校校舎
      - 北斗市立島川小学校屋内体育館
      - 北斗市立島川小学校グラウンド
    七重浜2丁目15番3号:
      latlng: 41.81551796,140.71064561
      name:
      - 北海道函館水産高等学校校舎
      - 北海道函館水産高等学校屋内体育館
      - 北海道函館水産高等学校グラウンド
    七重浜2丁目32-25:
      latlng: 41.81731490,140.70818459
      name:
      - 七重浜住民センター
    七重浜5丁目11-20:
      latlng: 41.82392247,140.70776767
      name:
      - 浜分ふれあいセンター
      - 北斗市勤労者体育センター
      - 浜分近隣公園多目的広場
    七重浜8丁目3-18:
      latlng: 41.82103336,140.69231047
      name:
      - 七重浜ファミリーセンター
    三ツ石270:
      latlng: 41.73401540,140.57408932
      name:
      - 北斗市立石別中学校校舎
      - 北斗市立石別中学校屋内体育館
      - 北斗市立石別中学校グランド
    中央1丁目3-10:
      latlng: 41.82417363,140.65306642
      name:
      - ありかわ体育館
    中山23-2:
      latlng: ''
      name:
      - 稲理会館
    中山23-3:
      latlng: ''
      name:
      - 中山会館
    中野通200:
      latlng: 41.82771748,140.65012770
      name:
      - 北斗市立上磯小学校校舎
      - 北斗市立上磯小学校屋内体育館
      - 北斗市立上磯小学校グランド
    中野通2丁目13-1:
      latlng: 41.82528453,140.65120822
      name:
      - 北斗市総合文化センター
    中野通2丁目18-1:
      latlng: 41.82445405,140.64890569
      name:
      - 北斗市保険センター
      - 中野通近隣公園グランド
    中野通320-4:
      latlng: 41.83211678,140.64924991
      name:
      - 北斗市立上磯中学校校舎
      - 北斗市立上磯中学校屋内体育館
      - 北斗市立上磯中学校グランド
    中野通3丁目6番1号:
      latlng: 41.82458178,140.64758081
      name:
      - 北海道上磯高等学校校舎
      - 北海道上磯高等学校屋内体育館
      - 北海道上磯高等学校グラウンド
    久根別1丁目18-1:
      latlng: 41.82515741,140.67842795
      name:
      - 久根別体育センター
    久根別1丁目29-2:
      latlng: 41.82587389,140.67498376
      name:
      - 久根別住民センター
    向野15-41:
      latlng: ''
      name:
      - 向野会館
    字向野2丁目26番地1号:
      latlng: 41.88282932,140.63250804
      name:
      - 北海道大野農業高等学校グラウンド
      - 北海道大野農業高等学校屋内体育館
      - 北海道大野農業高等学校校舎
    富川2丁目:
      latlng: 41.80660052,140.62159998
      name:
      - 富川会館
    富川2丁目2-1:
      latlng: 41.81035742,140.62333687
      name:
      - 北斗市立谷川小学校校舎
      - 北斗市立谷川小学校屋内体育館
      - 北斗市立谷川小学校グランド
    市渡242:
      latlng: 41.89771981,140.63608733
      name:
      - 北斗市立市渡小学校校舎
      - 北斗市立市渡小学校屋内体育館
      - 北斗市立市渡小学校グラウンド
    当別2丁目5-1:
      latlng: 41.74050656,140.58437142
      name:
      - 北斗市立石別小学校校舎
      - 北斗市立石別小学校屋内体育館
      - 北斗市立石別小学校グランド
      - 石別住民センター
    押上1丁目3-1:
      latlng: 41.82399799,140.63577105
      name:
      - 北斗市総合体育館
      - 北斗市運動公園自由広場
    押上1丁目3-2:
      latlng: 41.82376764,140.63928176
      name:
      - 北斗市林業協業センター
      - 北斗市高齢者センター
    文月228-1:
      latlng: 41.87232747,140.62641755
      name:
      - 文月会館
    本町200:
      latlng: ''
      name:
      - 北斗市立大野小学校校舎
      - 北斗市立大野小学校屋内体育館
      - 北斗市立大野小学校グラウンド
    本町311-2:
      latlng: ''
      name:
      - '北斗市健康センター(せせらぎ温泉)    '
    本町554-1:
      latlng: 41.87636483,140.65228456
      name:
      - 北斗市立大野中学校校舎
      - 北斗市立大野中学校屋内体育館
      - 北斗市立大野中学校グラウンド
    本郷:
      latlng: 41.89092367,140.64025688
      name:
      - 旧家畜広場
    本郷186-1:
      latlng: 41.88812661,140.63931825
      name:
      - 北斗市公民館
    本郷195-1:
      latlng: 41.88739057,140.63942384
      name:
      - 北斗市スポーツセンター
      - 北斗市多目的運動広場
    東前74-2:
      latlng: 41.85460655,140.67645994
      name:
      - 北斗市農業振興センター
    東浜1丁目11-1:
      latlng: 41.82298815,140.67494781
      name:
      - 北斗市立久根別小学校校舎
      - 北斗市立久根別小学校屋内体育館
      - 北斗市立久根別小学校グランド
    東浜2丁目18-18:
      latlng: 41.82301009,140.66213784
      name:
      - 北斗市漁村センター
    清川595:
      latlng: 41.84722530,140.63264852
      name:
      - 北斗市立沖川小学校校舎
      - 北斗市立沖川小学校屋内体育館
      - 北斗市立沖川小学校グランド
    清川606-3:
      latlng: ''
      name:
      - 清川農村センター
    清水川1-61:
      latlng: ''
      name:
      - さわやか館
    茂辺地2丁目5-56:
      latlng: 41.76507599,140.60358239
      name:
      - 茂辺地住民センター
    茂辺地3丁目3-16:
      latlng: 41.76877545,140.60254897
      name:
      - 茂辺地体育センター
    茂辺地3丁目3-17:
      latlng: 41.76933091,140.60197122
      name:
      - 北斗市立茂辺地中学校校舎
      - 北斗市立茂辺地中学校屋内体育館
      - 北斗市立茂辺地中学校グランド
    茂辺地3丁目4-12:
      latlng: 41.77043072,140.60034076
      name:
      - 北斗市立茂辺地小学校校舎
      - 北斗市立茂辺地小学校屋内体育館
      - 北斗市立茂辺地小学校グランド
    谷好3丁目12-41:
      latlng: 41.81316002,140.62643641
      name:
      - 谷好住民センター
    追分1丁目11-31:
      latlng: 41.82591922,140.70185961
      name:
      - 北斗市立浜分小学校校舎
      - 北斗市立浜分小学校屋内体育館
      - 北斗市立浜分小学校グランド
      - 追分福祉センター
    追分1丁目17-1:
      latlng: 41.82650796,140.69994581
      name:
      - 北斗市立浜分中学校校舎
      - 北斗市立浜分中学校屋内体育館
      - 北斗市立浜分中学校グランド
    開発393-9:
      latlng: 41.85604531,140.67283549
      name:
      - 北斗市立萩野小学校校舎
      - 北斗市立萩野小学校屋内体育館
      - 北斗市立萩野小学校グラウンド
    飯生2丁目5-1:
      latlng: 41.81956293,140.64337306
      name:
      - 飯生住民センター
  北竜町:
    字三谷64番地の5:
      latlng: 43.72545545,141.84929971
      name:
      - 三谷会館
    字和10番地の1:
      latlng: 43.73071688,141.87788604
      name:
      - 北竜町立真竜小学校校舎
      - 北竜町立真竜小学校屋内体育館
      - 北竜町立真竜小学校グラウンド
      - 真竜小学校校舎
      - 真竜小学校屋内体育館
      - 真竜小学校グラウンド
      - 北竜町公民館
      - 北竜町農村環境改善センター
    字和200番地の1:
      latlng: 43.72580648,141.88371359
      name:
      - 老人憩の家
    字恵岱別23番地の9:
      latlng: 43.71507479,141.80690131
      name:
      - 都市と農村交流センター
    字板谷150番地:
      latlng: 43.74274051,141.87507724
      name:
      - 北竜町立北竜中学校校舎
      - 北竜町立北竜中学校屋内体育館
      - 北竜町立北竜中学校グラウンド
      - 北竜中学校校舎
      - 北竜中学校屋内体育館
      - 北竜中学校グラウンド
    字板谷163番地2:
      latlng: 43.75104800,141.87530171
      name:
      - (道の駅)「サンフラワー北竜」
    字碧水20番地の1:
      latlng: ''
      name:
      - 北竜町生きがいセンター
    字碧水5番地の3:
      latlng: 43.76872693,141.88060859
      name:
      - 高齢者コミュニティセンター
    字美葉牛81番地の7:
      latlng: ''
      name:
      - 美葉牛農業研修センター
  北見市:
    とん田東町688番地1:
      latlng: 43.79154631,143.88448547
      name:
      - 北見市立西小学校校舎
      - 北見市立西小学校屋内体育館
      - 北見市立西小学校グラウンド
    三輪468番地:
      latlng: ''
      name:
      - 北見市立三輪小学校校舎
      - 北見市立三輪小学校屋内体育館
      - 北見市立三輪小学校グラウンド
    上ところ28番地:
      latlng: 43.76023195,143.84331473
      name:
      - 北見市立上常呂小学校校舎
      - 北見市立上常呂小学校屋内体育館
      - 北見市立上常呂小学校グラウンド
    上仁頃108番地:
      latlng: 43.87637449,143.85545965
      name:
      - 北見市立上仁頃小学校校舎
      - 北見市立上仁頃小学校屋内体育館
      - 北見市立上仁頃小学校グラウンド
    中央町3番51号:
      latlng: 43.81087758,143.88892865
      name:
      - 北見市立中央小学校校舎
      - 北見市立中央小学校屋内体育館
      - 北見市立中央小学校グラウンド
    仁頃町221番地:
      latlng: 43.90042801,143.90113160
      name:
      - 北見市立下仁頃小学校校舎
      - 北見市立下仁頃小学校屋内体育館
      - 北見市立下仁頃小学校グラウンド
    仁頃町242番地:
      latlng: 43.89868928,143.89804314
      name:
      - 北海道仁頃高等学校校舎
      - 北海道仁頃高等学校屋内体育館
      - 北海道仁頃高等学校グラウンド
    仁頃町245番地:
      latlng: 43.89978081,143.89867634
      name:
      - 北見市立仁頃中学校校舎
      - 北見市立仁頃中学校屋内体育館
      - 北見市立仁頃中学校グラウンド
    光西町183番地1:
      latlng: 43.79532329,143.86969475
      name:
      - 北見市立光西中学校校舎
      - 北見市立光西中学校屋内体育館
      - 北見市立光西中学校グラウンド
    北光328番地12:
      latlng: 43.78238860,143.86924815
      name:
      - 北見市立北光中学校校舎
      - 北見市立北光中学校屋内体育館
      - 北見市立北光中学校グラウンド
    北斗町1丁目1番11号:
      latlng: 43.81173297,143.88642604
      name:
      - 北海道北見北斗高等学校校舎
      - 北海道北見北斗高等学校屋内体育館
      - 北海道北見北斗高等学校グラウンド
    南仲町3丁目2番40号:
      latlng: 43.80092622,143.90021708
      name:
      - 北見市立南小学校校舎
      - 北見市立南小学校屋内体育館
      - 北見市立南小学校グラウンド
    南町1丁目2番64号:
      latlng: 43.79911818,143.90394741
      name:
      - 北見市立南中学校校舎
      - 北見市立南中学校屋内体育館
      - 北見市立南中学校グラウンド
    大正255番地:
      latlng: 43.81470082,143.83841314
      name:
      - 北海道北見緑陵高等学校校舎
      - 北海道北見緑陵高等学校屋内体育館
      - 北海道北見緑陵高等学校グラウンド
    大正64番2号:
      latlng: 43.81044024,143.83992706
      name:
      - 北見市立大正小学校校舎
      - 北見市立大正小学校屋内体育館
      - 北見市立大正小学校グラウンド
    大町159番地1:
      latlng: 43.81385816,143.90266627
      name:
      - 北見市立東小学校校舎
      - 北見市立東小学校屋内体育館
      - 北見市立東小学校グラウンド
    寿町6丁目1番20号:
      latlng: 43.81169106,143.87700734
      name:
      - 北見市立北小学校校舎
      - 北見市立北小学校屋内体育館
      - 北見市立北小学校グラウンド
    川東229番地1:
      latlng: 43.81740870,143.94059612
      name:
      - 北海道北見支援学校校舎
      - 北海道北見支援学校屋内体育館
      - 北海道北見支援学校グラウンド
    常呂町字土佐40-1:
      latlng: 44.11591024,144.06499936
      name:
      - 北見市立常呂中学校校舎
      - 北見市立常呂中学校屋内体育館
      - 北見市立常呂中学校グラウンド
    常呂町字岐阜329:
      latlng: ''
      name:
      - 北見市立錦水小学校校舎
      - 北見市立錦水小学校屋内体育館
      - 北見市立錦水小学校グラウンド
    常呂町字常呂503:
      latlng: 44.11879609,144.06714626
      name:
      - 北見市立常呂小学校校舎
      - 北見市立常呂小学校屋内体育館
      - 北見市立常呂小学校グラウンド
    常呂町字常呂574番地:
      latlng: 44.11893487,144.06381874
      name:
      - 北海道常呂高等学校校舎
      - 北海道常呂高等学校屋内体育館
      - 北海道常呂高等学校グラウンド
    常呂町字日吉219-1:
      latlng: 43.98065009,143.94568179
      name:
      - 北見市立日吉小学校校舎
      - 北見市立日吉小学校屋内体育館
      - 北見市立日吉小学校グラウンド
    常呂町字豊川63:
      latlng: 44.06313755,144.02830715
      name:
      - 北見市立川沿小学校校舎
      - 北見市立川沿小学校屋内体育館
      - 北見市立川沿小学校グラウンド
    常呂町栄浦365番地1:
      latlng: 44.12120184,143.97165169
      name:
      - 北海道立常呂少年自然の家
    常盤町2丁目1番68号:
      latlng: 43.79959279,143.89067903
      name:
      - 北見市勤労青少年ホーム体育室
    広郷195番地:
      latlng: 43.75984564,143.83440988
      name:
      - 北見市立上常呂中学校校舎
      - 北見市立上常呂中学校屋内体育館
      - 北見市立上常呂中学校グラウンド
    春光町6丁目4番51号:
      latlng: 43.82307151,143.92235299
      name:
      - 北見市立小泉小学校校舎
      - 北見市立小泉小学校屋内体育館
      - 北見市立小泉小学校グラウンド
    東相内町178番地:
      latlng: 43.80182098,143.80866616
      name:
      - 北見市立東相内小学校校舎
      - 北見市立東相内小学校屋内体育館
      - 北見市立東相内小学校グラウンド
    東相内町25番地:
      latlng: 43.80444324,143.82174272
      name:
      - 北見市立東相内中学校校舎
      - 北見市立東相内中学校屋内体育館
      - 北見市立東相内中学校グラウンド
    東相内町602番地:
      latlng: 43.80196532,143.80518868
      name:
      - 北海道北見工業高等学校校舎
      - 北海道北見工業高等学校屋内体育館
      - 北海道北見工業高等学校グラウンド
    東陵町173番地1:
      latlng: ''
      name:
      - 北見市立東陵中学校校舎
      - 北見市立東陵中学校屋内体育館
      - 北見市立東陵中学校グラウンド
    東陵町27番地:
      latlng: 43.81840193,143.89647493
      name:
      - 北見市立体育センター
    東陵町27番地 東陵運動公園内:
      latlng: 43.81840193,143.89647493
      name:
      - 北海道立北見体育センター
    柏陽町567番地:
      latlng: 43.82423227,143.91346762
      name:
      - 北海道北見柏陽高等学校校舎
      - 北海道北見柏陽高等学校屋内体育館
      - 北海道北見柏陽高等学校グラウンド
    田端町32番地26:
      latlng: 43.81807467,143.91507055
      name:
      - 北見市立小泉中学校校舎
      - 北見市立小泉中学校屋内体育館
      - 北見市立小泉中学校グラウンド
    留辺蘂町上町168番地2・仲町97番地4:
      latlng: ''
      name:
      - 留辺蘂中央公園
    留辺蘂町丸山21番地:
      latlng: 43.88915033,143.63422604
      name:
      - 北見市立瑞穂小中学校校舎
      - 北見市立瑞穂小中学校屋内体育館
      - 北見市立瑞穂小中学校グラウンド
    留辺蘂町大和355番地1:
      latlng: ''
      name:
      - 北見市立大和小学校校舎
      - 北見市立大和小学校屋内体育館
      - 北見市立大和小学校グラウンド
    留辺蘂町旭193番地1:
      latlng: ''
      name:
      - 北見市立留辺蘂中学校屋内体育館
    留辺蘂町旭公園104番地5:
      latlng: 43.77818741,143.60898694
      name:
      - 北海道留辺蘂高等学校校舎
      - 北海道留辺蘂高等学校屋内体育館
      - 北海道留辺蘂高等学校グラウンド
    留辺蘂町旭公園74番地8:
      latlng: ''
      name:
      - 留辺蘂町八方台森林公園
    留辺蘂町旭公園88番地:
      latlng: ''
      name:
      - 留辺蘂町体育館
      - 留辺蘂町旭運動公園
    留辺蘂町旭西193番地:
      latlng: 43.78469218,143.60240946
      name:
      - 北見市立留辺蘂中学校グラウンド
    留辺蘂町旭西193番地1:
      latlng: ''
      name:
      - 北見市立留辺蘂中学校校舎
    留辺蘂町松山4番地4:
      latlng: ''
      name:
      - 温根湯西公園
    留辺蘂町栄町18番地:
      latlng: 43.78432850,143.60825627
      name:
      - 北見市立留辺蘂小学校グラウンド
    留辺蘂町栄町18番地1:
      latlng: 43.78428404,143.60748133
      name:
      - 北見市立留辺蘂小学校校舎
      - 北見市立留辺蘂小学校屋内体育館
    留辺蘂町温根湯温泉228番地2:
      latlng: 43.75909394,143.51227922
      name:
      - 北見市立温根湯中学校校舎
      - 北見市立温根湯中学校屋内体育館
      - 北見市立温根湯中学校グラウンド
    留辺蘂町温根湯温泉75番地:
      latlng: 43.75350561,143.51009890
      name:
      - 北見市立温根湯小学校グラウンド
    留辺蘂町温根湯温泉75番地1:
      latlng: 43.75342232,143.51110435
      name:
      - 北見市立温根湯小学校校舎
      - 北見市立温根湯小学校屋内体育館
    留辺蘂町花丘29番地2:
      latlng: 43.75929367,143.50288569
      name:
      - 根々の丘(農村公園)
    留辺蘂町花丘82番地3:
      latlng: ''
      name:
      - おんねゆ温泉つつじ公園
    相内町15番地:
      latlng: 43.79376768,143.76196750
      name:
      - 北見市立相内中学校校舎
      - 北見市立相内中学校屋内体育館
      - 北見市立相内中学校グラウンド
    相内町287番地:
      latlng: 43.79767800,143.74900450
      name:
      - 北見市立相内小学校校舎
      - 北見市立相内小学校屋内体育館
      - 北見市立相内小学校グラウンド
    端野町三区1045番地3:
      latlng: 43.85306560,143.93669449
      name:
      - 北見市立端野中学校校舎
      - 北見市立端野中学校屋内体育館
      - 北見市立端野中学校グラウンド
    端野町三区104番地1:
      latlng: 43.84774109,143.93045094
      name:
      - 三区運動公園
    端野町二区257番地2:
      latlng: 43.86159554,143.95659766
      name:
      - 北見市立端野小学校校舎
      - 北見市立端野小学校屋内体育館
      - 北見市立端野小学校グラウンド
    端野町字3区583-1:
      latlng: ''
      name:
      - 北海道北見商業高等学校校舎
      - 北海道北見商業高等学校屋内体育館
      - 北海道北見商業高等学校グラウンド
    緑町2丁目1番1号:
      latlng: 43.80527992,143.84780437
      name:
      - 北見市立緑小学校校舎
      - 北見市立緑小学校屋内体育館
      - 北見市立緑小学校グラウンド
    美山町31番地1:
      latlng: ''
      name:
      - 北見市立北中学校校舎
      - 北見市立北中学校屋内体育館
      - 北見市立北中学校グラウンド
    美山町36番8号:
      latlng: 43.82411468,143.87862891
      name:
      - 北見市立美山小学校校舎
      - 北見市立美山小学校屋内体育館
      - 北見市立美山小学校グラウンド
    若松155番5号:
      latlng: 43.77773214,143.92379392
      name:
      - 北見市立若松小学校屋内体育館
      - 北見市立若松小学校グラウンド
    豊地285番地:
      latlng: 43.78828145,143.83284791
      name:
      - 北見市立豊地小学校校舎
      - 北見市立豊地小学校屋内体育館
      - 北見市立豊地小学校グラウンド
    錦町181番3号:
      latlng: 43.78559679,143.87746129
      name:
      - 北見市立北光小学校校舎
      - 北見市立北光小学校屋内体育館
      - 北見市立北光小学校グラウンド
    高栄西町10丁目12番1号:
      latlng: 43.80975465,143.85751171
      name:
      - 北見市立高栄中学校校舎
      - 北見市立高栄中学校屋内体育館
      - 北見市立高栄中学校グラウンド
    高栄西町9丁目3番2号:
      latlng: 43.81391538,143.86145566
      name:
      - 北見市立高栄小学校校舎
      - 北見市立高栄小学校屋内体育館
      - 北見市立高栄小学校グラウンド
  千歳市:
    あずさ1:
      latlng: 42.84259247,141.65100376
      name:
      - 青空運動公園
    あずさ1-2:
      latlng: 42.84247680,141.64840732
      name:
      - 千歳市立富丘中学校校舎
      - 千歳市立富丘中学校屋内体育館
      - 千歳市立富丘中学校グランド
    あずさ1ー3ー1:
      latlng: 42.84421279,141.65024870
      name:
      - 千歳市総合武道館
    上長都:
      latlng: 42.84362151,141.60087252
      name:
      - 上長都明星公園
    上長都1051-19:
      latlng: ''
      name:
      - 上長都運動公園
    中央539-3:
      latlng: 42.87023467,141.71278132
      name:
      - 中央コミュニティセンター
    住吉2-11:
      latlng: 42.83055099,141.66390674
      name:
      - すみよし2号公園
    住吉5-10:
      latlng: 42.82863745,141.66743989
      name:
      - すみよし1号公園
    信濃2-18:
      latlng: 42.83654356,141.63343690
      name:
      - しなの公園
    信濃2-34:
      latlng: 42.83654899,141.63011500
      name:
      - 千歳市立信濃小学校校舎
      - 千歳市立信濃小学校屋内体育館
      - 千歳市立信濃小学校グランド
    信濃4-18:
      latlng: 42.84100692,141.63279222
      name:
      - しなの第2公園
    北信濃779-2:
      latlng: 42.84215930,141.62574281
      name:
      - 北信濃コミュニティセンター
    北信濃864-4:
      latlng: ''
      name:
      - 開拓記念公園
    北光3-3:
      latlng: 42.84260131,141.63595848
      name:
      - ひばりヶ丘3号公園
    北光6-3:
      latlng: 42.84615634,141.63263633
      name:
      - ひばりヶ丘2号公園
    北斗2-13:
      latlng: 42.82903609,141.63396793
      name:
      - 北斗2号公園
    北斗4-4:
      latlng: 42.83164391,141.62820719
      name:
      - 北斗すみれ公園
    北斗5-1-1:
