石川:
  かほく市:
    七窪ホ41番地:
      latlng: 36.72656111,136.70999232
      name:
      - かほく市七窪体育館
    上田名ニ24番地:
      latlng: ''
      name:
      - かほく市藤が丘公園
    下山田ル7番地:
      latlng: ''
      name:
      - かほく市宇ノ気野球場
    下山田ヲ85番地:
      latlng: ''
      name:
      - かほく市うのけ総合公園陸上競技場
    二ツ屋マ1番地:
      latlng: 36.78671383,136.73091666
      name:
      - かほく市高松グラウンド・ゴルフ場
    内日角井1:
      latlng: 36.71428464,136.69375870
      name:
      - 石川県西田幾多郎記念哲学館
    内高松オ1番地:
      latlng: ''
      name:
      - かほく市高松野球場
    内高松オ80番地:
      latlng: 36.76495576,136.73328906
      name:
      - かほく市高松陸上競技場
    内高松ニ12番地:
      latlng: 36.76249223,136.73421679
      name:
      - かほく市アクロス高松
    夏栗ロ10番地:
      latlng: 36.77862612,136.74762372
      name:
      - かほく市立大海小学校
    外日角ホ155番地:
      latlng: ''
      name:
      - かほく市立外日角小学校運動場
      - かほく市立外日角小学校
      - かほく市立外日角小学校体育館
    大崎チ115番地:
      latlng: 36.70519942,136.69074261
      name:
      - かほく市大崎区民会館
    大崎チ73番地:
      latlng: 36.70494665,136.69034266
      name:
      - かほく市宇ノ気南部体育館
    大崎潮見台177番地他:
      latlng: ''
      name:
      - かほく市潮見台公園
    宇野気ニ110番地1:
      latlng: 36.72044526,136.70659582
      name:
      - かほく市立宇ノ気図書館
    宇野気ニ71番地2:
      latlng: 36.71941207,136.70629868
      name:
      - 宇ノ気保健福祉センター
    宇野気リ147番地:
      latlng: 36.72024805,136.70404894
      name:
      - かほく市立宇ノ気小学校
    宇野気リ196番地:
      latlng: 36.72039524,136.70326293
      name:
      - かほく市宇野気公民館
    宇野気リ196番地1:
      latlng: 36.72057578,136.70396838
      name:
      - かほく市宇ノ気スポーツセンター
    指江フ1番地:
      latlng: 36.70566395,136.71921975
      name:
      - かほく市指江コミュニティセンター
    木津ヘ30番地1他:
      latlng: ''
      name:
      - かほく市木津公園
    木津ホ61番地:
      latlng: 36.74812186,136.70150646
      name:
      - かほく市立七塚小学校運動場
      - かほく市立七塚小学校
      - かほく市立七塚小学校体育館
    森レ1番地:
      latlng: 36.72326431,136.70659013
      name:
      - かほく市立宇ノ気中学校
      - 宇ノ気体育館
      - かほく市立宇ノ気中学校運動場
    横山リ2番地14:
      latlng: 36.74668330,136.71905171
      name:
      - かほく市よこやま研修館
    浜北イ25番地16:
      latlng: 36.73277124,136.70206527
      name:
      - かほく市七塚武道館
    白尾ナ97番地:
      latlng: 36.71423997,136.68798431
      name:
      - かほく市七塚体育センター
    白尾ヲ24番地他:
      latlng: ''
      name:
      - かほく市白尾しらゆり公園
    谷イ92番地他:
      latlng: ''
      name:
      - かほく市谷公園
    谷カ30番地:
      latlng: 36.74170346,136.72526775
      name:
      - かほく市立金津小学校
    谷ワ108番地:
      latlng: 36.74294498,136.72799528
      name:
      - かほく市金津体育館
    遠塚ニ17番地1他:
      latlng: 36.73552079,136.69789066
      name:
      - かほく市七塚中央公園
    遠塚ロ47番地1:
      latlng: 36.73469597,136.70314282
      name:
      - かほく市立河北台中学校
      - 河北台体育館
      - かほく市立河北台中学校運動場
    遠塚ロ52番地10:
      latlng: 36.73475982,136.70072645
      name:
      - かほく市七塚健康福祉センター
    遠塚ロ57番地6:
      latlng: 36.73564025,136.70003761
      name:
      - かほく市七塚生涯学習センター
    高松ク41番地:
      latlng: ''
      name:
      - かほく市高松産業文化センター
    高松ヤ10番地:
      latlng: 36.76928287,136.71942082
      name:
      - かほく市立高松小学校
    高松ヤ42番地:
      latlng: 36.76761644,136.72090404
      name:
      - かほく市立高松中学校運動場
      - かほく市立高松中学校
      - かほく市立高松中学校体育館
  七尾市:
    つつじが浜3-62:
      latlng: ''
      name:
      - 七尾市つつじが浜児童公園
    一本杉町124:
      latlng: 37.04826192,136.96135672
      name:
      - 御祓公民館
    七尾市小島町ニ11:
      latlng: ''
      name:
      - 七尾市小島小公園用地
    万行町43-188:
      latlng: 37.03037619,136.99028506
      name:
      - 希望の丘公園
    万行町77部36番地2:
      latlng: ''
      name:
      - 東みなと保育園
    三引町15-22-1:
      latlng: 37.05865761,136.87978892
      name:
      - あかくら保育園
    上野ヶ丘町59:
      latlng: 37.05958546,136.88384964
      name:
      - 石川県立田鶴浜高等学校
    下町戊部12-1:
      latlng: ''
      name:
      - 石川県立七尾東雲高等学校(建物のみ)
    下町戌17-1:
      latlng: ''
      name:
      - 七尾市立朝日中学校
    中島町上町チ-26-2:
      latlng: ''
      name:
      - 七尾市立中島小学校
    中島町中島乙-39-1:
      latlng: ''
      name:
      - 中島保育園
    中島町中島甲-14:
      latlng: 37.12289676,136.85036904
      name:
      - 七尾市立中島中学校
      - 七尾市立中島中学校グラウンド
    中島町中島甲-63-1:
      latlng: ''
      name:
      - 中島体育館
    中島町中島甲170:
      latlng: 37.12134705,136.85470481
      name:
      - 七尾市中島市民センタ-
    中島町別所6-71-2:
      latlng: ''
      name:
      - 別所集会所前広場
    中島町塩津子-15:
      latlng: 37.08305688,136.85829231
      name:
      - 旧塩津保育園
    中島町外2-1:
      latlng: 37.14837549,136.87759275
      name:
      - 旧西岸小学校
    中島町小牧ヨ-40-1:
      latlng: ''
      name:
      - 林業総合センター
    中島町浜田イ部25-1:
      latlng: ''
      name:
      - 旧石川県立中島高等学校
    中島町笠師ミ-63:
      latlng: 37.09536383,136.85773069
      name:
      - 笠師保構造改善センター
    中島町笠師ワ-22:
      latlng: ''
      name:
      - 旧笠師保小学校
    中島町西谷内ヘ-98:
      latlng: ''
      name:
      - 釶打公民館
    中島町豊田町マ-1:
      latlng: ''
      name:
      - 豊川ふるさとセンター
    中島町豊田町ル-13-1:
      latlng: ''
      name:
      - 豊川公民館
    中挟町リ-23:
      latlng: 37.01242120,136.94905929
      name:
      - 徳田公民館
      - 七尾市立徳田小学校
    伊久留町ム2:
      latlng: ''
      name:
      - 相馬公民館
    伊久留町馬28-1:
      latlng: 37.02883395,136.88943688
      name:
      - ふれあい交流館「相馬」
    佐味町10-4:
      latlng: 37.04706893,136.99830292
      name:
      - 七尾市立東湊小学校
    佐味町ト2-3:
      latlng: 37.04837430,136.99758350
      name:
      - 東湊公民館
    八幡町二-4:
      latlng: ''
      name:
      - 徳田保育園
    千野町は-7-1:
      latlng: ''
      name:
      - ひまわり保育園
    南ヶ丘町48-63:
      latlng: ''
      name:
      - 七尾市南ヶ丘児童公園
    古屋敷町カ10-3:
      latlng: 37.02385683,136.97297598
      name:
      - 石川県立七尾児童会館
    和倉町2-13-1:
      latlng: ''
      name:
      - 和倉温泉観光会館
    和倉町3-24:
      latlng: 37.08611693,136.91769819
      name:
      - 和倉保育園
    和倉町ひばり2丁目90:
      latlng: ''
      name:
      - 七尾市和倉1号児童公園
    和倉町ひばり3丁目90:
      latlng: 37.08311729,136.91796499
      name:
      - 七尾市立和倉小学校
    和倉町ク15-3:
      latlng: 37.08588918,136.91772043
      name:
      - 和倉公民館
    和倉町タ34:
      latlng: 37.08967181,136.91015150
      name:
      - 七尾市白崎公園
    和倉町ヨ109:
      latlng: ''
      name:
      - 七尾市わくわくプラザ
    国分町リ9:
      latlng: 37.02393127,136.95652205
      name:
      - 能登国分寺公園
    垣吉町へ24:
      latlng: 37.05986647,136.89491256
      name:
      - サンビーム日和ヶ丘
    垣吉町ヘ24:
      latlng: 37.05986647,136.89491256
      name:
      - 七尾市田鶴浜多目的グラウンド
    大和町チ部18-1:
      latlng: ''
      name:
      - 光の子保育園
    大泊町36-24-1:
      latlng: ''
      name:
      - 七尾市万右エ門児童遊園地
    大津町7-112:
      latlng: 37.06974413,136.84614951
      name:
      - ふれあい交流館「金ヶ崎」
    大津町ク31:
      latlng: 37.06778068,136.85351006
      name:
      - 金ヶ崎公民館
    天神川原町ロ部32-1:
      latlng: ''
      name:
      - ななおあいじ保育園
    寿町34-64:
      latlng: ''
      name:
      - 有隣保育園
    小島町イ部58-1:
      latlng: ''
      name:
      - 小丸山保育園
    小島町チ-3:
      latlng: 37.04617582,136.95442142
      name:
      - 七尾市立小丸山小学校
    小島町ヌ49-3:
      latlng: 37.05314720,136.95499051
      name:
      - 西湊保育園
    小島町ル-42:
      latlng: 37.05106125,136.95230755
      name:
      - 七尾市立御祓中学校
    小島町西-4:
      latlng: 37.04377327,136.95261059
      name:
      - 七尾総合市民体育館
    山王町ツ34:
      latlng: 37.04181590,136.97367240
      name:
      - 七尾市立山王小学校
    川尻町へ-1:
      latlng: 37.06587700,136.89858420
      name:
      - 旧端保育所
    府中町員外67:
      latlng: ''
      name:
      - 七尾マリンパーク
    庵町ウ23-2:
      latlng: 37.04090704,137.04624846
      name:
      - 北大呑公民館
    庵町ヨ-31:
      latlng: 37.02627822,137.04848219
      name:
      - 大呑保育園
    後畠町ハ-2:
      latlng: 37.02297907,136.97063180
      name:
      - 城山運動公園
    後畠町後山4-5:
      latlng: ''
      name:
      - 城山体育館
    所口町ハ70-1:
      latlng: 37.03712726,136.96487349
      name:
      - 本宮保育園
    本府中町ソ15:
      latlng: ''
      name:
      - 七尾市本府中児童公園
    本府中町ヲ38:
      latlng: 37.03319177,136.96960651
      name:
      - 矢田郷公民館
      - 七尾サンライフプラザ
    本府中町天神山1:
      latlng: 37.03160880,136.97478660
      name:
      - 七尾市立天神山小学校
    桜町79:
      latlng: ''
      name:
      - 七尾市桜町児童公園
    池崎町い-23:
      latlng: ''
      name:
      - 高階保育園
    津向町へ34:
      latlng: 37.05702703,136.94814939
      name:
      - 七尾産業技術専門校
    津向町ヘ部83他:
      latlng: ''
      name:
      - 七尾市西湊公園
    津向町松山-1:
      latlng: 37.05769369,136.95019359
      name:
      - 西湊公民館
    湊町1丁目145-1:
      latlng: 37.04687353,136.97103912
      name:
      - 袖ヶ江公民館
    湯川町2-1:
      latlng: 37.08502407,137.04027242
      name:
      - よつば保育園
    湯川町3-68-2:
      latlng: 37.08372428,137.04219451
      name:
      - 旧北嶺中学校
    田鶴浜町ぬ57:
      latlng: 37.06449891,136.88706303
      name:
      - 田鶴浜保育園
    田鶴浜町り6:
      latlng: 37.06387124,136.88786854
      name:
      - 七尾市田鶴浜市民センター
    田鶴浜町ハ部3番地:
      latlng: ''
      name:
      - 健康福祉プラザさつき苑
    田鶴浜町ホ365:
      latlng: 37.05948860,136.89179896
      name:
      - 七尾市立田鶴浜小学校
    田鶴浜町二117:
      latlng: ''
      name:
      - 勤労者体育センター
    田鶴浜町二120:
      latlng: ''
      name:
      - 農村環境改善センター
    田鶴浜町二144:
      latlng: ''
      name:
      - 田鶴浜町体育館
    田鶴浜町二63:
      latlng: 37.06099941,136.88923800
      name:
      - 田鶴浜武道館
    町屋町に-24:
      latlng: 37.03174254,136.90431313
      name:
      - 高階公民館
    町屋町ホ-55:
      latlng: 37.03270066,136.90180776
      name:
      - 七尾市立高階小学校
    矢田新町2-58-1:
      latlng: ''
      name:
      - みなと小公園
    矢田新町ニ部1番地1:
      latlng: ''
      name:
      - 七尾市みなとふれあいスポーツセンター
    矢田町1号8:
      latlng: 37.04494353,136.98013272
      name:
      - 七尾みなと保育園
    矢田町3号41:
      latlng: ''
      name:
      - 七尾市矢田郷児童公園
    矢田町3号43-1:
      latlng: 37.04074391,136.97666103
      name:
      - やまと保育園
    石崎町ソ-7-1:
      latlng: ''
      name:
      - 石崎公民館
    石崎町ソ21-1:
      latlng: 37.07622127,136.92996143
      name:
      - 石崎保育園
    石崎町チ32-1:
      latlng: 37.07685188,136.93412488
      name:
      - 和倉温泉多目的グラウンド
    石崎町ヨ37:
      latlng: 37.07725712,136.92542292
      name:
      - 浜岡保育園
    石崎町子-40:
      latlng: 37.07545750,136.93081972
      name:
      - 七尾市立石崎小学校
    石崎町香島1丁目96:
      latlng: 37.08028182,136.92734201
      name:
      - 七尾市立香島中学校
    能登島久木町ヨ-1:
      latlng: ''
      name:
      - 久木神社
    能登島二穴町イ-159:
      latlng: ''
      name:
      - 二穴集会所
    能登島二穴町イ-56:
      latlng: ''
      name:
      - 多賀神社
    能登島佐波町15-5:
      latlng: ''
      name:
      - のとじま保育園
    能登島佐波町ヲ-27:
      latlng: ''
      name:
      - 佐波神社
    能登島佐波町ヲ-29:
      latlng: 37.11166339,136.98502888
      name:
      - 佐波集会所
    能登島八ヶ崎町4-1-1:
      latlng: ''
      name:
      - 八ヶ崎集会所
    能登島八ヶ崎町9-35:
      latlng: ''
      name:
      - 日吉神社
    能登島別所町45-13:
      latlng: ''
      name:
      - 別所集会所
    能登島半浦17-40:
      latlng: 37.11733915,136.93811919
      name:
      - 妙万寺
    能登島半浦町15-1:
      latlng: 37.12198293,136.93263889
      name:
      - 旧西部小学校跡地
    能登島半浦町17-98-1:
      latlng: ''
      name:
      - 半浦多目的共同利用施設
    能登島南町へ-7-1:
      latlng: ''
      name:
      - 南集会所
    能登島南町ヲ-4:
      latlng: ''
      name:
      - 旧南分校跡地
    能登島向田町117-113:
      latlng: 37.13475000,136.99777101
      name:
      - 福勝寺
    能登島向田町120-91-1:
      latlng: ''
      name:
      - 向田集会所
    能登島向田町122-6:
      latlng: ''
      name:
      - 巧みの里第1・第2駐車場
    能登島向田町ろ-1:
      latlng: 37.12484558,136.99632168
      name:
      - 七尾市能登島市民センター
    能登島向田町ろ-15:
      latlng: ''
      name:
      - 七尾市立能登島小学校
    能登島向田町ろ-8-1:
      latlng: ''
      name:
      - 能登島総合健康センター
    能登島向田町五級61-1:
      latlng: ''
      name:
      - 能登島生涯学習総合センター
    能登島向田町五級63-1:
      latlng: ''
      name:
      - 能登島武道館立野
    能登島向田町馬付ケ-谷内31:
      latlng: ''
      name:
      - 七尾市立能登島中学校グラウンド
    能登島日出ヶ島町ヨ-29-1:
      latlng: ''
      name:
      - 日吉神社
    能登島日出ヶ島町ヨ-55:
      latlng: ''
      name:
      - 日出ヶ島集会所
    能登島曲町3-55-4:
      latlng: ''
      name:
      - 曲集会所
    能登島無関町ノ-42-乙:
      latlng: ''
      name:
      - 無関多目的集会所
    能登島田尻町ト-4:
      latlng: ''
      name:
      - 田尻・久木集会所
    能登島百万石34:
      latlng: ''
      name:
      - 百万石集会所
    能登島祖母ヶ浦町2-49:
      latlng: ''
      name:
      - 祖母ヶ浦集会所
    能登島祖母ヶ浦町4-51:
      latlng: ''
      name:
      - 白山神社
    能登島通町チ-47-1:
      latlng: ''
      name:
      - 通集会所
    能登島野崎町10-21:
      latlng: 37.12405286,137.04538661
      name:
      - 正願寺
    能登島野崎町100-24:
      latlng: 37.12554716,137.04701689
      name:
      - 野崎コミュニティセンター
    能登島長崎町32-9-1:
      latlng: ''
      name:
      - 春日神社
    能登島長崎町32-9-2:
      latlng: ''
      name:
      - 長崎多目的集会所
    能登島閨町57-27:
      latlng: 37.13758964,136.93562375
      name:
      - 閨集会所
    能登島閨町64-32:
      latlng: 37.13779236,136.93409056
      name:
      - 皆善寺
    能登島須曽町19-69:
      latlng: 37.10531068,136.96365072
      name:
      - 大泉寺
    能登島須曽町20-59-1:
      latlng: ''
      name:
      - 先崎神社
    能登島須曽町7-36-2:
      latlng: ''
      name:
      - 須曽多目的共同利用施設
    能登島鰀目町55-73:
      latlng: ''
      name:
      - 鰀目多目的集会所
    藤野町リ-1:
      latlng: 37.02784237,136.96918454
      name:
      - 七尾市立七尾東部中学校
    西藤橋町エ1-1:
      latlng: 37.04328746,136.95961267
      name:
      - 石川県立七尾城北高等学校
    西藤橋町エ1の1:
      latlng: 37.04328746,136.95961267
      name:
      - 石川県立七尾高等学校
    郡町2-113-1:
      latlng: 37.04628479,136.97310560
      name:
      - 袖ヶ江保育園
    飯川町101-71:
      latlng: 37.00898217,136.93356933
      name:
      - あさひ保育園
    馬出町子部1-1:
      latlng: ''
      name:
      - 七尾市小丸山公園
    高田町マ80:
      latlng: 37.05814988,136.89207677
      name:
      - 七尾市立田鶴浜中学校
    鵜浦町上-59:
      latlng: 37.09627573,137.04599920
      name:
      - 崎山公民館
    鵜浦町下部20:
      latlng: ''
      name:
      - 七尾市立北星小学校
    黒崎町サ部20-1:
      latlng: ''
      name:
      - 七尾市立有磯小学校
    黒崎町ヲ部100-1:
      latlng: ''
      name:
      - 旧有磯小学校
    黒崎町関上野部342-8:
      latlng: ''
      name:
      - 南大呑公民館
  中能登町:
    一青く部22番地:
      latlng: 36.98868308,136.89940737
      name:
      - 鳥屋体育館
    一青く部49番地:
      latlng: 36.98868308,136.89940737
      name:
      - トレーニングセンターとりや
    一青く部52番地:
      latlng: 36.98868308,136.89940737
      name:
      - とりや児童館
    一青こ部19番地1:
      latlng: ''
      name:
      - ふるさと創修館
    一青人部3番16地:
      latlng: ''
      name:
      - 中能登町立鳥屋中学校
    一青人部5番8地:
      latlng: ''
      name:
      - 鳥屋武道館
    一青人部5番地1:
      latlng: ''
      name:
      - まなびや館
    上後山ホ部2番地:
      latlng: ''
      name:
      - 後山集会所
    二宮カ部58番地:
      latlng: ''
      name:
      - 中能登町立あおば保育園
    井田い部34番地:
      latlng: ''
      name:
      - 鹿島体育センター
    井田に部50番地:
      latlng: ''
      name:
      - 生涯学習センター「ラピア鹿島」
    井田ほ部25番地:
      latlng: ''
      name:
      - レクトピアパーク
    坪川リ部23番地:
      latlng: ''
      name:
      - ふれあい交流館「北部」
    川田ホ部42番地:
      latlng: ''
      name:
      - 古墳公園とりや
    春木3部18番地1:
      latlng: ''
      name:
      - 中能登町立たんぽぽ保育園
    末坂10部74番地:
      latlng: 36.98938028,136.90082383
      name:
      - ふれあいセンター
    末坂2部37番1地:
      latlng: ''
      name:
      - 老人福祉センターゆうゆう
    末坂2部57番地1:
      latlng: ''
      name:
      - 保健センターすくすく
    末坂9部43番地:
      latlng: 36.98923314,136.90257639
      name:
      - 社会福祉センター
    末坂ナ部7番地:
      latlng: ''
      name:
      - 中能登町立鳥屋小学校
    東馬場18部1番地:
      latlng: ''
      name:
      - ディサービスセンター「いこい」
    東馬場そ部11番地:
      latlng: ''
      name:
      - 中能登町運動公園
    水白19部1番地1:
      latlng: ''
      name:
      - 中能登町立つくし保育園
    瀬戸に部42番地:
      latlng: ''
      name:
      - 生活改善センター
    瀬戸カ部16番地:
      latlng: ''
      name:
      - ふるさと交流センター
    福田フ部111番地1:
      latlng: ''
      name:
      - 農村環境改善センター「パルみおや」
    能登部上チ部30番地:
      latlng: ''
      name:
      - デイサービスセンターひまわり
    能登部上ヘ部119番地1:
      latlng: ''
      name:
      - のとべ児童館
    能登部上ヲ部1:
      latlng: ''
      name:
      - 石川県立鹿西高等学校
    能登部下110部20番地:
      latlng: 36.96278511,136.86559783
      name:
      - 中能登町立鹿西小学校
    能登部下134部1番地:
      latlng: 36.96069080,136.85828472
      name:
      - カルチャーセンター飛翔
    能登部下46部1番地1:
      latlng: ''
      name:
      - 中能登町立さくら保育園
    能登部下76部112番地:
      latlng: 36.95881338,136.86243718
      name:
      - 児童交流センター
    能登部下90部57番地2:
      latlng: ''
      name:
      - 鹿西武道館
    能登部下91部23番地:
      latlng: 36.96105760,136.86691165
      name:
      - 中能登町立鹿西中学校
    能登部下93部21番地:
      latlng: 36.96207137,136.86802262
      name:
      - (旧)保健センターろくせい
    能登部下93部45番地:
      latlng: 36.96207137,136.86802262
      name:
      - 鹿西公民館
      - 励志館
    良川17部17番地1:
      latlng: ''
      name:
      - 能登テキスタイル・ラボ
    良川た部3番地:
      latlng: ''
      name:
      - 中能登町立こすもす保育園
    良川ち部15番地:
      latlng: ''
      name:
      - ラポールよしかわ
    西馬場エ部56番地:
      latlng: ''
      name:
      - 鹿寿苑
    西馬場ヘ部122番地:
      latlng: ''
      name:
      - 西馬場集会所
    金丸143番地:
      latlng: 36.95427225,136.85549361
      name:
      - 健康ハウス憩
    金丸932番地:
      latlng: 36.94717314,136.84217586
      name:
      - かねまる交流館
      - 旧金丸小学校グラウンド
    高畠原山分ハ1番地:
      latlng: 36.91967253,136.89130207
      name:
      - 石川県立鹿島少年自然の家
  内灘町:
    アカシア2丁目4番地:
      latlng: 36.63494772,136.63584517
      name:
      - アカシア公民館
    ハマナス2丁目140番地:
      latlng: ''
      name:
      - ハマナス児童公園
    ハマナス2丁目16番地1:
      latlng: 36.65458574,136.64295916
      name:
      - ハマナス公民館
    ハマナス2丁目185番地:
      latlng: ''
      name:
      - ハマナス恐竜公園
    千鳥台1丁目123番地:
      latlng: ''
      name:
      - 千鳥台公民館
    千鳥台2丁目360番地1:
      latlng: ''
      name:
      - 千鳥台第3公園
    千鳥台4丁目142番地:
      latlng: ''
      name:
      - はまちどり公園
    向粟崎1丁目412番地1:
      latlng: ''
      name:
      - 向粟崎運動公園
    向粟崎1丁目420番地:
      latlng: 36.63148705,136.63568685
      name:
      - 向粟崎体育館
    向粟崎2丁目382番地:
      latlng: 36.63652533,136.63746174
      name:
      - 向粟崎小学校
    向粟崎3丁目104番地:
      latlng: 36.63201470,136.63278146
      name:
      - 少年の家
    向粟崎5丁目85番地:
      latlng: 36.63859453,136.63808949
      name:
      - 向粟崎東集会場
    向陽台1丁目140番地:
      latlng: ''
      name:
      - 向陽台公園
    向陽台1丁目145番地2:
      latlng: 36.63807784,136.63380085
      name:
      - 働く女性の家
    向陽台2丁目294番地:
      latlng: 36.64090249,136.63395363
      name:
      - 清湖小学校
    大学1丁目4番地1他:
      latlng: 36.65919505,136.64889709
      name:
      - 大学第3公園
    大学2丁目119番地:
      latlng: 36.65507331,136.64871935
      name:
      - 大学公民館
      - 大学第2児童公園
    大根布3丁目150番地:
      latlng: 36.65186258,136.64878047
      name:
      - 内灘中央公民館
    大根布6丁目2番地:
      latlng: 36.64979888,136.64594454
      name:
      - 大根布小学校
    大根布7丁目62番地他:
      latlng: ''
      name:
      - 大根布児童公園
    大清台139番地1:
      latlng: ''
      name:
      - 大清台公園
    大清台140番地:
      latlng: 36.65084037,136.64364469
      name:
      - 内灘町文化会館
    字千鳥台3-1:
      latlng: 36.64140236,136.62970391
      name:
      - 石川県立内灘高等学校
    室イ79番地1:
      latlng: 36.68861171,136.67556430
      name:
      - 室公民館
    室ニ30番地他:
      latlng: ''
      name:
      - 室児童公園
    宮坂6字1番地1:
      latlng: 36.66603053,136.65660487
      name:
      - 宮坂公民館
      - 勤労者体育センター
    宮坂に1番地3:
      latlng: 36.66563326,136.65232738
      name:
      - サイクリングターミナル
    宮坂に1番地9:
      latlng: 36.66683591,136.65301067
      name:
      - 屋内温水プール
    宮坂に455番地:
      latlng: 36.66216424,136.65301902
      name:
      - 福祉センター(憩)
    宮坂に459番地他:
      latlng: ''
      name:
      - 内灘町総合公園
    宮坂に460:
      latlng: 36.66398344,136.65160522
      name:
      - 県立自転車競技場
    旭ヶ丘282番地:
      latlng: ''
      name:
      - 旭ヶ丘公民館
    白帆台1丁目215番地:
      latlng: 36.67014946,136.65555214
      name:
      - 白帆台公民館
    白帆台1丁目485番地:
      latlng: ''
      name:
      - 白帆台第2公園
    白帆台2丁目589番地:
      latlng: ''
      name:
      - 白帆台第3公園
    緑台1丁目243番地7:
      latlng: 36.63344504,136.63061771
      name:
      - 緑台公民館
    緑台1丁目271番地:
      latlng: ''
      name:
      - 緑台公園
    西荒屋ハ6番地7:
      latlng: 36.67835432,136.66727624
      name:
      - 西荒屋小学校
    西荒屋ハの24番地の4:
      latlng: ''
      name:
      - 勤労青少年ホーム
    西荒屋ロ1番地4他:
      latlng: ''
      name:
      - 西荒屋児童公園
    鶴ヶ丘2丁目159番地1:
      latlng: 36.64269967,136.64231701
      name:
      - 鶴ヶ丘東公民館
    鶴ヶ丘2丁目160番地1他:
      latlng: ''
      name:
      - 鶴ヶ丘東公園
    鶴ヶ丘2丁目162番地:
      latlng: 36.64354123,136.64236700
      name:
      - 鶴ヶ丘小学校
    鶴ヶ丘2丁目308番地:
      latlng: 36.64550769,136.64409467
      name:
      - 内灘中学校
    鶴ヶ丘2丁目308番地3:
      latlng: ''
      name:
      - 武道館
    鶴ヶ丘4丁目1番地187:
      latlng: ''
      name:
      - 鶴ヶ丘西公民館
    鶴ヶ丘5丁目1番地185:
      latlng: 36.64722965,136.64140595
      name:
      - 鶴ヶ丘北公民館
    鶴ヶ丘5丁目1番地44:
      latlng: ''
      name:
      - 鶴ヶ丘中央公園
  加賀市:
    三木町ニ126-1:
      latlng: 36.29306880,136.28439129
      name:
      - 三木地区会館
    三木町ニ98-1:
      latlng: ''
      name:
      - 加賀市立三木小学校
    上野町エ45-2:
      latlng: 36.29785383,136.37380678
      name:
      - 加賀市立山代中学校
    下河崎町ヘ102:
      latlng: 36.30741280,136.33342778
      name:
      - 南郷地区会館
    作見町ナ154:
      latlng: 36.32356410,136.35383327
      name:
      - 加賀市立作見小学校
    作見町ヨ36-1:
      latlng: 36.32414178,136.35306112
      name:
      - 作見地区会館
    分校町68-2:
      latlng: 36.32888904,136.40069183
      name:
      - 分校地区会館
    勅使町24:
      latlng: 36.30337581,136.38893822
      name:
      - 加賀市立勅使小学校
    勅使町ヌ24-1:
      latlng: 36.30374523,136.38960757
      name:
      - 勅使地区会館
    動橋町ナ14-1:
      latlng: ''
      name:
      - 動橋グラウンド
    動橋町ネ54-1:
      latlng: 36.32538088,136.38183839
      name:
      - 加賀市立東和中学校
    動橋町ヘ1-1:
      latlng: 36.32951643,136.38935974
      name:
      - 加賀市立動橋小学校
    動橋町ホ15-1:
      latlng: 36.33048569,136.38955694
      name:
      - 動橋児童センター
      - 動橋地区会館
    動橋町ム53:
      latlng: 36.33097157,136.37827203
      name:
      - 石川県立加賀高等学校
    吸坂町ヤ26:
      latlng: 36.30434383,136.33731085
      name:
      - 加賀市立南郷小学校
    塩屋町イ29-1:
      latlng: 36.29467394,136.25301153
      name:
      - 塩屋地区会館
    塩浜町104:
      latlng: 36.35005187,136.33375463
      name:
      - 加賀市立金明小学校
    塩浜町105:
      latlng: 36.35014075,136.33452956
      name:
      - 金明地区会館
    大聖寺京町1:
      latlng: 36.30728177,136.31045495
      name:
      - 大聖寺地区会館
    大聖寺八間道30-2:
      latlng: ''
      name:
      - 加賀市大聖寺テニスコート
    大聖寺八間道30番地:
      latlng: ''
      name:
      - 大聖寺簡易グラウンド
    大聖寺八間道57:
      latlng: 36.30860657,136.30723019
      name:
      - 加賀市立錦城小学校
    大聖寺地方町6乙74-1:
      latlng: 36.30003518,136.30266988
      name:
      - 加賀市立錦城中学校
    大聖寺地方町壱字14-2:
      latlng: ''
      name:
      - 大聖寺ふれあい広場古九谷の杜
    大聖寺敷地ワ13:
      latlng: 36.31212588,136.32302851
      name:
      - 加賀市立錦城東小学校
    大聖寺東町2丁目3-1:
      latlng: 36.30384898,136.31835993
      name:
      - 加賀体育館
    大聖寺東町2丁目3-2:
      latlng: ''
      name:
      - 加賀市武道館
    大聖寺永町33-1:
      latlng: 36.30959556,136.31926233
      name:
      - 石川県立大聖寺高等学校
    大聖寺瀬越町塩屋境山1-1:
      latlng: 36.29508781,136.25566120
      name:
      - 加賀市立緑丘小学校
    大聖寺馬場町28:
      latlng: 36.30591242,136.30735807
      name:
      - 石川県立加賀聖城高等学校
    大聖寺鷹匠町57-1:
      latlng: ''
      name:
      - 大聖寺老人児童センター
    小塩町ろ1:
      latlng: 36.34907956,136.31402306
      name:
      - 加賀市立橋立中学校
    小塩町ケ50:
      latlng: 36.34990443,136.31299258
      name:
      - 加賀市立橋立小学校
    山中温泉こおろぎ町イ19:
      latlng: 36.23761393,136.36735171
      name:
      - 山中温泉ゆけむり健康村
    山中温泉上原町ト甲1-1:
      latlng: 36.25420339,136.36403463
      name:
      - 加賀市立山中中学校
    山中温泉上野町ル15-9:
      latlng: 36.25341748,136.36834812
      name:
      - 加賀市立山中小学校
    山中温泉中津原町ち1:
      latlng: ''
      name:
      - 東谷農村公園
    山中温泉中津原町ハ5-1:
      latlng: 36.26226995,136.39715048
      name:
      - 加賀市立中津原保育園
    山中温泉中田町ニ25-1:
      latlng: 36.27004003,136.35653211
      name:
      - 加賀市立河南小学校
    山中温泉加美谷台二丁目2:
      latlng: 36.25523661,136.36502894
      name:
      - 山中健民体育館・駐車場
    山中温泉東桂木町ヌ11-2:
      latlng: ''
      name:
      - 山中球場
    山中温泉東桂木町ヌ11-8:
      latlng: ''
      name:
      - 山中武道館
    山中温泉荒谷町ト20:
      latlng: ''
      name:
      - 東谷生活改善センター
    山中温泉菅谷町ニ32:
      latlng: 36.22966478,136.36226086
      name:
      - 加賀市立菅谷小学校
    山中温泉西桂木町ト-5-1:
      latlng: ''
      name:
      - 山中温泉文化会館
    山中温泉長谷田町ロ341:
      latlng: 36.26799311,136.35781258
      name:
      - 加賀市立河南保育園・運動場
    山代温泉ヨ22-2:
      latlng: 36.28899337,136.35846731
      name:
      - 山代老人児童センター
    山代温泉北部2丁目68:
      latlng: 36.29695079,136.35759767
      name:
      - 加賀市文化会館
    山代温泉山林16-60:
      latlng: ''
      name:
      - 松籟公園
      - 山代グラウンド
    山代温泉山背台1丁目60:
      latlng: 36.29157643,136.35922545
      name:
      - 山代地区会館
    山代温泉山背台2丁目44-1:
      latlng: 36.29208467,136.35772562
      name:
      - 加賀市立山代小学校
    山代温泉桔梗ケ丘3丁目47-2:
      latlng: ''
      name:
      - 桔梗ケ丘広場
    山田町リ245-2:
      latlng: 36.32454957,136.33171625
      name:
      - 加賀市中央公園
      - 加賀市スポーツセンター
    庄町ワ101-1:
      latlng: 36.31289091,136.37413678
      name:
      - 加賀市立庄小学校
    庄町ワ142-1:
      latlng: 36.31243266,136.37468951
      name:
      - 庄地区会館
    打越町ニ22:
      latlng: 36.32933617,136.40075016
      name:
      - 加賀市立分校小学校
    曽宇町ホ7:
      latlng: 36.28574282,136.32104671
      name:
      - 三谷地区会館
    松が丘1丁目8-1:
      latlng: ''
      name:
      - 作見児童センター
    柴山町ひ92-1:
      latlng: 36.35789766,136.36773689
      name:
      - 加賀市立湖北小学校
    柴山町も33:
      latlng: 36.35811988,136.36648980
      name:
      - 湖北地区会館
    橋立町ロ357:
      latlng: 36.35084317,136.31140103
      name:
      - 橋立地区会館
    水田丸町チ12:
      latlng: 36.28422254,136.39120552
      name:
      - 東谷口地区会館
    水田丸町ヌ36-1:
      latlng: 36.28470022,136.39012782
      name:
      - 加賀市立東谷口小学校
    潮津町イ106:
      latlng: 36.35280142,136.36244865
      name:
      - 柴山潟湖畔公園
    潮津町ソ1:
      latlng: 36.35041227,136.35095508
      name:
      - 加賀市片山津野球場
      - 加賀市ソフトボール場
    潮津町レ1-1:
      latlng: 36.35129079,136.34933918
      name:
      - 加賀市立片山津中学校
    熊坂町ヲ77:
      latlng: 36.29803266,136.30483645
      name:
      - 石川県立大聖寺実業高等学校
    片山津温泉7-1-1:
      latlng: 36.34496097,136.36494281
      name:
      - 片山津地区会館
    片山津温泉ヒ19-1:
      latlng: ''
      name:
      - 片山津老人児童センター
    片山津町ス丙21:
      latlng: 36.33977569,136.36603154
      name:
      - 加賀市立片山津小学校
    直下町ニ丙73:
      latlng: 36.28329875,136.32457705
      name:
      - 加賀市立三谷小学校
    黒崎町め23:
      latlng: 36.33509245,136.29556123
      name:
      - 加賀市立黒崎小学校
  宝達志水町:
    上田キ50番地:
      latlng: 36.81289295,136.77399471
      name:
      - 宝達志水町立宝達小学校体育館
    今浜イ4番地1:
      latlng: 36.82655735,136.75047162
      name:
      - 押水総合体育館
      - 宝達志水町武道館
      - 押水運動公園野球場
    今浜ト80:
      latlng: 36.82439114,136.76047626
      name:
      - 石川県立宝達高等学校(建物のみ)
    冬野ヲ2番地:
      latlng: 36.79846015,136.75010626
      name:
      - 宝達志水町立押水第一小学校体育館
    北川尻ミ1番地15:
      latlng: 36.80698444,136.75005866
      name:
      - 宝達志水広域勤労青少年ホーム
    北川尻ミ1番地5:
      latlng: ''
      name:
      - 宝達志水町民サッカー場
      - 宝達志水町民ソフトボール場
    吉野屋ヲ156番地:
      latlng: 36.85963716,136.80450022
      name:
      - 志雄運動公園体育センター
      - 志雄運動公園野球場
    子浦ツ18番地:
      latlng: 36.86260041,136.79313201
      name:
      - 宝達志水町立志雄小学校体育館
    子浦ツ57番地:
      latlng: 36.86167834,136.79436803
      name:
      - 宝達志水町立中央保育所遊戯室
    子浦ロ130番地:
      latlng: 36.86641381,136.79562594
      name:
      - 宝達志水町立志雄中学校体育館
    子浦子65番地:
      latlng: ''
      name:
      - 蓮華山公園
    小川カ123番地:
      latlng: 36.81932509,136.75662133
      name:
      - 宝達志水町立押水中学校体育館
    敷波ロ44番地:
      latlng: 36.85672313,136.77559821
      name:
      - 白虎山公園簡易野球場
    敷浪5号10番:
      latlng: ''
      name:
      - やわらぎの郷公園
    河原ト120番地:
      latlng: 36.81800325,136.76715082
      name:
      - 宝達志水町押水農村環境改善センター・産業センター
      - 宝達志水町山村広場
    荻島に11番地1:
      latlng: 36.85729532,136.77786460
      name:
      - 宝達志水町立南部保育所遊戯室
    荻島に30番地:
      latlng: 36.85647598,136.77766188
      name:
      - 宝達志水町樋川小学校体育館
    門前サ11番地:
      latlng: 36.81634501,136.76394569
      name:
      - 宝達志水町民センター
    麦生ト133番地:
      latlng: 36.83004304,136.75543764
      name:
      - 宝達志水町立相見小学校体育館
  小松市:
    三谷町ら58他:
      latlng: 36.36686952,136.45099947
      name:
      - 木場潟公園
    下牧町69:
      latlng: 36.40400609,136.43714937
      name:
      - 小松総合体育館
    下粟津町ク101-1:
      latlng: 36.33913860,136.42645272
      name:
      - 小松市立矢田野小学校
    下粟津町コ55-8:
      latlng: ''
      name:
      - さわ池ふれあいパーク
    中海町山林ニ8-1:
      latlng: 36.39754340,136.51861775
      name:
      - 小松市立中海小学校
    串町乙1-1:
      latlng: 36.37049117,136.42262199
      name:
      - 小松市立串小学校
    丸の内公園町19-1:
      latlng: ''
      name:
      - 芦城公園
    丸内町二ノ丸15:
      latlng: 36.41187183,136.44697045
      name:
      - 石川県立小松高等学校
    丸山町ヌ150:
      latlng: 36.24951831,136.53936419
      name:
      - 丸山研修センター
    井口町チ24:
      latlng: 36.33560192,136.44783370
      name:
      - 小松市立粟津小学校
    今江町一丁目542-1:
      latlng: ''
      name:
      - 今江ふれあい公園
    今江町六丁目167:
      latlng: 36.38025565,136.43688891
      name:
      - 小松市立今江小学校
    八幡ト1:
      latlng: 36.39907809,136.49330664
      name:
      - 小松市立高校
    北浅井町ヌ16-1:
      latlng: 36.38845579,136.46477845
      name:
      - 小松市立苗代小学校
    向本折町寅188:
      latlng: 36.39260630,136.44362141
      name:
      - 小松市立向本折小学校
    四丁町ヌ1-3:
      latlng: 36.35485388,136.41717617
      name:
      - 小松短期大学
    国府台四丁目157:
      latlng: ''
      name:
      - 国府台中央公園
    土居原町710:
      latlng: 36.40324929,136.45229821
      name:
      - 石川県こまつ芸術劇場うらら
    土居原町711:
      latlng: ''
      name:
      - 市民公園
    大島町丙42-3:
      latlng: 36.42329753,136.44650630
      name:
      - 小松市民センター体育館
    大川町二丁目12:
      latlng: ''
      name:
      - 小松市北部地区体育館
    大杉町イ98:
      latlng: 36.25345388,136.49112152
      name:
      - 小松市立少年自然の家体育館
    大杉町マ52:
      latlng: 36.25937289,136.50818064
      name:
      - 小松市立大杉青年の家体育館
    大野町子43:
      latlng: 36.36467474,136.49659305
      name:
      - 小松市立金野小学校
    大領町な70-2:
      latlng: 36.38668869,136.45292647
      name:
      - 小松市松陽地区体育館
    大領町イ103:
      latlng: 36.38894637,136.44963495
      name:
      - 小松市立松陽中学校
    安宅町安宅林4-112:
      latlng: 36.41566077,136.42149220
      name:
      - 小松市立安宅中学校
      - 小松市西部地区体育館
    安宅町安宅林5:
      latlng: 36.41621898,136.42093946
      name:
      - 小松市立安宅小学校
    小寺町甲27:
      latlng: 36.41378875,136.45239227
      name:
      - 小松市立丸内中学校
    小野町己152-2:
      latlng: ''
      name:
      - 小松市立国府中学校
    島田町イ85-1:
      latlng: 36.42155231,136.46299968
      name:
      - 石川県立小松北高等学校
    島町ヌ43:
      latlng: 36.34923933,136.42565556
      name:
      - 小松市立南部中学校
    希望丘10:
      latlng: 36.39957553,136.49814507
      name:
      - 石川県立小松商業高等学校
    平面町ヘ72:
      latlng: 36.41754790,136.46689125
      name:
      - 石川県立小松明峰高等学校
    打越町丙67:
      latlng: 36.39981544,136.47184987
      name:
      - 石川県立小松工業高等学校
    日末町ニ52:
      latlng: 36.38060767,136.40002735
      name:
      - 小松市立日末小学校
    月津町ユ113:
      latlng: 36.35255070,136.40451667
      name:
      - 小松市立月津小学校
    木場町わ1:
      latlng: ''
      name:
      - 小松市立木場小学校
    木場町ユ3-7:
      latlng: 36.36388952,136.45367992
      name:
      - 小松市木場潟スポーツ研修センター
    末広町2:
      latlng: 36.40057366,136.43895211
      name:
      - 小松運動公園
    末広町72:
      latlng: 36.40258174,136.44121852
      name:
      - 末広体育館
    村松町19:
      latlng: 36.37267357,136.41705327
      name:
      - 小松市御幸地区体育館
    村松町50:
      latlng: 36.37265665,136.41492582
      name:
      - 小松市立御幸中学校
    松梨町丙8:
      latlng: 36.42435163,136.46144134
      name:
      - 小松市立板津中学校
    林町ほ5:
      latlng: 36.33916720,136.43467392
      name:
      - こまつドーム
    桜木町104-3:
      latlng: 36.40449504,136.43916307
      name:
      - 小松市桜木体育館
    殿町二丁目7:
      latlng: 36.41028908,136.44916203
      name:
      - 小松市立稚松小学校
    江指町丙30:
      latlng: 36.36013064,136.49119081
      name:
      - 小松市立松東中学校
    河田町丁40-1:
      latlng: 36.41012194,136.51202382
      name:
      - 小松市立国府小学校
    河田町子109:
      latlng: 36.41734590,136.51115158
      name:
      - 小松市国府地区体育館
    波佐谷町子27:
      latlng: 36.33786620,136.47932271
      name:
      - 小松市立波佐谷小学校
    滝ケ原町ウ19-2:
      latlng: 36.29800233,136.42448491
      name:
      - 里山自然学校こまつ滝ヶ原
    瀬領町丁138-1:
      latlng: 36.33008112,136.48596676
      name:
      - 石川県立小松瀬領特別支援学校(体育館・運動場)
    犬丸町甲61:
      latlng: 36.42793965,136.45956354
      name:
      - 小松市立犬丸小学校
    白江町ハ73-1:
      latlng: 36.40347348,136.47636611
      name:
      - 小松市立第一小学校
    矢田野町ホ10:
      latlng: ''
      name:
      - 小松市南部地区児童体育館
    矢田野町ワ1-1:
      latlng: 36.33771014,136.41495413
      name:
      - 南部児童公園
    符津町ハ100:
      latlng: 36.35706650,136.43182402
      name:
      - 小松市立符津小学校
    符津町念仏3-1:
      latlng: 36.35504038,136.42053955
      name:
      - いしかわ子ども交流センター小松館
    符津町念仏3-1他:
      latlng: 36.35504038,136.42053955
      name:
      - 粟津公園
    符津町念仏ケ2-7:
      latlng: ''
      name:
      - 小松サン・アビリティーズ体育館
    粟津町ル6-1:
      latlng: ''
      name:
      - 粟津おっしょべ公園
    能美町ソ51:
      latlng: 36.41109215,136.48281821
      name:
      - 小松市立能美小学校
    芦田町二丁目69:
      latlng: 36.40415098,136.44295998
      name:
      - 小松市立芦城中学校
    荒屋町ほ1:
      latlng: 36.43291539,136.47377648
      name:
      - 小松市立荒屋小学校
    蓮代寺町ハ丙16:
      latlng: 36.37496933,136.46967026
      name:
      - 小松市立蓮代寺小学校
    西俣町ニ301:
      latlng: 36.30705411,136.51750634
      name:
      - 小松市立西俣自然教室
    西町25:
      latlng: 36.40483998,136.44604302
      name:
      - 小松市立芦城小学校
    西軽海町一丁目41:
      latlng: 36.39922015,136.50075868
      name:
      - 小松市立東陵小学校
    西軽海町二丁目204-14:
      latlng: 36.39505987,136.50536385
      name:
      - 東部地区拠点避難地
    西軽海町四丁目99:
      latlng: 36.39563177,136.50021165
      name:
      - 軽海中央公園
    観音下町ロ48:
      latlng: 36.33370406,136.52601300
      name:
      - 小松市立西尾小学校
    軽海町ヲ22:
      latlng: 36.39859294,136.51055759
      name:
      - 小松市中海地区体育館
    軽海町弐号4-1:
      latlng: ''
      name:
      - 小松市立中海中学校
    那谷町ユ54:
      latlng: 36.31423935,136.42311471
      name:
      - 小松市立那谷小学校
    金平町丁76:
      latlng: 36.35480963,136.50724763
      name:
      - 石川県立小松特別支援学校(体育館・運動場)
    長田町ル146:
      latlng: 36.42407417,136.46395232
      name:
      - 小松市板津地区体育館
    長谷町49:
      latlng: 36.35732521,136.48543304
      name:
      - 小松市ふれあい松東
    青路町130:
      latlng: 36.36510934,136.42854640
      name:
      - 小松産業技術専門校庁舎
  川北町:
    中島ワ128-2:
      latlng: ''
      name:
      - 東部地区学習等供用施設
    中島ワ17:
      latlng: 36.46462779,136.58643500
      name:
      - 川北町立中島小学校
    壱ツ屋101-1:
      latlng: ''
      name:
      - 川北町総合体育館
    壱ツ屋174:
      latlng: 36.46890957,136.54186709
      name:
      - 中部地区学習等供用施設
      - 百寿会館
    壱ツ屋チ82:
      latlng: 36.47290628,136.54413060
      name:
      - 川北町立川北中学校
    壱ツ屋チ85:
      latlng: 36.46882079,136.54632489
      name:
      - 川北町武道館
    壱ツ屋ヲ25-1:
      latlng: 36.47225082,136.54444725
      name:
      - 川北町立川北小学校
    橘ソ68:
      latlng: 36.47306309,136.50877613
      name:
      - 川北町立橘小学校
    橘ロ59-1:
      latlng: ''
      name:
      - 西部地区学習等供用施設
  志賀町:
    三明リ-117-1:
      latlng: ''
      name:
      - 熊野地区多目的集会所
    上野ニの55-1:
      latlng: ''
      name:
      - 志加浦保育園
    上野ニの82-1:
      latlng: 37.01869736,136.74582357
      name:
      - 志賀町立志加浦小学校
    上野整135:
      latlng: ''
      name:
      - 志加浦公民館
    二所宮ノの59-2:
      latlng: ''
      name:
      - 下甘田保育園
    二所宮ノの80-1:
      latlng: 36.98444276,136.80723045
      name:
      - 志賀町立下甘田小学校
    仏木マの4甲:
      latlng: 37.05412528,136.80306865
      name:
      - 志賀町立土田小学校
    代田223:
      latlng: 37.05315910,136.81474798
      name:
      - 土田公民館
    代田9-1甲:
      latlng: ''
      name:
      - シルバーハウス
    倉垣42-14:
      latlng: 37.00589889,136.81686438
      name:
      - 志賀町立加茂小学校
    倉垣かの5:
      latlng: 37.01076494,136.81786398
      name:
      - 加茂高齢者センター
    堀松への1-1:
      latlng: 37.02332053,136.78634439
      name:
      - 志賀町林業拠点センター
    堀松ヨの60:
      latlng: ''
      name:
      - 志賀町立堀松小学校
    堀松辰の40:
      latlng: 37.02144289,136.78337535
      name:
      - 堀松保育園
    大福寺ニ-171:
      latlng: 37.18981776,136.71704137
      name:
      - 能登富士ふれあいセンター
    大西ホの11:
      latlng: ''
      name:
      - 稗造スポーツセンター
    富来地頭町27-10:
      latlng: ''
      name:
      - 荒木ヶ丘山村広場
    富来地頭町7-110-1:
      latlng: 37.13737974,136.72936281
      name:
      - 志賀町立富来病院
    富来地頭町乙-150-2:
      latlng: ''
      name:
      - すみれ作業所
    富来地頭町甲137-2:
      latlng: ''
      name:
      - 富来女性センター
    富来領家ツ1-26:
      latlng: 37.14582878,136.72863461
      name:
      - 県立富来健民ホッケー競技場
    富来領家町49:
      latlng: 37.14344833,136.72380466
      name:
      - 富来町農業協同組合
    富来領家町タ-2-11:
      latlng: ''
      name:
      - ふるさと文化センター
    富来領家町ツ-1-26:
      latlng: ''
      name:
      - とぎ保育園
      - 富来健民ホッケー場
    富来領家町甲-10:
      latlng: 37.14425941,136.72543223
      name:
      - 富来支所・富来地域センター
    富来高田2-41:
      latlng: 37.14404308,136.73503409
      name:
      - 旧富来小学校運動場
    志賀町上野ニ16-18-1:
      latlng: ''
      name:
      - 志賀町民野球場
    志賀町町へ1-1:
      latlng: 37.00470021,136.77062192
      name:
      - 志賀町営陸上競技場
    志賀町若葉台47-13:
      latlng: 37.07122736,136.75431994
      name:
      - 若葉台公園ソフトボール場
    志賀町長沢リ58:
      latlng: ''
      name:
      - 中甘田簡易スポーツ施設
    志賀町高浜町ヨ1-1:
      latlng: 37.00617780,136.77110514
      name:
      - 志賀町柴木運動公園
    町への1-1:
      latlng: 37.02480828,136.76348277
      name:
      - 志賀町総合体育館
      - 志賀町総合武道館
    直海れの3:
      latlng: 37.07061977,136.77941191
      name:
      - 上熊野公民館
    直海ムの16:
      latlng: 37.07107252,136.78041178
      name:
      - 志賀町立上熊野小学校
    相神に-80:
      latlng: 37.15636331,136.71755174
      name:
      - 志賀町立富来小学校
    福井12-24:
      latlng: 36.98639247,136.80054765
      name:
      - やすらぎ荘
    福浦港4-4-2:
      latlng: 37.07768378,136.72331409
      name:
      - 旧福浦小学校
    福浦港メ-213:
      latlng: 37.08238613,136.72699408
      name:
      - 福浦港漁村センター
    福浦港浦42-1:
      latlng: ''
      name:
      - 福浦みなと会館
    笹波ツ-69:
      latlng: ''
      name:
      - 笹波集会所
    舘32-1:
      latlng: ''
      name:
      - 下甘田地区多目的研修集会施設
    舘開への1:
      latlng: 37.05309555,136.82541076
      name:
      - 土田保育園
    若葉台47-13:
      latlng: 37.07122736,136.75431994
      name:
      - 若葉台共同福祉施設
    若葉台47-14:
      latlng: ''
      name:
      - 若葉台体育館
    草木ヨ-31:
      latlng: ''
      name:
      - 旧熊野小学校運動場
    草木ヨ31:
      latlng: ''
      name:
      - 熊野工芸工房
    西山台1-1:
      latlng: 37.00740293,136.79932252
      name:
      - 志賀町地域交流センター
    西海千ノ浦東75:
      latlng: ''
      name:
      - 千浦会館
    西海風戸ヌ-8-2:
      latlng: ''
      name:
      - 石川とぎ漁協
    西海風無ヲ-26:
      latlng: 37.14005843,136.68643080
      name:
      - 高齢者等活性化センター
    西海風無ヲ17-2:
      latlng: 37.14042226,136.68607804
      name:
      - 旧西海保育所
    西海風無新60:
      latlng: 37.14372204,136.69039690
      name:
      - 旧西海小学校
    赤住8-23:
      latlng: ''
      name:
      - 赤住公民館
    赤住ハの4-1:
      latlng: 37.04982102,136.74047501
      name:
      - はまなす園
    赤崎ロ-241:
      latlng: 37.16812444,136.67905480
      name:
      - 赤崎構造改善センター
    酒見 松田250:
      latlng: ''
      name:
      - 酒見構造改善センター
    酒見松田254:
      latlng: ''
      name:
      - 酒見ゲートボール場
    里本江48-33-2:
      latlng: 37.14588958,136.71956050
      name:
      - 志賀町勤労者体育センター
    里本江53-42:
      latlng: 37.15185842,136.72131830
      name:
      - ますほ保育園
    里本江53-6-6:
      latlng: 37.15041132,136.72040459
      name:
      - 富来サイクリングターミナル
    里本江53-83:
      latlng: ''
      name:
      - 東増穂地区コミュニティセンター
    里本江ヘ101:
      latlng: 37.15241692,136.72852589
      name:
      - 志賀町立富来中学校
    長沢リの24-1:
      latlng: ''
      name:
      - 中甘田地区多目的研修集会施設
    高浜町オの117-2:
      latlng: 37.00410043,136.77383829
      name:
      - 高浜保育園
    高浜町カの1-1:
      latlng: 37.01021353,136.77533784
      name:
      - 志賀町文化ホール
    高浜町カの1-2:
      latlng: 37.00991908,136.77416853
      name:
      - 志賀町立図書館
    高浜町ノ170:
      latlng: 37.00132850,136.77158587
      name:
      - 石川県立志賀高等学校
    高浜町ノの369:
      latlng: ''
      name:
      - 志賀町立志賀中学校
    高浜町マの14-1:
      latlng: 36.99800154,136.78006019
      name:
      - 志賀町立高浜小学校
      - 志賀町高浜体育館
    鵜野屋ロ-111:
      latlng: ''
      name:
      - 旧稗造小学校体育館
    鹿頭と-122-1:
      latlng: ''
      name:
      - 旧西浦小学校
    鹿頭ト-41-甲:
      latlng: ''
      name:
      - 旧西浦保育所
    鹿頭ヘ-130-甲:
      latlng: ''
      name:
      - 西浦地区コミュニティセンター
  津幡町:
    七野イ75番地:
      latlng: 36.65716221,136.76163861
      name:
      - 津幡町立萩野台小学校
      - 津幡町萩野台コミュニティプラザ
    七黒ぬ6番地:
      latlng: 36.68873655,136.77497553
      name:
      - 津幡町立笠谷保育園
    上河合ロ23番地1:
      latlng: 36.73774759,136.79733622
      name:
      - 河合谷ふれあいセンター
    下河合チ57番地:
      latlng: 36.73828335,136.79125620
      name:
      - 旧河合谷小学校
    中橋イ55番地1:
      latlng: 36.67256214,136.72018411
      name:
      - 津幡町立井上保育園
    井上の荘1丁目1番地:
      latlng: 36.67165390,136.71982861
      name:
      - 津幡町立井上小学校
    倉見レ1番地1:
      latlng: 36.67524614,136.75935499
      name:
      - 津幡町笠井公民館
    刈安イ1番地:
      latlng: 36.66979211,136.78813021
      name:
      - 津幡町立刈安小学校
    刈安甲5番地:
      latlng: 36.67008650,136.78758025
      name:
      - 津幡町刈安コミュニティプラザ
    加賀爪ヌ6番地1:
      latlng: 36.66709641,136.73757964
      name:
      - 津幡町立津幡中学校
    北中条8号73番地1:
      latlng: ''
      name:
      - 津幡町立中条東保育園
    北中条タ-1:
      latlng: 36.66117761,136.73851860
      name:
      - 石川工業高等専門学校
    北中条土3丁目1番地:
      latlng: ''
      name:
      - 文化会館シグナス
    南中条3号7番地:
      latlng: 36.65972738,136.72121210
      name:
      - 津幡町立津幡南中学校
    南中条ヘ81番地:
      latlng: 36.65862209,136.72761428
      name:
      - 津幡町立中条小学校
      - 津幡町中条公民館
    大坪ハ62番地の1:
      latlng: 36.65361810,136.75924731
      name:
      - 津幡町立萩坂保育園
    太田は125番地:
      latlng: 36.65555554,136.71924022
      name:
      - 津幡町立中条南保育園
    太田ろ3番地:
      latlng: 36.65416123,136.71886807
      name:
      - 津幡町立条南小学校
      - 津幡町条南コミュニティプラザ
    太田ろ64:
      latlng: ''
      name:
      - 中条公園
    字加賀爪ヲ45:
      latlng: 36.66788257,136.74268739
      name:
      - 石川県立津幡高等学校
    字鳥越ハ2-2:
      latlng: 36.69044156,136.76261553
      name:
      - 森林公園
    山北ワ116番地:
      latlng: 36.69291665,136.77707806
      name:
      - 津幡町立笠野小学校
      - 津幡町笠野公民館
    川尻ホ26:
      latlng: ''
      name:
      - 石川県津幡簡易グラウンド
    川尻レ7番地1:
      latlng: 36.67215384,136.71962306
      name:
      - 津幡町井上コミュニティプラザ
    庄ニ71番地:
      latlng: 36.67471755,136.72555017
      name:
      - 津幡町立つばた幼稚園
    庄ハ1-2:
      latlng: ''
      name:
      - 住吉公園
    庄ロ79-1:
      latlng: 36.67464814,136.72691670
      name:
      - サンライフ津幡
    横浜い5-2:
      latlng: ''
      name:
      - しらとり児童公園
    横浜に1-1:
      latlng: ''
      name:
      - 中央公園
    津幡ロ128番地:
      latlng: 36.67090706,136.73551865
      name:
      - 津幡町津幡公民館
    津幡ロ5番地の1:
      latlng: 36.67065987,136.73587139
      name:
      - 津幡町立実生保育園
    津幡ワ2番地:
      latlng: 36.67289055,136.74808392
      name:
      - 津幡町立太白台小学校
    津幡ワ61番地:
      latlng: 36.67131846,136.74725626
      name:
      - 津幡町立太白台保育園
    清水リ1番地1:
      latlng: ''
      name:
      - 津幡町立津幡小学校
    清水リ336-1:
      latlng: 36.67256521,136.73562417
      name:
      - ふれあい広場
    種ニ6の2番地:
      latlng: 36.72449525,136.76037601
      name:
      - 津幡町立種保育園
    竹橋ヤ123番地:
      latlng: ''
      name:
      - 津幡町立竹橋保育園
    竹橋西239-4:
      latlng: ''
      name:
      - 倶利伽羅源平の郷竹橋口芝生広場
    能瀬ノ60番地:
      latlng: 36.69351266,136.72706912
      name:
      - 英田コミュニティプラザ
    能瀬井36番地:
      latlng: 36.69315715,136.72687749
      name:
      - 津幡町立英田小学校
    越中坂ろ90番地:
      latlng: ''
      name:
      - 津幡町立寺尾保育園
    領家イ5番地:
      latlng: 36.69571239,136.72436104
      name:
      - 津幡町立能瀬保育園
  珠洲市:
    三崎町宇治ヨ-114:
      latlng: 37.47396928,137.34242459
      name:
      - 珠洲市立三崎中学校
    三崎町宇治ヲ-7:
      latlng: 37.46818110,137.34112217
      name:
      - 三崎デイサービスセンター前
    三崎町寺家4-2:
      latlng: 37.49766359,137.34553133
      name:
      - 三崎町須々神社
    三崎町寺家ケ-4:
      latlng: ''
      name:
      - 三崎町寺家塩津上野集会所
    三崎町小泊17-33-1:
      latlng: 37.45110322,137.35849337
      name:
      - 珠洲市立小泊保育所
      - 金沢大学能登半島里山里海自然学校
    三崎町小泊イ-5:
      latlng: ''
      name:
      - 小泊バイパス道路(主要地方道大谷・狼煙・飯田線)
    三崎町粟津ロ-10-1:
      latlng: ''
      name:
      - 珠洲市立みさき小学校
    三崎町雲津ト-48:
      latlng: 37.44803355,137.33638165
      name:
      - 三崎町雲津上野地内
    三崎町高波カ-36:
      latlng: 37.46528185,137.35404048
      name:
      - 三崎町高波穴田宅前(主要地方道大谷・狼煙・飯田線)
    上戸町北方1-6-2:
      latlng: 37.43636904,137.26040520
      name:
      - 珠洲市産業センター
    上戸町南方レ-78:
      latlng: ''
      name:
      - 随念多目的集会施設
    上戸町寺社11-41-乙:
      latlng: ''
      name:
      - 上戸町高照寺
    上戸町寺社5-74-2:
      latlng: 37.42723654,137.24993131
      name:
      - 珠洲市立上戸小学校
    仁江町6-1-1:
      latlng: ''
      name:
      - 林道仁江線中谷宅上
    大谷町1-78:
      latlng: 37.49994536,137.17637420
      name:
      - 珠洲市立大谷中学校
    大谷町2-47-甲:
      latlng: ''
      name:
      - 珠洲市立西部小学校
    宝立町春日野4-117:
      latlng: 37.41131827,137.24027158
      name:
      - 特別養護老人ホーム 長寿園
    宝立町春日野45-49:
      latlng: ''
      name:
      - 上戸宝立ライスセンター
    宝立町柏原46-3:
      latlng: ''
      name:
      - 柏原集会所
    宝立町柏原8-2-乙:
      latlng: ''
      name:
      - 市道63号線(通称びや坂)
    宝立町鵜島21-92-2:
      latlng: ''
      name:
      - のと線旧鵜島駅
    宝立町鵜島4-30:
      latlng: 37.39700848,137.23708628
      name:
      - 旧宝立小学校体育館
    宝立町鵜飼1-1:
      latlng: 37.40406616,137.24019128
      name:
      - 宝立鵜飼妙厳寺
    宝立町鵜飼丑-83:
      latlng: 37.40323563,137.23799430
      name:
      - 珠洲市立宝立小中学校
    川浦町1-3:
      latlng: 37.52667813,137.30425974
      name:
      - 川浦町等覚寺
    折戸町イ19:
      latlng: 37.52640275,137.28051754
      name:
      - 折戸永誓寺
    折戸町チ-34:
      latlng: 37.52540288,137.28138139
      name:
      - 旧日置保育所
    折戸町ヌ-8:
      latlng: 37.52556401,137.28333399
      name:
      - 旧日置小中学校
    折戸町ホ-25-1:
      latlng: ''
      name:
      - 国民宿舎きのうら荘
    正院町川尻1-39:
      latlng: 37.44543550,137.29650475
      name:
      - 珠洲市立正院小学校
    狼煙町イ-218:
      latlng: ''
      name:
      - 狼煙運動公園
    狼煙町ヘ-90:
      latlng: 37.52565394,137.32572085
      name:
      - 禄剛崎灯台台地
    真浦町ソ-9:
      latlng: ''
      name:
      - 真浦集会場
    若山町上黒丸10-34:
      latlng: 37.45324793,137.16877081
      name:
      - 旧上黒丸小学校
    若山町出田15-53:
      latlng: 37.44909253,137.26138812
      name:
      - 若山出田西光寺
    若山町出田41-7:
      latlng: 37.44072413,137.26282712
      name:
      - 珠洲市立飯田保育所
    若山町古蔵11-100-1:
      latlng: 37.45647729,137.24263101
      name:
      - 珠洲市立若山小学校
    蛸島町4-12:
      latlng: ''
      name:
      - 市道600号線(花卉栽培センター坂)
    蛸島町テ-71:
      latlng: 37.45132980,137.31758603
      name:
      - 清掃センター
    蛸島町ナ-118:
      latlng: ''
      name:
      - 蛸島町弁天公園
    蛸島町ワ-69:
      latlng: 37.44281409,137.31352830
      name:
      - 珠洲市立蛸島小学校
    蛸島町鉢ヶ崎1-4:
      latlng: ''
      name:
      - 珠洲市営野球場
    野-江町6-1:
      latlng: ''
      name:
      - 珠洲市立緑丘中学校
    野-江町セ-17-1:
      latlng: ''
      name:
      - 珠洲市健民体育館
    野-江町ニ-38-2:
      latlng: ''
      name:
      - 珠洲市立直小学校
    野-江町ユ-40-1:
      latlng: ''
      name:
      - 珠洲市農協会館
    野々江町1字1:
      latlng: 37.44854823,137.26494343
      name:
      - 石川県立飯田高等学校
    長橋町25-17:
      latlng: ''
      name:
      - 長橋町曹源寺
    飯田町17-49:
      latlng: 37.43787441,137.26044404
      name:
      - 飯田春日神社
    飯田町19-61:
      latlng: 37.43995471,137.25978015
      name:
      - 珠洲市立飯田小学校
    飯田町9-83-2:
      latlng: 37.44121853,137.26354927
      name:
      - 珠洲市中央図書館
    馬緤町16-198-2:
      latlng: 37.50515690,137.21244338
      name:
      - 馬緤町守禅寺
    馬緤町17-17:
      latlng: 37.50719566,137.21701242
      name:
      - 市道38号線(馬緤町中谷宅前)
    馬緤町9-140:
      latlng: 37.50618146,137.20091089
      name:
      - 馬緤町本光寺
    高屋町ワ-33:
      latlng: 37.51747538,137.23552981
      name:
      - 高屋町円龍寺
  白山市:
    七原町77:
      latlng: 36.48369741,136.59804743
      name:
      - 鶴来総合文化会館
    三ツ屋野町ロ133番地1:
      latlng: 36.32106140,136.64156622
      name:
      - 三ッ屋野地区多目的研修集会センター
    三坂町チ73番地:
      latlng: 36.36486866,136.59324189
      name:
      - 三坂生活改善センター
    三宮町ホ1:
      latlng: 36.43196641,136.63995512
      name:
      - 樹木公園(林業試験場)
    三浦町500-1:
      latlng: 36.51343525,136.57455451
      name:
      - 石川県立翠星高等学校
    上吉谷町ト194番地:
      latlng: 36.33229863,136.63182784
      name:
      - 上吉谷集会所
    上吉谷町甲99番地:
      latlng: 36.33417898,136.63504130
      name:
      - 鳥越ふるさとセンター
    上小川町795:
      latlng: 36.52095056,136.51548748
      name:
      - 松任石川環境クリーンセンターリサイクル広場
    上野町イ135番地:
      latlng: 36.37247077,136.60372674
      name:
      - 上野多目的研修集会センター
    上野町オ1番地:
      latlng: 36.37128484,136.60491831
      name:
      - 白山市立鳥越小学校体育館
    下吉谷町イ10番地1:
      latlng: ''
      name:
      - 下吉谷集会所
    下柏野町483:
      latlng: 36.49868878,136.53658897
      name:
      - 柏野公民館
    下野町ロ185番地1:
      latlng: 36.38227240,136.60529580
      name:
      - 下野集会所
    中奥町144-1:
      latlng: 36.51937626,136.58061215
      name:
      - 中奥公民館
    中宮カ3:
      latlng: 36.27683447,136.68944916
      name:
      - 吉野谷健康管理センター
    中宮ク5-32:
      latlng: 36.26093816,136.76336485
      name:
      - 老人福祉センターくろゆり荘
    中宮ヲ16:
      latlng: 36.27542630,136.68888259
      name:
      - 吉野谷セミナーハウス
    中宮地内:
      latlng: ''
      name:
      - 中宮展示館
    乙丸町461:
      latlng: 36.49789817,136.57526026
      name:
      - 林中公民館
    五歩市町60:
      latlng: 36.53170243,136.57356540
      name:
      - 白山市立ひかり保育所
    井口町に62-1:
      latlng: 36.47251033,136.60348600
      name:
      - 農村環境改善センター
    井口町は1-4:
      latlng: 36.47758736,136.60601346
      name:
      - 白山市立明光小学校
    井関町1-1:
      latlng: ''
      name:
      - 井関町子供の広場(井関諏訪神社)
    井関町ニ15:
      latlng: 36.49045738,136.50990290
      name:
      - 井関町集会所
    井関町ヌ15:
      latlng: 36.49158407,136.50254207
      name:
      - 白山市立蝶屋小学校(体育館)
    井関町ヌ15-2:
      latlng: 36.49199501,136.50186985
      name:
      - 白山市蝶屋にこにこハウス
    仏師ヶ野町乙69番地:
      latlng: 36.28962653,136.64093760
      name:
      - 仏師ヶ野集会所
    佐良ト12:
      latlng: ''
      name:
      - 佐良地区集会場
    佐良ニ136:
      latlng: 36.32368887,136.64673778
      name:
      - 吉野谷公民館
    倉光四丁目22:
      latlng: 36.51369339,136.56306400
      name:
      - 松任総合運動公園
      - 松任総合運動公園体育館
    八ツ矢町178:
      latlng: 36.52628638,136.57082409
      name:
      - 東部農村研修センター
    八ツ矢町500-1:
      latlng: 36.52422003,136.57380718
      name:
      - 白山市立わかみや保育所
    八ツ矢町566:
      latlng: 36.52412835,136.57212401
      name:
      - 白山市立松任東幼稚園
    八幡町戌142番地:
      latlng: 36.44243728,136.63278338
      name:
      - 石川県立白山青年の家
    出合町イ197番地:
      latlng: ''
      name:
      - 下出合集会所
    出合町チ96番地:
      latlng: 36.35966393,136.60077458
      name:
      - 上出合生活改善センター
    別宮出町イ92番地:
      latlng: ''
      name:
      - 別宮出公民館
    別宮町ロ66番地:
      latlng: 36.35750312,136.60294943
      name:
      - 別宮地区集会所 音無会館
    剣崎町881:
      latlng: 36.49976732,136.56804982
      name:
      - 白山市立松南小学校
    北安田町355:
      latlng: 36.52945174,136.55017022
      name:
      - 白山市立蕪城小学校
    千代野東三丁目17-2:
      latlng: 36.52274957,136.54238222
      name:
      - 白山市立千代野体育館
    千代野東五丁目1-2:
      latlng: 36.52310795,136.54379042
      name:
      - 千代野会館
    千代野東四丁目1:
      latlng: 36.52422433,136.54251826
      name:
      - 白山市立千代野小学校
    千代野東四丁目17:
      latlng: ''
      name:
      - 千代野中央公園
    千代野西二丁目13:
      latlng: ''
      name:
      - 白山市立千代野保育所
    千代野西八丁目30:
      latlng: 36.52748731,136.53770462
      name:
      - 千代野公民館
    古城町2:
      latlng: 36.52436982,136.56579959
      name:
      - 松任文化会館
    古城町42:
      latlng: ''
      name:
      - 松任城址公園
    吉野オ18:
      latlng: 36.34802972,136.62893865
      name:
      - 上吉野地区集会場
    吉野ケ23:
      latlng: 36.35419269,136.62519714
      name:
      - 白山ろく体育館
    吉野ケ29:
      latlng: 36.36289997,136.61924204
      name:
      - 白山ろくグラウンド
    吉野ソ3番地2:
      latlng: ''
      name:
      - 下吉野地区集会場
    吉野北35:
      latlng: ''
      name:
      - 味智の郷地区集会場
    吉野東56:
      latlng: 36.35309004,136.62565267
      name:
      - 吉野谷児童館
    安吉町116-1:
      latlng: 36.48315245,136.56664475
      name:
      - 山島保育園
    安吉町120:
      latlng: 36.48347739,136.56537264
      name:
      - 山島公民館
    安養寺町ニ30:
      latlng: 36.49475984,136.59193091
      name:
      - 北鉄南部車庫
    宮保町1159:
      latlng: 36.51360873,136.53465820
      name:
      - 宮保公民館
    宮永町1446-1:
      latlng: 36.54538920,136.56493814
      name:
      - 白山市立旭丘小学校
    富光寺町295:
      latlng: ''
      name:
      - 富光寺町第1児童公園
    富光寺町51:
      latlng: ''
      name:
      - 富光寺町第2児童公園
    尾添130:
      latlng: 36.27369335,136.70072317
      name:
      - 白山市立尾添コミュニティセンター
    尾添ヌ243:
      latlng: 36.26992761,136.71534132
      name:
      - 白山市立北竜会館
    左礫町ニ185番地:
      latlng: ''
      name:
      - 左礫公民館
    市原丁25:
      latlng: 36.31998385,136.64845443
      name:
      - 白山市吉野谷支所
    布市二丁目102:
      latlng: 36.52211753,136.57498488
      name:
      - 若宮公園
    平加町イ114-1:
      latlng: 36.49312173,136.49228430
      name:
      - 平加町集会所
    平加町ヌ119-1:
      latlng: 36.49373266,136.49095383
      name:
      - 白山市美川ボランティアセンター
    平加町ヌ132-1:
      latlng: 36.49381312,136.48917621
      name:
      - 白山市美川老人福祉センター緑寿荘
    平加町リ28-10:
      latlng: ''
      name:
      - 平加町ポケットパーク
    平加町ワ15-3:
      latlng: 36.49570746,136.49312021
      name:
      - 平加臨海公園
    平加町ワ6-1:
      latlng: 36.49447134,136.48935671
      name:
      - 白山市美川武道館
    平加町ワ8-1:
      latlng: 36.48945883,136.49710358
      name:
      - 道専山子供の広場
    平加町地内:
      latlng: ''
      name:
      - 平加町子供の広場(安産日吉神社)
    平木町112-1:
      latlng: 36.53594737,136.54270386
      name:
      - 白山市立北星体育館
    広瀬町ニ215番地2:
      latlng: 36.41108858,136.62823180
      name:
      - 広瀬集会場
    徳丸町207:
      latlng: 36.52423398,136.57912611
      name:
      - 白山市立東明小学校
    徳丸町491:
      latlng: 36.52173703,136.57597090
      name:
      - 白山市立若宮体育館
    徳光町2665-1:
      latlng: 36.53596312,136.53025204
      name:
      - 松任海浜温泉
    成町406:
      latlng: 36.52293634,136.55506448
      name:
      - 出城公民館
    手取町ウ20:
      latlng: 36.48652131,136.50388122
      name:
      - 手取町集会所
    手取町コ68-6:
      latlng: 36.49092836,136.50028388
      name:
      - 若草町集会所
    手取町ス1-1:
      latlng: 36.48797670,136.50481442
      name:
      - 手取町子供の広場(手取諏訪神社)
    新田町246:
      latlng: 36.53135246,136.57246273
      name:
      - 白山市立北陽小学校
    日向町イ19:
      latlng: 36.48264471,136.59377008
      name:
      - 館畑公民館
    日向町ロ24-1:
      latlng: ''
      name:
      - 白山市立北辰中学校
    日御子町ホ60-1:
      latlng: 36.46492293,136.61442381
      name:
      - 蔵山公民館
    旭丘二丁目32:
      latlng: 36.55102185,136.56766561
      name:
      - 旭公民館
      - 白山市立旭丘体育館
    旭丘二丁目33:
      latlng: 36.55068026,136.56813780
      name:
      - 白山市立旭保育所
    曽谷町チ18:
      latlng: 36.49281868,136.61925645
      name:
      - 金沢村田製作所駐車場
    月橋町710:
      latlng: 36.45732409,136.61930118
      name:
      - 石川県立鶴来高等学校
    木滑石15:
      latlng: ''
      name:
      - 吉野谷ふれあい交流センター
    末広一丁目100:
      latlng: 36.51955382,136.56729122
      name:
      - 白山市立松任小学校
    末広二丁目1:
      latlng: 36.51790128,136.56871056
      name:
      - 白山市立松任中学校
    末正町エ57-1:
      latlng: 36.48352745,136.50388977
      name:
      - 末正町子供の広場
    末正町ヘ57-1:
      latlng: 36.48352745,136.50388977
      name:
      - 末正町集会所
    杉森町イ148番地:
      latlng: 36.34770442,136.60418017
      name:
      - 杉森集会所
    村井町441:
      latlng: 36.51273789,136.55910886
      name:
      - 一木公民館
      - 白山市立青少年体育館
    東二口卯80:
      latlng: ''
      name:
      - 浄念教覚道場
    東荒谷天1:
      latlng: ''
      name:
      - 白山市立荒谷集会所
    松本町888-1:
      latlng: 36.51242921,136.51069950
      name:
      - 白山市立日輪体育館
    桑島10-1-20:
      latlng: 36.19280793,136.62689795
      name:
      - 白峰公民館
    河内町きりの里81:
      latlng: 36.39120493,136.61827765
      name:
      - きりの里集会所
    河内町ふじが丘12:
      latlng: 36.40005393,136.62672107
      name:
      - ふじが丘集会所
    河内町久保い47:
      latlng: ''
      name:
      - 久保集会所
    河内町内尾ろ20番地2:
      latlng: 36.34698338,136.67780900
      name:
      - セイモアスキー場駐車場
    河内町内尾ニ2-29:
      latlng: ''
      name:
      - セイモアスキー場インフォメーションセンター
    河内町内尾ロ65-1:
      latlng: ''
      name:
      - ふるさと保養センター清流
    河内町口直海イ15:
      latlng: 36.40368406,136.63131498
      name:
      - 河内公民館
    河内町口直海イ66:
      latlng: 36.40315358,136.63205936
      name:
      - かわちふるさと館
    河内町口直海イ88:
      latlng: 36.40237034,136.63116780
      name:
      - 白山市立河内小・中学校体育館
    河内町口直海乙35-1:
      latlng: ''
      name:
      - 口直海集会所
    河内町吉岡ヘ55:
      latlng: 36.37807318,136.61433114
      name:
      - 吉岡集会所
    河内町吉岡西89他:
      latlng: ''
      name:
      - 白山ろくテーマパーク
    河内町奥池イ17-1:
      latlng: ''
      name:
      - 奥池集会所
    河内町板尾ニ10:
      latlng: 36.37959018,136.64523932
      name:
      - 板尾集会所
    河内町江津29:
      latlng: 36.38688038,136.61298104
      name:
      - 江津集会所
    河内町江津い30:
      latlng: 36.38444180,136.61330607
      name:
      - ウッディホール
      - すこやか広場
    河内町福岡124:
      latlng: 36.39987338,136.62512400
      name:
      - 地場産業センター
    河内町福岡77:
      latlng: 36.39798188,136.62057726
      name:
      - かわち保健センター
    河内町福岡88:
      latlng: 36.39855960,136.62129939
      name:
      - 白山市立かわち保育所・児童館
    河内町福岡列1:
      latlng: 36.39522395,136.62202995
      name:
      - 福岡集会所
    河内町金間乙8-1-1:
      latlng: ''
      name:
      - 金間集会所
    河原山町ニ68番地:
      latlng: 36.30819642,136.64123917
      name:
      - 河原山集会所
    河合町ニ70の1番地:
      latlng: ''
      name:
      - 河合集会所
    渡津町ロ142番地1:
      latlng: 36.33816420,136.60868282
      name:
      - 渡津集会所
    湊町1-16:
      latlng: ''
      name:
      - ひばり野児童公園
    湊町1-28:
      latlng: 36.47819544,136.47693076
      name:
      - 白山市立湊公民館
    湊町3-5:
      latlng: ''
      name:
      - 呉竹児童公園
    湊町4号10:
      latlng: 36.47532639,136.47625593
      name:
      - 湊ふれあいセンター
    湊町5-14:
      latlng: ''
      name:
      - 湊十区子供の広場
    湊町カ307:
      latlng: 36.47419889,136.47768364
      name:
      - 白山市立湊小学校(体育館)
    湊町カ63:
      latlng: 36.47536262,136.47791691
      name:
      - 白山市湊児童館
    湊町チ188-9:
      latlng: ''
      name:
      - 航空自衛隊美川宿舎前広場
    湊町ム11-1:
      latlng: ''
      name:
      - 湊七区子供の広場
      - 湊町七区集会所
    湊町レ37-104:
      latlng: 36.47795919,136.47464205
      name:
      - 小舞子集会所
    湊町レ37-177:
      latlng: ''
      name:
      - 湊八区子供の広場
    湊町ヲ16:
      latlng: ''
      name:
      - 白山市湊グラウンド
    湊町ヲ20:
      latlng: 36.47498221,136.47908351
      name:
      - 白山市湊リフレッシュセンター
    湊町丁31-7:
      latlng: 36.47214053,136.47328961
      name:
      - 湊町十区集会所
    湊町井1-2:
      latlng: 36.47758137,136.47322828
      name:
      - 小舞子児童公園
    湊町井1-3:
      latlng: 36.47966435,136.47273101
      name:
      - 小舞子臨海公園
    源兵島町288:
      latlng: 36.48405425,136.52893473
      name:
      - 白山市立石川保育所
    源兵島町332-1:
      latlng: 36.48415416,136.52748211
      name:
      - 石川公民館
    源兵島町344:
      latlng: 36.48352099,136.52875699
      name:
      - 白山市立石川小学校
    瀬戸イ40:
      latlng: 36.28530230,136.65464163
      name:
      - 瀬戸道場
    瀬戸ワ29番地:
      latlng: 36.29264845,136.64269549
      name:
      - 石川県立白山ろく少年自然の家
    瀬戸卯43-3:
      latlng: 36.29009329,136.64982534
      name:
      - かんぽの郷白山尾口
    瀬戸申66:
      latlng: 36.29641464,136.64104265
      name:
      - 白山市立白嶺小中学校
    瀬木野町103番地20:
      latlng: 36.40560875,136.62743754
      name:
      - ファミール鳥越集会所
    瀬木野町56番地:
      latlng: 36.40128693,136.61872460
      name:
      - 瀬木野集会所
    田中町230:
      latlng: 36.53054998,136.58906121
      name:
      - 郷公民館
    番匠町468-1:
      latlng: 36.53514379,136.58121185
      name:
      - 白山市立光野体育館
    白山町カ88-10:
      latlng: ''
      name:
      - 一ノ宮公民館
    白峰ツ57乙:
      latlng: 36.16533111,136.63487358
      name:
      - 白山国立公園センター
    白峰ニ110:
      latlng: 36.17803200,136.62547077
      name:
      - 白山市立白峰小学校
    白峰ハ149:
      latlng: 36.17720428,136.62441257
      name:
      - 白峰コミュニティホール
    白峰ハ157-1:
      latlng: 36.17629050,136.62432097
      name:
      - 白山市立白峰福祉複合施設カルテット
    白峰ロ9:
      latlng: 36.17432972,136.62660977
      name:
      - 白峰地域交流センター
    相川2557他:
      latlng: ''
      name:
      - 松任海浜公園
    相川町1262:
      latlng: 36.53926101,136.54619518
      name:
      - 白山市立はまなす保育所
    相川町1556-1:
      latlng: ''
      name:
      - 御手洗公民館
    相川町2462:
      latlng: 36.54164580,136.53551793
      name:
      - シ-サイド松任
    相木町445:
      latlng: ''
      name:
      - 相木野球場
    相木町797:
      latlng: 36.53374632,136.56514111
      name:
      - 白山市立あいのき保育所
    相滝町甲23番地:
      latlng: ''
      name:
      - 相滝集会所
    知気寺町と77-2:
      latlng: 36.48707206,136.60248300
      name:
      - 白山市立広陽小学校
    神子清水町イ58番地2:
      latlng: 36.34695456,136.60612998
      name:
      - 神子清水集会所
    笠間町1150-1:
      latlng: 36.50785086,136.52979775
      name:
      - 白山市立松陽小学校
    笠間町157:
      latlng: 36.49995443,136.52507346
      name:
      - 白山市立笠間体育館
    笠間町623-1:
      latlng: 36.50486763,136.52551770
      name:
      - 笠間公民館
    美川中町:
      latlng: 36.48702681,136.49257880
      name:
      - JR美川駅日本海広場
    美川中町イ16-1:
      latlng: ''
      name:
      - 美川今町東ポケットパーク
    美川中町イ16-6:
      latlng: 36.48772571,136.49497611
      name:
      - 白山市美川文化会館
    美川中町イ26:
      latlng: 36.48624493,136.48804618
      name:
      - 白山市美川体育館
    美川中町ル21番地2の1:
      latlng: 36.48628360,136.48530472
      name:
      - ほほえみ館
    美川中町ロ11:
      latlng: 36.48432048,136.49082386
      name:
      - JR美川駅白山広場
    美川中町口221-1:
      latlng: ''
      name:
      - 白山市美川コミュニティプラザ
    美川南町ト5番地8:
      latlng: 36.48517005,136.48729908
      name:
      - 白山市美川南地区学習等供用施設
    美川和波町ワ229:
      latlng: 36.49085782,136.48462401
      name:
      - 白山市立美川小学校(体育館)
    美川和波町北1:
      latlng: 36.49082454,136.48539061
      name:
      - 白山市美川北地区学習等供用施設
    美川和波町北167-1:
      latlng: ''
      name:
      - 白山市美川東地区学習等供用施設
    美川和波町北74:
      latlng: 36.49156052,136.48516559
      name:
      - 白山市立美川幼稚園(運動場)
    美川永代町ヲ266-1:
      latlng: 36.48796380,136.48402975
      name:
      - 白山市立美川図書館
    美川永代町甲1-123:
      latlng: ''
      name:
      - 美川臨海公園
    美川浜町タ2:
      latlng: 36.48909740,136.49096801
      name:
      - 浜町公民館
    美川浜町タ5:
      latlng: 36.48948072,136.49187624
      name:
      - 白山市立美川中学校(運動場)
    美川浜町タ6:
      latlng: 36.48890025,136.49156797
      name:
      - 白山市美川スポーツセンター
    美川浜町ヨ103:
      latlng: 36.49082771,136.49217890
      name:
      - 白山市美川すこやかセンター
    美川浜町ヨ103他:
      latlng: 36.49082771,136.49217890
      name:
      - 手取公園
    美川浜町ヨ75:
      latlng: 36.48997778,136.49071519
      name:
      - あかね子供の広場
    美川浜町ヨ98-2:
      latlng: 36.49023612,136.49156511
      name:
      - アメニティ末広
    若原町ハ191番地:
      latlng: ''
      name:
      - 若原生活改善センター
    蓮池町オ30-1:
      latlng: 36.50104877,136.49736705
      name:
      - 蓮池町集会所
    蓮池町カ5-1:
      latlng: 36.50200982,136.49773925
      name:
      - アプリコットパーク
    蓮池町ホ12:
      latlng: 36.50098220,136.49818089
      name:
      - 蓮池町子供の広場(伊気神社)
    蕪城四丁目14:
      latlng: 36.53274029,136.55316432
      name:
      - 北部農村健康センター
    蕪城四丁目2-3:
      latlng: ''
      name:
      - 白山市立蕪城保育所
    西佐良町ト16番地:
      latlng: 36.33001847,136.64029650
      name:
      - 西佐良集会所
    西新町170-1:
      latlng: 36.52469748,136.56316649
      name:
      - サンライフ松任
    西柏一丁目37:
      latlng: 36.50158524,136.53144776
      name:
      - 加賀野公民館
    西米光町イ4:
      latlng: 36.49261698,136.50082540
      name:
      - でくら子供の広場(米光白山神社)
    西米光町ロ18:
      latlng: 36.49493639,136.50394180
      name:
      - 西米光町集会所
    道法寺町ト73:
      latlng: 36.48201182,136.61071290
      name:
      - 白山市立双葉保育所
    道法寺町ヘ24:
      latlng: 36.48297281,136.61305156
      name:
      - 林公民館
    釜清水町チ140番地:
      latlng: 36.36394134,136.60824314
      name:
      - 白山市立鳥越中学校体育館
    釜清水町ホ71の1番地:
      latlng: 36.36215551,136.61262051
      name:
      - 釜清水区多目的集会所
    長屋町ハ14-1:
      latlng: 36.48374616,136.49777340
      name:
      - 長屋町子供の広場(長屋八幡神社)
    長屋町ハ15-1:
      latlng: 36.48447365,136.49622345
      name:
      - 白山市長屋地区学習等供用施設
    阿手町イ52番地1:
      latlng: 36.29446025,136.57598467
      name:
      - 阿手生活改善センター
    馬場1-100:
      latlng: 36.52121181,136.56176671
      name:
      - 石川県立松任高等学校
    馬場二丁目18:
      latlng: ''
      name:
      - 馬場公園
    鶴来下東町カ26:
      latlng: 36.44765046,136.62776159
      name:
      - レッツ・鶴来ショッピングスクエアー
    鶴来大国町ロ125-2:
      latlng: 36.45476890,136.62014003
      name:
      - 白山郷公園体育館
    鶴来日吉町ハ55:
      latlng: 36.44664781,136.63409983
      name:
      - 白山市立朝日小学校
    鶴来本町3丁目ル18-2:
      latlng: ''
      name:
      - 鶴来公民館
      - 鶴来公民館
    鶴来本町4丁目リ16:
      latlng: 36.45459470,136.63009537
      name:
      - 白山市立鶴来中学校
    鹿島平35-14:
      latlng: 36.50464674,136.50888308
      name:
      - ガーデンハウス
    鹿島町1-6-1:
      latlng: 36.50524314,136.50129181
      name:
      - 鹿島児童公園(野球場)
    鹿島町2-1:
      latlng: 36.50222687,136.50170571
      name:
      - 美川インターパーク桜公園
    鹿島町い179:
      latlng: 36.50261038,136.50385559
      name:
      - 鹿島町集会所
    鹿島町い2:
      latlng: ''
      name:
      - 鹿島町子供の広場(鹿島白山神社)
    鹿島町り144:
      latlng: ''
      name:
      - 鹿島臨海公園
  穴水町:
    上中タ-53:
      latlng: 37.24037344,136.81768241
      name:
      - 上中集会所
    下唐川ヘ-18-1:
      latlng: ''
      name:
      - 下唐川集会所
    中居ロ-100:
      latlng: 37.23213434,136.94648469
      name:
      - 住吉農村環境改善センター
    中居ロ-110:
      latlng: 37.23235932,136.94669300
      name:
      - 中居鋳物館
    乙ヶ崎ホ-43:
      latlng: ''
      name:
      - 乙ヶ崎集会所
    伊久留ヨ-6:
      latlng: 37.27803828,136.98127938
      name:
      - 伊久留集会所
    内浦5-28-3:
      latlng: 37.22295954,136.92224293
      name:
      - のとふれあい文化センター
    前波ホ-177-1:
      latlng: ''
      name:
      - 前波集会所
    古君ハ-183-1:
      latlng: ''
      name:
      - 古君集会所
    大町-137:
      latlng: ''
      name:
      - 旧穴水町立真名井幼稚園
    大町ヌ201:
      latlng: 37.23016063,136.89962837
      name:
      - 穴水町立穴水中学校
    大町ロ-19:
      latlng: 37.22749740,136.90827750
      name:
      - B&G体育館
      - B&G武道館
    大町ロ165-1:
      latlng: 37.22723350,136.90726096
      name:
      - 穴水町立穴水小学校
    字由比ヶ丘い33:
      latlng: 37.22748401,136.92219548
      name:
      - 石川県立穴水高等学校(建物のみ)
    宇加川イ-142:
      latlng: 37.22478032,137.06584072
      name:
      - 旧穴水町立諸橋小学校
      - 諸橋公民館
    宇加川ル-61:
      latlng: 37.22538306,137.06692393
      name:
      - 宇加川集会所
    宇加川ロ-7:
      latlng: ''
      name:
      - 旧諸橋保育所
    山中-15:
      latlng: ''
      name:
      - 山中集会所
    山中タ-37-10:
      latlng: ''
      name:
      - 四季の丘
    岩車チ-141:
      latlng: 37.21630041,136.95422648
      name:
      - 岩車集会所
    川島サ-29:
      latlng: 37.23113039,136.90994657
      name:
      - 穴水町林業センター
    川島タ-38:
      latlng: 37.23317182,136.90999091
      name:
      - 町老人保健施設
    川島ラ-174:
      latlng: 37.23022781,136.91263522
      name:
      - 穴水町山村開発センター
    川島ラ-197-15:
      latlng: ''
      name:
      - 歴史民俗資料館
    川島井61-1:
      latlng: 37.22297606,136.91798781
      name:
      - キャッスル真名井
    志ヶ浦い-36:
      latlng: 37.20401126,136.90757586
      name:
      - 志ヶ浦コミュニティセンター
    新崎2-144:
      latlng: 37.20199547,136.92511868
      name:
      - 新崎地区集会所
    旭ヶ丘に-17:
      latlng: ''
      name:
      - 旭ヶ丘婦人ホーム
    明千寺カ-70:
      latlng: 37.22968226,137.05773017
      name:
      - 明千寺集会所
    曽福チ-71:
      latlng: 37.17455878,136.89361470
      name:
      - 曽福集会所
    曽良4-7-1:
      latlng: 37.19472748,137.02320723
      name:
      - 旧穴水町立兜小学校
    曽良ヌ-32:
      latlng: ''
      name:
      - 曽良集会所
    木原ろ-159:
      latlng: 37.28286483,136.96020584
      name:
      - 木原地区集会所
    来迎寺-191:
      latlng: ''
      name:
      - 来迎寺地区集会所
    根木イ-103:
      latlng: ''
      name:
      - 島崎地区集会所
    此木10-75:
      latlng: ''
      name:
      - 此木集会所
    比良い-50:
      latlng: 37.23459866,136.96667179
      name:
      - 旧穴水町立向洋中学校
    比良イ-24:
      latlng: 37.23430926,136.95125641
      name:
      - 穴水町立住吉小学校
    比良キ-3甲-1:
      latlng: ''
      name:
      - 比良地区集会所
    沖波ホ-338:
      latlng: 37.20900142,137.05675610
      name:
      - 沖波集会所
    波志借ロ-11:
      latlng: 37.24250516,136.94041516
      name:
      - 梶・波志借集会所
    瑞鳳い-58:
      latlng: 37.24877987,136.95376096
      name:
      - 瑞鳳集会所
    由比ヶ丘:
      latlng: 37.22973820,136.92200593
      name:
      - 老人生きがいセンター
    由比ヶ丘は-2-9:
      latlng: ''
      name:
      - 由比ヶ丘地区集会所
    甲レ-155:
      latlng: 37.20589545,137.02484264
      name:
      - 甲地区生涯学習センター
    菅谷い-56:
      latlng: ''
      name:
      - 菅谷樟谷地区活性化施設
    藤巻リ-30:
      latlng: 37.27638769,136.95593986
      name:
      - 旧住吉公民館木原分館
    鹿島い-33-1:
      latlng: ''
      name:
      - 鹿島地区コミュニティセンター
    鹿波54-95-1:
      latlng: 37.20226994,136.98791855
      name:
      - 旧穴水町立鹿波小学校
    鹿波55-196:
      latlng: ''
      name:
      - 鹿波集会所
    麦ヶ浦15-39-12:
      latlng: 37.27251189,136.92127652
      name:
      - 青山彩光苑穴水ライフサポートセンター
  羽咋市:
    一ノ宮町レ86-1:
      latlng: 36.92473789,136.76270441
      name:
      - 羽咋市立一ノ宮公民館
    一ノ宮町伊9-3:
      latlng: 36.93683341,136.76128167
      name:
      - 羽咋市立西北台保育所
    中央町キ59:
      latlng: 36.89188199,136.77643800
      name:
      - 羽咋市立羽咋中学校
      - 羽咋市民体育館
    中央町サ90:
      latlng: 36.89404275,136.77544356
      name:
      - 羽咋市立羽咋小学校
    中央町フ169-2:
      latlng: 36.89704507,136.77527398
      name:
      - 羽咋市立羽咋公民館(中央公園内)
      - 中央公園
    中川町ヘ50:
      latlng: ''
      name:
      - 邑知の郷公園
    兵庫町タ46:
      latlng: 36.88242236,136.77896876
      name:
      - 羽咋市立粟ノ保公民館
    兵庫町タ56-1:
      latlng: ''
      name:
      - 羽咋市立粟ノ保保育所
    千路町は10:
      latlng: 36.92711930,136.80511649
      name:
      - 羽咋市立とき保育園
    千路町も30:
      latlng: 36.92452203,136.79331225
      name:
      - 羽咋市立越路野公民館
    千里浜町カ1-20:
      latlng: ''
      name:
      - 勤労者総合福祉センター
    千里浜町ソ10-60:
      latlng: ''
      name:
      - 千里浜運動公園
    千里浜町タ118-2:
      latlng: ''
      name:
      - 羽咋市立千里浜児童センター
    千里浜町ハ140-2:
      latlng: 36.89505917,136.77128565
      name:
      - 羽咋市立千里浜公民館
    千里浜町ロ39-1:
      latlng: 36.89453706,136.77282717
      name:
      - 羽咋市立千里浜保育所
    吉崎町ウ19-1:
      latlng: ''
      name:
      - 吉崎・次場弥生公園
    吉崎町ラ1-2:
      latlng: 36.89748431,136.79299688
      name:
      - 石川県立羽松高等学校
    四柳町チ16:
      latlng: 36.93141721,136.84575388
      name:
      - 羽咋市立余喜公民館
    大川町ヤ211-11:
      latlng: ''
      name:
      - 白鷺公園
    大町64:
      latlng: 36.93208653,136.84448455
      name:
      - 羽咋市余喜スポーツセンター
    大町コ42:
      latlng: 36.93272536,136.84555663
      name:
      - 羽咋市立余喜小学校
    御坊山町16-1:
      latlng: ''
      name:
      - 御坊山児童公園
    東的場町古川田15-1:
      latlng: 36.89816461,136.78703089
      name:
      - 羽咋市立こすもす保育園
    柳橋町柳橋1:
      latlng: 36.89357369,136.78957246
      name:
      - 石川県立羽咋高等学校
    柳田町シ1:
      latlng: 36.92375800,136.78527426
      name:
      - 眉丈台地自然緑地公園
    柴垣町14字5-6:
      latlng: ''
      name:
      - 国立能登青少年交流の家
    柴垣町36字19-1:
      latlng: ''
      name:
      - 羽咋市立上甘田公民館
    深江町へ16:
      latlng: 36.90237558,136.80393430
      name:
      - 羽咋市立富永保育所
    深江町ト108:
      latlng: ''
      name:
      - 羽咋市立富永公民館
    深江町ル61-1:
      latlng: ''
      name:
      - 羽咋市立瑞穂小学校
    滝町ケ14-2:
      latlng: 36.93556970,136.76230108
      name:
      - 羽咋市立西北台小学校
    神子原町チ18:
      latlng: 36.88393509,136.86197297
      name:
      - 羽咋市立邑知公民館神子原分館
    神子原町チ22:
      latlng: 36.88584581,136.85565137
      name:
      - 羽咋市神子原スポーツセンター
    粟生町キ1-2:
      latlng: 36.88083370,136.77815784
      name:
      - 羽咋市立粟ノ保小学校
    西釜屋町ク21:
      latlng: 36.90836276,136.77476793
      name:
      - 石川県立羽咋工業高等学校
    飯山町ホ57:
      latlng: 36.90524814,136.82954807
      name:
      - 羽咋市立邑知中学校
    飯山町リ100:
      latlng: ''
      name:
      - 羽咋市立邑知公民館
    飯山町ロ20:
      latlng: 36.90043199,136.82323778
      name:
      - 羽咋市立邑知小学校
    鶴多町亀田17:
      latlng: 36.89805085,136.79136371
      name:
      - 羽咋市文化会館(羽咋運動公園内)
      - 羽咋体育館(羽咋運動公園内)
      - 羽咋市老人福祉センター(羽咋運動公園内)
      - 羽咋運動公園
    鶴多町免田25:
      latlng: 36.89822853,136.78833629
      name:
      - コスモアイル羽咋
    鹿島路町1788:
      latlng: 36.93530734,136.81238213
      name:
      - 羽咋市立鹿島路公民館
  能登町:
    七見7-7:
      latlng: ''
      name:
      - 七見地区集会所
    七見ツ-100:
      latlng: 37.26650681,137.09358641
      name:
      - 福祉の郷なごみ
    上町8-501-2:
      latlng: ''
      name:
      - 上町地区生活改善センター
    上町8字486番地:
      latlng: 37.35117567,137.10834321
      name:
      - 上町公民館
    不動寺8-200:
      latlng: 37.33761305,137.20973672
      name:
      - 不動寺公民館
    中斉ア部77番地:
      latlng: ''
      name:
      - 上町公民館斉和分館
    久田21-49:
      latlng: 37.36665731,137.12032451
      name:
      - 久田農事集会所
    五十里ウ-77:
      latlng: 37.37407430,137.05382752
      name:
      - 五十里集会所
    五郎左ェ門分竹部20-1:
      latlng: ''
      name:
      - 寺五地区生活改善センター
    北河内ソ-56:
      latlng: ''
      name:
      - 岩井戸公民館北河内分館
    十郎原フ-50:
      latlng: ''
      name:
      - 十郎原集落センター
    合鹿28字65番地:
      latlng: 37.34535460,137.13713487
      name:
      - 上町公民館合鹿分館
    国光ル部65-1:
      latlng: ''
      name:
      - 国光集会所
    大箱1-65:
      latlng: 37.36818789,137.02507456
      name:
      - 大箱集会所
    天坂い部75:
      latlng: ''
      name:
      - 天坂集会所
    太田原20-16:
      latlng: 37.32327754,136.98944600
      name:
      - 太田原集会場
    姫10-245:
      latlng: ''
      name:
      - 姫交流センター
    姫12-36:
      latlng: 37.30217299,137.20853281
      name:
      - 能登町立高倉保育所
      - 高倉公民館
    字九里川尻16字20番地:
      latlng: 37.33865644,137.25325393
      name:
      - 石川県立能登少年自然の家
    字天坂イ部65番地:
      latlng: ''
      name:
      - 能登町立上町保育所駐車場
    字宇出津マ字106-7:
      latlng: 37.29940516,137.15017193
      name:
      - 石川県立能登高等学校
    字柳田梅部55番地:
      latlng: ''
      name:
      - 能登町柳田野球場
    宇出津イ29-3:
      latlng: ''
      name:
      - 雄志館(武道館)
    宇出津ウ10-1:
      latlng: 37.30296610,137.16118459
      name:
      - 老人憩いの家
    宇出津タ46:
      latlng: 37.30877898,137.14871612
      name:
      - 能都町こどもみらいセンター
    宇出津ニ23:
      latlng: ''
      name:
      - 能登町立しらさぎ保育所
    宇出津ハ128:
      latlng: 37.30667658,137.15361018
      name:
      - 防災総合センター
    宇出津ム1:
      latlng: 37.30632368,137.14624704
      name:
      - 能登町立宇出津小学校
    宇出津レ9-1:
      latlng: 37.30794849,137.14665525
      name:
      - 宇出津公民館
    宇出津山分17番68地:
      latlng: 37.32704065,137.15782554
      name:
      - 源平地区集会場
    宇出津山分25番218地:
      latlng: 37.31811370,137.14271624
      name:
      - 大平地区集会場
    宇加塚ニ-82-2:
      latlng: ''
      name:
      - 宇加塚集落センター
    宮地1-14-2:
      latlng: 37.30480293,137.01837217
      name:
      - 旧町立宮地小学校
    宮地1-17-1:
      latlng: 37.30418913,137.01846386
      name:
      - 宮地生活改善センター
    小垣59:
      latlng: 37.26094300,137.07176134
      name:
      - 小垣高齢者等活動施設
    小木1-1:
      latlng: 37.30419542,137.22333678
      name:
      - 能登町立小木中学校
    小木4-16:
      latlng: 37.29914605,137.22365361
      name:
      - 能登町立小木小学校
    小浦10-28-1:
      latlng: 37.30036431,137.18841262
      name:
      - 小浦地区集会所
    小間生タ-13-1:
      latlng: ''
      name:
      - 小間生地区生活改善センター
    小間生ル部29番地:
      latlng: ''
      name:
      - 小間生公民館
    崎山1丁目1:
      latlng: 37.30287418,137.14865254
      name:
      - 山村開発センター
      - 勤労者体育センター
    崎山1丁目1番地:
      latlng: 37.30287418,137.14865254
      name:
      - 能都体育館
    崎山1丁目73:
      latlng: 37.30286863,137.14915249
      name:
      - 能登町立ひばり保育所
    布浦カ-34:
      latlng: 37.35071857,137.25380284
      name:
      - 能登町立内浦保育所
    当目38-150-4:
      latlng: ''
      name:
      - 当目多目的センター
    当目38字118番地:
      latlng: 37.35140575,137.01025685
      name:
      - 岩井戸公民館当目分館
    曽又7-158-8:
      latlng: 37.32240830,137.07711099
      name:
      - 曽又多目的集会所
    本木28-33-3:
      latlng: 37.27992525,137.01895676
      name:
      - 本木地区集会所
    松波15-80:
      latlng: 37.34971288,137.24474579
      name:
      - 能登町立松波小学校
    松波16-26:
      latlng: 37.34685222,137.24500985
      name:
      - 能登町立松波中学校
    松波3-60-3:
      latlng: 37.35851971,137.24084298
      name:
      - 能登産業技術専門校体育館
    柏木69:
      latlng: 37.30857891,136.97600611
      name:
      - 柏木多目的集会所
    柳田3-26-1:
      latlng: 37.37470249,137.07668392
      name:
      - 重年集会所
    柳田主部91:
      latlng: ''
      name:
      - 柳田公民館柳田分館
    柳田仁部54番地:
      latlng: 37.36891452,137.09590983
      name:
      - 柳田公民館
    柳田礼部2-1:
      latlng: ''
      name:
      - 能登町立柳田小学校
    柿生地4-12-1:
      latlng: 37.26939436,137.05794295
      name:
      - 柿生地区集会所
    武連1-16-2:
      latlng: 37.25520874,137.02489066
      name:
      - 武連地区集会所
    波並21-2-1:
      latlng: 37.28572483,137.11263394
      name:
      - 能登町立三波小学校
    波並3-111:
      latlng: 37.28899964,137.11677793
      name:
      - 三波生活改善センター
    爼倉44:
      latlng: 37.29811877,137.05460286
      name:
      - 爼倉地区集会場
    猪平53-1:
      latlng: 37.29777237,137.07968693
      name:
      - 猪平地区集会所
      - 猪平地区体育館
    瑞穂10-120:
      latlng: 37.28099242,137.04053267
      name:
      - 能登町立瑞穂小中学校
    瑞穂10-166:
      latlng: 37.28045081,137.04048548
      name:
      - 農村環境改善センター
    瑞穂119-2:
      latlng: 37.28217840,137.04095480
      name:
      - 能登町立瑞穂保育所
    白丸300:
      latlng: 37.32659421,137.26304526
      name:
      - 旧白丸小学校
    真脇19-100:
      latlng: ''
      name:
      - ポーレポーレ
    真脇33-25:
      latlng: 37.30657788,137.20462750
      name:
      - 能登町立真脇小学校
    真脇43-24:
      latlng: 37.30371710,137.20368324
      name:
      - 真脇地区集会所
    矢波25-53-2:
      latlng: 37.27669462,137.09589411
      name:
      - 矢波地区集会所
    石井り部3:
      latlng: ''
      name:
      - 石井集会所
    神和住レ-8-2:
      latlng: ''
      name:
      - 斉和多目的センター
    秋吉7-57:
      latlng: 37.33311214,137.23858100
      name:
      - 秋吉公民館
    笹川井-20:
      latlng: 37.36352123,137.10164897
      name:
      - 笹川集会所
    羽根5-4:
      latlng: 37.30141094,137.17063094
      name:
      - 国民宿舎うしつ荘
    羽根8-7:
      latlng: 37.30104440,137.17377788
      name:
      - 羽根地区集会所
    藤ノ瀬3-110-7:
      latlng: 37.32613666,137.10465287
      name:
      - 藤ノ瀬地区集会所
    藤波23-1:
      latlng: 37.29533848,137.13487897
      name:
      - 屋内テニスコート
    藤波23-1-1:
      latlng: 37.29428019,137.13268475
      name:
      - テニスコート駐車場
    藤波23-54:
      latlng: ''
      name:
      - 緑地管理センター
    藤波23字1-1:
      latlng: ''
      name:
      - 県立能都健民 テニスコート
    藤波28-140:
      latlng: ''
      name:
      - 間島集会所
    藤波イ40:
      latlng: 37.29587181,137.13658436
      name:
      - 能登町立能都中学校
    越坂11-51:
      latlng: 37.31216158,137.23486023
      name:
      - 能登勤労者プラザ
    越坂3字21番3:
      latlng: ''
      name:
      - のと海洋ふれあいセンター
    鈴ヶ嶺ヘ部29:
      latlng: ''
      name:
      - 鈴ヶ嶺集会所
    長尾ル-2:
      latlng: ''
      name:
      - 長尾地区集会所
    鮭尾64:
      latlng: 37.30350269,137.00472064
      name:
      - 鮭尾多目的集会所
    鴨川ワ-20-1:
      latlng: ''
      name:
      - 鴨川集会所
    鵜川18-128甲:
      latlng: ''
      name:
      - 鵜川公民館
    鵜川20-26:
      latlng: ''
      name:
      - 能登町立鵜川保育所
    鵜川25-24:
      latlng: ''
      name:
      - 能登町立鵜川中学校
    鵜川29-1:
      latlng: 37.25628837,137.08866503
      name:
      - 能登町立鵜川小学校
    鶴町11-13-1:
      latlng: 37.31583711,137.08404412
      name:
      - 農業者健康管理センター
    鶴町2-22:
      latlng: ''
      name:
      - 能登町立神野小学校
    鶴町ホ1-1:
      latlng: 37.31940630,137.08819635
      name:
      - 能登町立神野保育所
    黒川26号10番地:
      latlng: ''
      name:
      - 岩井戸公民館
  能美市:
    三道山町ト31-1:
      latlng: ''
      name:
      - 三道山町コミュニティセンター
    下ノ江町6:
      latlng: 36.43519077,136.45531637
      name:
      - サンタウンコミュニティセンター
    下ノ江町酉212:
      latlng: ''
      name:
      - 下ノ江町学習等供用施設
    中ノ江町ろ44-1:
      latlng: ''
      name:
      - 中ノ江町農村婦人の家
    中庄町丁72:
      latlng: 36.44505289,136.47842869
      name:
      - 中庄町コミュニティセンター
    中町カ14:
      latlng: 36.44774460,136.45792689
      name:
      - 能美市立浜小学校
    中町ソ60-11:
      latlng: 36.45201607,136.45321060
      name:
      - 中町学習等供用施設
    五間堂町丁78:
      latlng: 36.44342058,136.48517561
      name:
      - 五間堂町学習等供用施設
    佐野町ラ12:
      latlng: ''
      name:
      - 湯野公園
    佐野町ワ33:
      latlng: 36.43149906,136.50464107
      name:
      - 能美市立湯野保育園
    佐野町卯14:
      latlng: ''
      name:
      - 佐野町学習等供用施設
    吉光町チ8-1:
      latlng: 36.45081496,136.49529984
      name:
      - 吉光町農業研修センター
    吉光町ト90:
      latlng: 36.44691009,136.49652763
      name:
      - 石川県立寺井高等学校
    吉原町138:
      latlng: 36.46450278,136.47489245
      name:
      - 吉原町学習等供用施設
    吉原釜屋町イ22:
      latlng: 36.46488228,136.46418198
      name:
      - 吉原釜屋町学習等供用施設
    和佐谷町丁5:
      latlng: 36.43832672,136.62861449
      name:
      - 和佐谷町公民館
    和気町い62:
      latlng: 36.42411033,136.54777576
      name:
      - 国造コミュニティセンター
    和気町イ140:
      latlng: 36.42360487,136.54914506
      name:
      - 能美市立和気小学校
    大成町ヌ118:
      latlng: 36.44726748,136.46364323
      name:
      - 根上総合文化会館
    大成町ヌ45:
      latlng: 36.44845345,136.46357101
      name:
      - 大成町学習等供用施設
    大浜町オ77-2:
      latlng: 36.45593011,136.46064892
      name:
      - 根上健康福祉センター
    大浜町ク60-1:
      latlng: 36.45754352,136.45676585
      name:
      - 大浜町学習等供用施設
    大長野町ニ177-1:
      latlng: 36.42868745,136.49274765
      name:
      - 大長野町学習等供用施設
    大長野町ホ19:
      latlng: 36.42719852,136.48949515
      name:
      - 大長野体育館
    大長野町ロ54-4:
      latlng: ''
      name:
      - 大長野運動広場
    大長野町ロ58-1:
      latlng: 36.42986785,136.49302538
      name:
      - 能美市立長野保育園
    宮竹町イ153:
      latlng: 36.45297116,136.58435487
      name:
      - 能美市立宮竹小学校
    宮竹町ハ7-1:
      latlng: 36.45186584,136.58680743
      name:
      - 宮竹コミュニティセンター
    寺井町や79:
      latlng: ''
      name:
      - 寺井山児童公園
    寺井町を35:
      latlng: 36.44338084,136.50590484
      name:
      - すぱーく寺井
    寺井町ウ63-1:
      latlng: ''
      name:
      - 寺井町学習等供用施設
    寺井町ウ69:
      latlng: 36.43853854,136.49079759
      name:
      - 寺井武道館
    寺井町ツ48:
      latlng: 36.43952180,136.49153641
      name:
      - 能美市立寺井保育園
    寺井町ニ13-1:
      latlng: ''
      name:
      - 九谷町コミュニティセンター
    寺井町ヌ48:
      latlng: 36.44060020,136.50012193
      name:
      - 寺井健康福祉センター
    寺井町ヨ150:
      latlng: 36.43648388,136.49708332
      name:
      - 寺井体育館
    寺井町ヨ47:
      latlng: 36.43573678,136.49717221
      name:
      - 寺井地区公民館
    寺井町ヨ60:
      latlng: 36.43597568,136.49776661
      name:
      - 能美市立寺井小学校
    寺井町ラ161:
      latlng: 36.44029943,136.49129474
      name:
      - 能美市立寺井中学校
    寺井町リ10:
      latlng: 36.44078031,136.49531115
      name:
      - 寺井町農業研修センター
    寺井町子290:
      latlng: 36.44096319,136.49094475
      name:
      - 寺井第二体育館
    小杉町イ81-3:
      latlng: 36.42336291,136.48848973
      name:
      - 小杉町学習等供用施設
    小長野町ヘ10-1:
      latlng: 36.43346446,136.49235592
      name:
      - 小長野町コミュニティセンター
    山口町ヘ114-1:
      latlng: 36.43514488,136.43583749
      name:
      - 山口町学習等供用施設
    岩内町イ164-1:
      latlng: 36.45402055,136.56621764
      name:
      - 岩内体育館
    徳久町ニ5:
      latlng: 36.44877022,136.52592242
      name:
      - 久常コミュニティセンター
    徳山町子1-1:
      latlng: 36.43668644,136.54586474
      name:
      - 辰口丘陵公園
    新保町チ73:
      latlng: 36.45408285,136.51656483
      name:
      - 新保町農業研修センター
    末信町イ41-1:
      latlng: ''
      name:
      - 末信町コミュニティセンター
    末信町ヘ96-1:
      latlng: 36.43318729,136.49901098
      name:
      - 能美市立若葉保育園
    末寺町イ205:
      latlng: 36.44631691,136.51064890
      name:
      - 末寺町コミュニティセンター
    末寺町ハ29:
      latlng: ''
      name:
      - 和田山・末寺山ふるさと歴史の広場
    来丸町ワ50:
      latlng: ''
      name:
      - 物見山運動公園
    東任田町イ56-1:
      latlng: ''
      name:
      - 緑町団地集会所
    東任田町ロ16:
      latlng: 36.44689051,136.49516382
      name:
      - 能美市立豊美保育園
    東任田町ロ57:
      latlng: ''
      name:
      - 東任田町コミュニティセンター
    泉台町中108:
      latlng: 36.43268892,136.52351433
      name:
      - なかよし公園
    泉台町中192:
      latlng: ''
      name:
      - 泉台町コミュニティセンター
    泉台町南1-56:
      latlng: ''
      name:
      - 泉台公園
    泉台町南2番:
      latlng: 36.42879743,136.51707044
      name:
      - 石川県立九谷焼技術研修所
    泉台町南38番:
      latlng: 36.42868637,136.51777593
      name:
      - 石川県立九谷焼技術者自立支援工房
    泉台町東10:
      latlng: 36.43261126,136.52583355
      name:
      - クアハウス九谷
    泉台町東11:
      latlng: 36.43477209,136.52600302
      name:
      - 泉台スポーツセンター
    泉台町西38:
      latlng: ''
      name:
      - おおぞら公園
    浜町ヨ2-1:
      latlng: ''
      name:
      - 根上勤労者体育センター
    浜町ワ143:
      latlng: 36.44636114,136.45350784
      name:
      - 浜町学習等供用施設
    浜町ワ78:
      latlng: 36.44430288,136.45058035
      name:
      - 能美市立根上中学校
    浜開発町丙131:
      latlng: 36.44317571,136.45765754
      name:
      - 根上子どもの館
    湯谷町ト28:
      latlng: 36.43606040,136.51798157
      name:
      - 湯谷町集落センター
    湯谷町ヘ76:
      latlng: 36.43444096,136.51429300
      name:
      - 能美市立湯野小学校
    湯谷町乙25:
      latlng: 36.43465517,136.52043132
      name:
      - 寺井老人福祉センター
    牛島町タ31:
      latlng: 36.43220427,136.50128857
      name:
      - 牛島町集落センター
    石子町ハ56:
      latlng: 36.43790415,136.51046004
      name:
      - 石子町集落センター
    福岡町ハ35:
      latlng: 36.44797160,136.47552878
      name:
      - 能美市立福岡小学校
    福岡町ロ136-1:
      latlng: ''
      name:
      - 福岡町学習等供用施設
    福島町ろ56:
      latlng: 36.45696712,136.47039003
      name:
      - 根上野球場
    福島町ヘ63-2:
      latlng: 36.45750577,136.46867346
      name:
      - 福島町学習等供用施設
    秋常町チ115:
      latlng: 36.44941691,136.51776206
      name:
      - 能美市立すみれ保育園
    秋常町チ122-1:
      latlng: 36.44925578,136.51715657
      name:
      - 秋常勤労者体育センター
    秋常町ト129-1:
      latlng: ''
      name:
      - 秋常町学習等供用施設
    粟生町ロ10-2:
      latlng: 36.45163803,136.50632408
      name:
      - 能美市立粟生保育園
    粟生町ロ32:
      latlng: ''
      name:
      - 粟生町学習等供用施設
    粟生町ロ45:
      latlng: 36.45236850,136.50647961
      name:
      - 能美市立粟生小学校
    緑が丘3丁目28:
      latlng: ''
      name:
      - 緑が丘中央公園
    緑が丘9丁目1:
      latlng: 36.44233270,136.53775465
      name:
      - 緑が丘コミュニティセンター
    西二口町60:
      latlng: 36.44196338,136.46924865
      name:
      - 根上勤労青少年ホーム
    西任田町イ33:
      latlng: 36.44865347,136.48836697
      name:
      - 西任田町学習等供用施設
    赤井町は2:
      latlng: 36.45656575,136.48345041
      name:
      - 赤井地区広域働く婦人の家
    辰口町129:
      latlng: 36.44827107,136.54724469
      name:
      - 能美市立辰口中学校
    辰口町735:
      latlng: 36.44684057,136.54256492
      name:
      - 能美市立辰口中央小学校
    辰口町ヌ10:
      latlng: 36.44436327,136.54806981
      name:
      - 辰口福祉会館
    道林町ハ161:
      latlng: 36.44109451,136.44228953
      name:
      - 根上青年の家
    道林町ヘ106:
      latlng: 36.44135005,136.44263671
      name:
      - 道林町学習等供用施設
      - 根上体育館
    高坂町ハ99-1:
      latlng: 36.43790642,136.44798909
      name:
      - 高坂・根上町学習等供用施設
  輪島市:
    三井町中長谷12:
      latlng: 37.30897762,136.92970218
      name:
      - 健康の森
    三井町興徳寺10字29番地:
      latlng: 37.31838971,136.90129043
      name:
      - 輪島市立三井小学校
    三井町興徳寺10字33番地:
      latlng: 37.31838971,136.90129043
      name:
      - 輪島市立三井中学校
    三井町長沢2字12番地:
      latlng: 37.31543172,136.90269878
      name:
      - 輪島市三井基幹集落センター
    大沢町ホサソ170番地:
      latlng: 37.37449116,136.80361552
      name:
      - 旧輪島市立西保中学校
    大沢町ホサソ201番地:
      latlng: 37.37516884,136.80277110
      name:
      - 輪島市西保コミュニティセンター
    大野町菰沢2番地3:
      latlng: 37.39714562,136.93448122
      name:
      - 輪島市立鵠巣小学校
    宅田町25部36番地の1:
      latlng: ''
      name:
      - 輪島市立上野台中学校
    小伊勢町丸垣内22番地1:
      latlng: 37.38120419,136.88594095
      name:
      - 輪島市大屋コミュニティセンター
    小伊勢町日隅7番地3:
      latlng: 37.38319017,136.88898505
      name:
      - 輪島市立大屋小学校
    杉平町1字12番地:
      latlng: 37.38674048,136.91410537
      name:
      - 一本松総合運動公園体育館
    横地町6字123番地:
      latlng: ''
      name:
      - 輪島市立河原田小学校
    河井町11部39番地1:
      latlng: ''
      name:
      - 輪島市立松陵中学校
    河井町13部8-1他:
      latlng: ''
      name:
      - 一本松公園
    河井町18部1番地2:
      latlng: ''
      name:
      - 輪島市立河井小学校
    河井町18部42-2:
      latlng: ''
      name:
      - 石川県立輪島高等学校(建物のみ)
    河井町2部287番地1:
      latlng: ''
      name:
      - ふれあい健康センター
    海士町所属舳倉島出邑山1番4:
      latlng: ''
      name:
      - 舳倉島開発総合センター
    深見町65字33番地の1:
      latlng: ''
      name:
      - 高齢者生きがいづくり輪島深見センター
    町野町粟蔵川原田22番地:
      latlng: 37.42329667,137.08810558
      name:
      - 輪島市町野多目的集会施設
    町野町粟蔵川原田42番地:
      latlng: 37.42261621,137.08913885
      name:
      - 輪島市立町野小学校
    西脇町60番地:
      latlng: 37.35728260,136.90834059
      name:
      - 介護予防拠点施設ふれあいプラザ河原田
    赤崎町ニの80番地:
      latlng: 37.38334329,136.81397523
      name:
      - 輪島市立西保小学校
    赤崎町ハ字50番地:
      latlng: 37.38202678,136.81495856
      name:
      - 輪島市自然休養村管理センター
    輪島崎地内:
      latlng: ''
      name:
      - 天神山
    輪島崎町1部211番地4:
      latlng: ''
      name:
      - 輪島市港コミュニテイセンター
    里町32字36番地:
      latlng: 37.43027843,137.03411357
      name:
      - 輪島市農村環境改善センター
    里町3部16番地:
      latlng: ''
      name:
      - 輪島市立南志見小学校
    釜屋谷町1字30番地:
      latlng: 37.39030899,136.89330652
      name:
      - 石川県立輪島漆芸技術研修所
    門前町二又川4-4-1:
      latlng: 37.28480220,136.82697686
      name:
      - 輪島市立本郷公民館
    門前町五十洲4-1:
      latlng: 37.34233791,136.74987691
      name:
      - 旧七浦小学校
    門前町別所2-91:
      latlng: 37.27510649,136.83960418
      name:
      - 上本郷地区集会所
      - 上本郷農村公園
    門前町剱地ソ-13:
      latlng: ''
      name:
      - 輪島市剱地交流センター
      - 剱地交流センターグラウンド
    門前町剱地ツの60:
      latlng: ''
      name:
      - 輪島市立剱地公民館
    門前町南カの15:
      latlng: ''
      name:
      - 南農村公園
    門前町南ナ-17:
      latlng: ''
      name:
      - 輪島市立阿岸公民館
    門前町平1-32:
      latlng: 37.28273027,136.82868796
      name:
      - 石川県立七尾養護学校輪島分校
    門前町広岡5の3:
      latlng: 37.28628567,136.76821504
      name:
      - 石川県立門前高等学校
    門前町是清イの1:
      latlng: 37.25511323,136.73278031
      name:
      - 知的障害者授産施設ふれあい工房あぎし(グラウンド)
    門前町浦上10-20-1:
      latlng: ''
      name:
      - あすなろ公園
    門前町浦上8-58:
      latlng: 37.30571819,136.79769772
      name:
      - 輪島市立浦上公民館
    門前町浦上8-59:
      latlng: 37.30607927,136.79793101
      name:
      - 門前高齢者保健福祉施設あすなろ苑
    門前町浦上チの1の1:
      latlng: 37.30518498,136.79942535
      name:
      - 輪島市浦上健康増進広場
    門前町清水1-68:
      latlng: 37.28761605,136.76698726
      name:
      - 輪島市立門前東小学校
    門前町清水10-21:
      latlng: 37.29193498,136.76412606
      name:
      - 輪島市立門前中学校
    門前町清水7-1:
      latlng: 37.29109596,136.75812925
      name:
      - 輪島市門前健民体育館
      - 輪島市門前総合運動公園
    門前町腰細9-29:
      latlng: 37.24286079,136.70393947
      name:
      - 輪島市もんぜん文化村セミナーハウス
    門前町谷口12-28:
      latlng: 37.28749589,136.81325556
      name:
      - 下本郷農村公園
    門前町谷口12の28:
      latlng: 37.28749589,136.81325556
      name:
      - 下本郷地区集会所
    門前町走出2の121:
      latlng: 37.29006880,136.77200070
      name:
      - 輪島市立門前公民館
    門前町走出6の92の2:
      latlng: 37.28780218,136.76780387
      name:
      - 輪島市門前会館
    門前町道下1-123:
      latlng: 37.28496276,136.74110006
      name:
      - 輪島市立門前西小学校
    門前町道下104-2-1:
      latlng: ''
      name:
      - 道下農村公園
    門前町道下7の175:
      latlng: 37.28839030,136.74528293
      name:
      - 輪島市立諸岡公民館
    門前町餅田9-16-2:
      latlng: 37.34703471,136.75575683
      name:
      - 輪島市七浦基幹集落センター
    門前町馬場ニの20:
      latlng: ''
      name:
      - 旧仁岸小学校
    門前町馬渡11-64:
      latlng: 37.21713762,136.73694930
      name:
      - 馬渡地区集会所
    門前町鵜山12-50:
      latlng: 37.34531817,136.75287378
      name:
      - 輪島市立七浦公民館
      - 旧七浦中学校グラウンド
    門前町黒島町高池45:
      latlng: 37.27890221,136.73576457
      name:
      - 輪島市立黒島公民館
    鳳至町堂金田1番地:
      latlng: 37.39549741,136.89514218
      name:
      - 輪島市立鳳至小学校
    鳳至町寺山4他:
      latlng: ''
      name:
      - 鳳来山公園
    鳳至町石浦町83番1:
      latlng: 37.39849995,136.89699185
      name:
      - 輪島市女性センター
  野々市町:
    上林2丁目185番地:
      latlng: ''
      name:
      - おとしよりと子供の健康ひろば
    下林3-309:
      latlng: ''
      name:
      - 石川県立野々市明倫高等学校(建物のみ)
    下林3丁目97:
      latlng: ''
      name:
      - 町民体育館
    中林5丁目70:
      latlng: ''
      name:
      - 野々市町立富陽小学校
    二日市1丁目2:
      latlng: ''
      name:
      - 交遊舎
    住吉町17-10:
      latlng: ''
      name:
      - 青少年センター
    字三納300:
      latlng: ''
      name:
      - 野々市町立野々市中学校
    字田尻町94:
      latlng: ''
      name:
      - 郷公民館
    押野2丁目100:
      latlng: ''
      name:
      - 野々市町立布水中学校
    押野2丁目30:
      latlng: ''
      name:
      - スポーツセンター
    押野3丁目71:
      latlng: ''
      name:
      - 野々市町立館野小学校
    本町1丁目2-50:
      latlng: ''
      name:
      - 防災コミュニティセンター
    本町2丁目1-20:
      latlng: ''
      name:
      - 中央公民館
    本町5丁目3-1:
      latlng: ''
      name:
      - 野々市町立野々市小学校
    稲荷4丁目128:
      latlng: ''
      name:
      - 野々市町立御園小学校
    菅原町20-1:
      latlng: ''
      name:
      - 野々市町立菅原小学校
  金沢市:
    18街区20番地先:
      latlng: ''
      name:
      - 田上郷公園
    36街区1番地先:
      latlng: ''
      name:
      - 田上本町高嶋公園
    42街区1番地先:
      latlng: ''
      name:
      - 田上さくらぶち公園
    59街区7番地先:
      latlng: ''
      name:
      - 田上桜の道公園
    いなほ1-8:
      latlng: ''
      name:
      - いなほふれあい公園
    つつじが丘202:
      latlng: ''
      name:
      - つつじが丘児童公園
    みずき2丁目247:
      latlng: ''
      name:
      - 瑞樹西公園
    みずき2丁目262:
      latlng: ''
      name:
      - 瑞樹中央公園
    みどり1丁目166:
      latlng: 36.57012529,136.59080769
      name:
      - 金沢市立緑小学校
    みどり1丁目172:
      latlng: ''
      name:
      - みどり第2児童公園
    みどり2丁目3:
      latlng: 36.57038068,136.58411924
      name:
      - 金沢市立緑中学校
    みどり2丁目58:
      latlng: ''
      name:
      - みどり中央公園
    みどり3丁目22:
      latlng: ''
      name:
      - みどり庭園公園
    もりの里1丁目1000:
      latlng: ''
      name:
      - 医王の杜公園
    もりの里2丁目1000:
      latlng: ''
      name:
      - 浅野川すずかけ公園
    三十苅町丁154:
      latlng: ''
      name:
      - 三十苅中央公園
    三十苅町丙184:
      latlng: ''
      name:
      - 三十苅児童公園
    三口新町2丁目145:
      latlng: ''
      name:
      - 三口新町第2児童公園
    三口新町3丁目294:
      latlng: ''
      name:
      - 三口新町第1児童公園
    三口新町4丁目266:
      latlng: ''
      name:
      - 三口新町第3児童公園
    三口町火237:
      latlng: 36.60803472,136.64034544
      name:
      - 三口町第1児童公園
    三小牛町20-1-10:
      latlng: 36.50976750,136.67497942
      name:
      - 内川公民館
    三池町240-1:
      latlng: 36.59424540,136.67120526
      name:
      - 東金沢スポーツ広場
    三社町373-1:
      latlng: ''
      name:
      - 神保緑地
    三馬1丁目229:
      latlng: ''
      name:
      - 三馬第2児童公園
    三馬1丁目73:
      latlng: ''
      name:
      - 三馬第3児童公園
    三馬3丁目150:
      latlng: ''
      name:
      - 三馬第1児童公園
    三馬3丁目325:
      latlng: ''
      name:
      - 三馬第4児童公園
    上安原1丁目262:
      latlng: ''
      name:
      - 上安原中央公園
    上平町ハ25:
      latlng: 36.62777174,136.77383845
      name:
      - 旧上平小学校
    上若松町1000:
      latlng: ''
      name:
      - 中瀬栃の木公園
    上荒屋1丁目346:
      latlng: ''
      name:
      - 上荒屋1丁目くすのき公園
    上荒屋4丁目82:
      latlng: 36.55375268,136.59335474
      name:
      - 三和公民館
    上荒屋5丁目453:
      latlng: ''
      name:
      - 上荒屋にれのき公園
    上荒屋6丁目446:
      latlng: ''
      name:
      - 上荒屋もくれん公園
    上荒屋8丁目43:
      latlng: ''
      name:
      - 上荒屋つばき公園
    下安原町東1127:
      latlng: 36.57037205,136.57464507
      name:
      - 安原スポーツ広場
    不動寺町イ33:
      latlng: 36.60845288,136.70862095
      name:
      - 金沢市立不動寺小学校
    不動寺町イ34-1:
      latlng: 36.60807239,136.70867930
      name:
      - 薬師谷公民館
    中村町10-35:
      latlng: 36.55944970,136.64192826
      name:
      - 中村町公民館
    中村町26-12:
      latlng: 36.56098285,136.64205875
      name:
      - 金沢市立中村町小学校
    中村町281:
      latlng: ''
      name:
      - 中村町児童公園
    丸の内1-1他:
      latlng: 36.56703533,136.65834071
      name:
      - 金沢城公園
    丸の内71-2:
      latlng: ''
      name:
      - 外濠公園
    久安1丁目489:
      latlng: ''
      name:
      - 久安伏見公園
    久安2丁目281:
      latlng: ''
      name:
      - 久安殿屋敷公園
    久安6丁目154:
      latlng: 36.54358484,136.63362116
      name:
      - 金沢市立三馬小学校
    久安6丁目59-1:
      latlng: 36.54211559,136.63456003
      name:
      - 三馬公民館
    乙丸町甲161:
      latlng: 36.58673819,136.66531160
      name:
      - 浅野町公民館
    二俣町さ21:
      latlng: 36.55563676,136.75984496
      name:
      - 金沢市立医王山小学校
      - 金沢市立医王山中学校
    二俣町六字14-9:
      latlng: ''
      name:
      - 医王山公民館
    二口町ニ24-5:
      latlng: 36.57938311,136.63368620
      name:
      - 戸板公民館
    二口町ハ42:
      latlng: 36.57755002,136.63336966
      name:
      - 金沢市立戸板小学校
    二宮町1-1:
      latlng: 36.58514616,136.62912786
      name:
      - 金沢市立長田中学校
    京町35-1:
      latlng: 36.58173050,136.65881785
      name:
      - 金沢市立浅野町小学校
    京町59:
      latlng: ''
      name:
      - 浅野本町第3児童公園
    今町チ41:
      latlng: 36.63349949,136.70764516
      name:
      - 花園公民館
    今町ヌ34:
      latlng: 36.63264405,136.70820902
      name:
      - 金沢市立花園小学校
    伏見台2丁目72:
      latlng: ''
      name:
      - 寺地なかよし公園
    伏見台3丁目58:
      latlng: ''
      name:
      - 円光寺第2公園
    保古1丁目120:
      latlng: ''
      name:
      - 保古東公園
    俵町へ乙22:
      latlng: 36.53435730,136.72368339
      name:
      - 金沢市立俵小学校
    俵町ツ63-2:
      latlng: 36.53441013,136.72502212
      name:
      - 俵公民館
    元町2丁目137:
      latlng: ''
      name:
      - 元町第3児童公園
    光が丘1丁目67:
      latlng: ''
      name:
      - 光が丘1丁目児童公園
    光が丘2丁目105:
      latlng: ''
      name:
      - 光が丘中央公園
    光が丘3丁目19:
      latlng: ''
      name:
      - 光が丘3丁目児童公園
    入江2丁目250:
      latlng: ''
      name:
      - 入江第1児童公園
    八日市1丁目176:
      latlng: 36.54593986,136.60939521
      name:
      - 金沢市立押野小学校
    八日市2丁目464:
      latlng: 36.54609261,136.60858972
      name:
      - 押野公民館
    八日市2丁目608:
      latlng: ''
      name:
      - 八日市住吉中央公園
    八日市5丁目296:
      latlng: ''
      name:
      - 八日市アメリカフウ児童公園
    八日市5丁目455:
      latlng: ''
      name:
      - 八日市ケヤキ児童公園
    八日市出町304:
      latlng: 36.55547482,136.60836721
      name:
      - 金沢市立西南部小学校
    八日市出町718:
      latlng: ''
      name:
      - 八日市出町ふるみや公園
    八田町東567:
      latlng: 36.63134930,136.68533373
      name:
      - 湖南公民館
    八田町西1番地:
      latlng: 36.63796761,136.67270960
      name:
      - 金沢競馬場
    兼六元町7-15:
      latlng: 36.56588842,136.66600407
      name:
      - 金沢市立味噌蔵町小学校
    兼六元町7-19:
      latlng: 36.56647999,136.66527355
      name:
      - 味噌蔵町公民館
    出羽町、石引、本多町:
      latlng: ''
      name:
      - 本多の森公園
    出羽町他:
      latlng: ''
      name:
      - 本多の森公園
    出雲町イ418:
      latlng: ''
      name:
      - 出雲中央公園
    別所町ヰ18:
      latlng: 36.50446545,136.67611262
      name:
      - 金沢市立内川小学校
      - 金沢市立内川中学校
    割出町418:
      latlng: ''
      name:
      - 割出町公園
    加賀朝日町ホ33:
      latlng: 36.62265239,136.75559329
      name:
      - 金沢市立朝日小学校
    北塚町東196-1:
      latlng: 36.57086151,136.60001512
      name:
      - 西部緑地公園 テニスコート
    北塚町東220:
      latlng: 36.57422500,136.60120079
      name:
      - 県立野球場
    北塚町西98:
      latlng: 36.57277784,136.59717647
      name:
      - 二塚公民館
    北安江2丁目1408:
      latlng: ''
      name:
      - 北安江2丁目公園
    北安江2丁目25-1:
      latlng: 36.58864875,136.64792932
      name:
      - 金沢市立諸江町小学校
    北安江3丁目1201:
      latlng: ''
      name:
      - 駅西第2児童公園
    北間町ハ93-1:
      latlng: ''
      name:
      - 北間町西公園
    北間町ホ161:
      latlng: ''
      name:
      - 北間町公園
    十一屋町3-45:
      latlng: 36.54532679,136.66091073
      name:
      - 金沢市立十一屋小学校
    千木1丁目119:
      latlng: 36.60579363,136.67412676
      name:
      - 千坂公民館
    千木1丁目125:
      latlng: 36.60573531,136.67497668
      name:
      - 金沢市立千坂小学校
    千木町カ66:
      latlng: ''
      name:
      - 千木日吉の森公園
    南四十万1丁目221:
      latlng: 36.49763055,136.61943638
      name:
      - 四十万あいぞめ公園
    南新保町リ27-1:
      latlng: 36.60183549,136.63249330
      name:
      - 金沢市立鞍月小学校
    南新保町ロ133-2:
      latlng: 36.60106896,136.63386271
      name:
      - 鞍月公民館
    南森本町イ111:
      latlng: 36.62279207,136.69303864
      name:
      - 金沢市立森本小学校
    南森本町チ103-1:
      latlng: 36.61671780,136.69332486
      name:
      - 森本公民館
    南森本町ワ102番地:
      latlng: 36.61893147,136.69502188
      name:
      - 森本しちょうが丘公園
    古府2丁目4:
      latlng: 36.56667897,136.60911122
      name:
      - 古府徳代公園
    古府3丁目95:
      latlng: ''
      name:
      - 古府中央公園
    古府町南851:
      latlng: ''
      name:
      - 古府町第1児童公園
    吉原町ヨ23:
      latlng: 36.61196845,136.69477207
      name:
      - 吉原児童公園
    吉原町ワ21:
      latlng: 36.60731618,136.69245852
