神奈川:
  三浦市:
    三崎1丁目20番32号:
      latlng: 35.14323423,139.61953420
      name:
      - 三浦市立三崎小学校
    三崎町六合45番地:
      latlng: 35.15553714,139.63963496
      name:
      - 三浦市立上原中学校
    三崎町城ヶ島養老子:
      latlng: ''
      name:
      - 神奈川県水産技術センター
    三崎町諸磯1870番地:
      latlng: 35.15393110,139.61089003
      name:
      - 三浦市老人福祉保健センター
    三崎町諸磯65番地:
      latlng: 35.15537426,139.62801927
      name:
      - 三浦市立名向小学校
    初声町下宮田3622番地:
      latlng: 35.18963875,139.63436178
      name:
      - 三浦市立初声中学校
    初声町下宮田3728番地:
      latlng: 35.18815007,139.62989829
      name:
      - 三浦市立初声小学校
    初声町和田3023番地の1:
      latlng: ''
      name:
      - 平塚農業高等学校初声分校
    初声町和田3136:
      latlng: 35.19151551,139.62085694
      name:
      - 三浦ふれあいの村
    南下浦町上宮田3040番地:
      latlng: 35.18878624,139.64853284
      name:
      - 三浦市立上宮田小学校
    南下浦町上宮田950番地:
      latlng: 35.19508863,139.65598768
      name:
      - 三浦市立旭小学校
    南下浦町松輪1710番地:
      latlng: 35.14727049,139.66641368
      name:
      - 三浦市立剣崎小学校
    南下浦町菊名1096番地:
      latlng: 35.17331012,139.65368854
      name:
      - 三浦市立南下浦小学校
    南下浦町金田206番地:
      latlng: 35.17193804,139.65383580
      name:
      - 三浦市立南下浦中学校
    城山町5番1号:
      latlng: 35.14480347,139.62135069
      name:
      - 三浦市立三崎中学校
    城山町6番9号:
      latlng: 35.14371461,139.62239786
      name:
      - 青少年会館
    岬陽町10番1号:
      latlng: 35.14731088,139.63071376
      name:
      - 三浦市立岬陽小学校
  中井町:
    井ノ口2005番地:
      latlng: 35.33941570,139.23219787
      name:
      - 中井町立井ノ口小学校
    半分形350番地:
      latlng: 35.32580580,139.21673517
      name:
      - 中井町立中村小学校
    境1293番地:
      latlng: 35.35231307,139.21002998
      name:
      - 境 コミュニティ センター
    比奈窪295番地:
      latlng: 35.33385752,139.21821003
      name:
      - 中井町立中井中学校
    比奈窪580番地:
      latlng: 35.33805414,139.21717398
      name:
      - 中井中央公園
  二宮町:
    一色1113番1号:
      latlng: ''
      name:
      - 一色防災コミュニティーセンター
    一色1363番地:
      latlng: 35.31415567,139.24638300
      name:
      - 二宮高等学校
    中里2丁目18番13号:
      latlng: 35.30753424,139.24369730
      name:
      - 中里西公会堂
    中里897番地:
      latlng: ''
      name:
      - 中里防災コミュニティーセンター
    二宮1240番地10:
      latlng: 35.30387692,139.25752140
      name:
      - 二宮町生涯学習センターラディアン
    二宮1410番地:
      latlng: 35.30690139,139.25459376
      name:
      - 二宮町保健センター
    二宮1428番地:
      latlng: 35.30692090,139.25602975
      name:
      - 元町北防災コミュニティーセンター
    二宮146番地2:
      latlng: ''
      name:
      - 上町児童館
    二宮373番地9:
      latlng: ''
      name:
      - 下町児童館
    二宮54番地2:
      latlng: 35.29811127,139.26450985
      name:
      - 二宮町立二宮中学校
    二宮872番地1:
      latlng: 35.29920251,139.25584665
      name:
      - 二宮町立二宮小学校
    二宮876番地:
      latlng: 35.29942752,139.25686878
      name:
      - 二宮町駅前町民会館
    二宮961番地:
      latlng: 35.29949412,139.25552444
      name:
      - 二宮町町民センター
    二宮961番地25:
      latlng: 35.30006067,139.25462173
      name:
      - 二宮町立武道館
    富士見が丘1丁目17番23号:
      latlng: 35.30652402,139.26319584
      name:
      - 富士見が丘児童館
    富士見が丘3丁目1番2号:
      latlng: 35.31118169,139.26141253
      name:
      - 富士見が丘防災コミュニティーセンター
    山西1401番地:
      latlng: 35.30216558,139.24694176
      name:
      - 二宮町立山西小学校
    山西1574番地:
      latlng: 35.30090183,139.24256145
      name:
      - 釜野児童館
    山西218番地10:
      latlng: 35.29313369,139.24730578
      name:
      - 二宮町立体育館
    山西448番地10:
      latlng: ''
      name:
      - 茶屋児童館
    山西759番地:
      latlng: 35.29565270,139.24494195
      name:
      - 越地児童館
    川匂323番地:
      latlng: 35.29800220,139.23679792
      name:
      - 二宮町立二宮西中学校
    川匂71番地3:
      latlng: ''
      name:
      - 山西防災コミュニティーセンター
    百合が丘2番地7:
      latlng: 35.31136699,139.24110842
      name:
      - 二宮町立一色小学校
    百合が丘3丁目2番1号:
      latlng: 35.31258911,139.24340546
      name:
      - 百合が丘児童館
    百合が丘3番地63:
      latlng: 35.31228342,139.23735307
      name:
      - 百合が丘保育園
    緑が丘3丁目29番2号:
      latlng: 35.31495306,139.25294084
      name:
      - 緑が丘防災コミュニティーセンター
  伊勢原市:
    上粕屋804番地2:
      latlng: ''
      name:
      - 伊勢原市立山王中学校
    下糟屋231番地1:
      latlng: 35.40315142,139.32070304
      name:
      - 伊勢原市立中沢中学校
    下谷1471番地1:
      latlng: 35.39132571,139.33679843
      name:
      - 伊勢原市立大田小学校
    伊勢原4丁目1番1号:
      latlng: 35.39853777,139.31122912
      name:
      - 伊勢原市立伊勢原小学校
    大山209番地:
      latlng: 35.41924218,139.26171969
      name:
      - 伊勢原市立大山小学校
    岡崎6611番地1:
      latlng: 35.38537824,139.30414396
      name:
      - 伊勢原市立竹園小学校
    東大竹2丁目1番1号:
      latlng: ''
      name:
      - 千津ふれあい公園
    桜台4丁目16番1号:
      latlng: 35.38906713,139.31632316
      name:
      - 伊勢原市立桜台小学校
    桜台4丁目2番1号:
      latlng: 35.39030582,139.31576209
      name:
      - 伊勢原市立伊勢原中学校
    田中1008番地の3:
      latlng: 35.40345628,139.30612125
      name:
      - 伊勢原高等学校
    石田1168番地1:
      latlng: 35.40882357,139.34546694
      name:
      - 伊勢原市立石田小学校
    石田1356番地の1:
      latlng: 35.41296757,139.34547543
      name:
      - 伊志田高等学校
    石田1390:
      latlng: 35.41216764,139.34485324
      name:
      - 伊勢原養護学校
    神戸521番地1:
      latlng: 35.39620397,139.28857597
      name:
      - 伊勢原市立比々多小学校
    西富岡1090番地1:
      latlng: 35.42271747,139.29528321
      name:
      - 伊勢原市立高部屋小学校
    高森1481番地3:
      latlng: 35.40950369,139.32950210
      name:
      - 伊勢原市立成瀬小学校
    高森2丁目22番1号:
      latlng: 35.41136722,139.32662742
      name:
      - 伊勢原市立成瀬中学校
    高森482番地:
      latlng: 35.42114666,139.32677198
      name:
      - 伊勢原市立緑台小学校
  南足柄市:
    内山1051番地:
      latlng: 35.34475644,139.07424869
      name:
      - 南足柄市立北足柄小学校
    千津島632番地:
      latlng: 35.33485366,139.10691482
      name:
      - 南足柄市立福沢小学校
    向田555番地:
      latlng: 35.32139199,139.11218143
      name:
      - 南足柄市立向田小学校
    向田620番地1:
      latlng: ''
      name:
      - 向田公園
    和田河原1030番地:
      latlng: 35.31575450,139.12603027
      name:
      - 南足柄市体育センター
    和田河原15番地:
      latlng: 35.31676245,139.11962810
      name:
      - しもわだちびっこ公園
    和田河原323番地:
      latlng: 35.31512658,139.11952541
      name:
      - 南足柄市立むつみ幼稚園
    塚原1620番地2:
      latlng: ''
      name:
      - 南足柄市立図書館駐車場
    塚原1660番地:
      latlng: 35.30431182,139.12684471
      name:
      - 南足柄市立岡本中学校
    塚原1769番地:
      latlng: 35.30599204,139.12482815
      name:
      - 南足柄市立岡本小学校
    塚原2212番地:
      latlng: 35.30329796,139.12283684
      name:
      - 南足柄市立岡本幼稚園(駒千代広場)
    塚原4536番地146:
      latlng: ''
      name:
      - グリーンヒル第2号公園
    塚原4536番地63:
      latlng: ''
      name:
      - グリーンヒル第1号公園
    塚原4627番地126:
      latlng: ''
      name:
      - グリーンヒル第5号公園
    塚原4627番地52:
      latlng: ''
      name:
      - グリーンヒル第4号公園
    塚原4638番地71:
      latlng: ''
      name:
      - 緑が丘テニスコート
    塚原4869番地102:
      latlng: ''
      name:
      - グリーンヒル第10号公園
    塚原4869番地172:
      latlng: ''
      name:
      - グリーンヒル第8号公園
    塚原761番地:
      latlng: ''
      name:
      - 中丸公園
    壗下369番地:
      latlng: ''
      name:
      - 壗下第二児童遊園地
    岩原166番地1:
      latlng: ''
      name:
      - 岩原公園
    岩原310番地:
      latlng: 35.29611877,139.12926999
      name:
      - 南足柄市立岩原小学校
    広町519番地:
      latlng: 35.31791962,139.09866636
      name:
      - 南足柄市こどもセンターテニスコート
    怒田811番地:
      latlng: ''
      name:
      - 怒田住宅広場
    怒田860番地:
      latlng: 35.32889601,139.10360700
      name:
      - 足柄高等学校
    狩野304番地1:
      latlng: ''
      name:
      - 久根下公園
    生駒330番地1:
      latlng: 35.31082152,139.11566214
      name:
      - 南足柄市中部公民館
    矢倉沢2174番地:
      latlng: ''
      name:
      - 地蔵堂駐車場
    苅野675番地:
      latlng: 35.33112491,139.07228553
      name:
      - 南足柄市立北幼稚園
    関本249番地1:
      latlng: ''
      name:
      - 関本公園
    関本400番地:
      latlng: 35.32259393,139.09887720
      name:
      - 南足柄市立南足柄小学校
    関本433番地:
      latlng: 35.32173570,139.09854672
      name:
      - 南足柄市立南足柄中学校
    関本657番地15:
      latlng: ''
      name:
      - 南耕地公園
    駒形新宿31番地2:
      latlng: ''
      name:
      - 駒形富士見公園
  厚木市:
    七沢150番地の1:
      latlng: 35.43925498,139.30362960
      name:
      - 厚木市立玉川小学校
    三田3472番地:
      latlng: 35.46900108,139.36210768
      name:
      - 厚木市立睦合東中学校
    三田515番地:
      latlng: 35.48234343,139.34717853
      name:
      - 厚木市立三田小学校
    上依知1289番地:
      latlng: 35.50724881,139.35646080
      name:
      - 厚木市立藤塚中学校
    上依知1657番地:
      latlng: 35.51093701,139.36400409
      name:
      - 厚木市立上依知小学校
    上荻野1429番地:
      latlng: 35.50716762,139.31209306
      name:
      - 厚木市立上荻野小学校
    上荻野8番地:
      latlng: ''
      name:
      - 厚木市立荻野小学校
    下依知1195番地の1:
      latlng: ''
      name:
      - 厚木市立依知南小学校
    下川入1365番地の8:
      latlng: ''
      name:
      - 中央青年の家跡地自然園
    下荻野1170番地:
      latlng: ''
      name:
      - 厚木市立睦合中学校
    中依知364番地:
      latlng: 35.47434188,139.36931827
      name:
      - 厚木市立依知中学校
    妻田南1丁目14番1号:
      latlng: 35.45246944,139.36176944
      name:
      - 厚木市立妻田小学校
    妻田西3丁目18番1号:
      latlng: ''
      name:
      - 厚木市立清水小学校
    寿町3丁目15番34号:
      latlng: 35.44717281,139.36276113
      name:
      - 厚木市立厚木小学校
    寿町3丁目2番1号:
      latlng: ''
      name:
      - 厚木中央公園
    小野301番地の10:
      latlng: 35.43076493,139.32170032
      name:
      - 厚木市立玉川中学校
    山際658番地:
      latlng: 35.50321319,139.35961602
      name:
      - 厚木市立北小学校
    岡田1丁目12番1号:
      latlng: 35.43152719,139.36101925
      name:
      - 厚木清南高等学校
    岡田5丁目10番1号:
      latlng: 35.42055337,139.36739312
      name:
      - 厚木市立相川小学校
    恩名2丁目16番1号:
      latlng: 35.44319513,139.35227025
      name:
      - 厚木市立南毛利中学校
    愛甲1809番地:
      latlng: 35.42076423,139.35295005
      name:
      - 厚木市立東名中学校
    愛甲2783番地:
      latlng: 35.42641598,139.33919598
      name:
      - 厚木市立愛甲小学校
    戸室2丁目24番1号:
      latlng: 35.44609202,139.35134810
      name:
      - 厚木高等学校
    戸室4丁目4番1号:
      latlng: 35.45174698,139.35040917
      name:
      - 厚木市立戸室小学校
    戸田545番地:
      latlng: 35.40348505,139.36048423
      name:
      - 厚木市立戸田小学校
    旭町5丁目38番1号:
      latlng: 35.43385473,139.36160819
      name:
      - 厚木市立厚木第二小学校
    林5丁目5番1号:
      latlng: 35.45821860,139.35197831
      name:
      - 厚木市立林中学校
    森の里1丁目:
      latlng: 35.44241626,139.30897638
      name:
      - 若宮公園
    森の里1丁目27番1号:
      latlng: 35.44484342,139.30626270
      name:
      - 厚木市立森の里小学校
    森の里3丁目35番1号:
      latlng: 35.44870959,139.30480169
      name:
      - 厚木市立森の里中学校
    毛利台1丁目23番1号:
      latlng: 35.44111423,139.32999413
      name:
      - 厚木市立毛利台小学校
    水引1丁目1番3号:
      latlng: 35.44385088,139.36022519
      name:
      - 厚木市立厚木中学校
    温水783番地の1:
      latlng: ''
      name:
      - ぼうさいの丘公園
    王子1丁目1番1号:
      latlng: 35.45604082,139.34484005
      name:
      - 厚木東高等学校
    王子3丁目1番1号:
      latlng: 35.45717675,139.34294573
      name:
      - 厚木商業高等学校
    緑ヶ丘4丁目1番1号:
      latlng: 35.45493254,139.34295689
      name:
      - 厚木市立緑ヶ丘小学校
    酒井1981番地の1:
      latlng: 35.40845696,139.36505638
      name:
      - 厚木市立相川中学校
    長谷1085番地:
      latlng: 35.43514840,139.33935448
      name:
      - 厚木市立南毛利小学校
    関口872番地の1:
      latlng: 35.49156455,139.36341300
      name:
      - 厚木市立依知小学校
    飯山2360番地:
      latlng: 35.46311425,139.32267508
      name:
      - 厚木市立小鮎小学校
    飯山2367番地:
      latlng: 35.46221993,139.32320282
      name:
      - 厚木市立小鮎中学校
    飯山4400番地:
      latlng: 35.47251309,139.32069463
      name:
      - 厚木市立飯山小学校
    鳶尾2丁目12番1号:
      latlng: ''
      name:
      - 厚木市立鳶尾小学校
    鳶尾5丁目1番1号:
      latlng: ''
      name:
      - 厚木市立荻野中学校
  大井町:
    上大井171番地:
      latlng: 35.31993556,139.15575212
      name:
      - 大井町立上大井小学校
    山田580番地:
      latlng: 35.33639728,139.16213145
      name:
      - 大井町立相和小学校
    金子1436番地:
      latlng: 35.32995643,139.15110486
      name:
      - 大井町立大井小学校
    金子1950番地:
      latlng: 35.32478770,139.15496308
      name:
      - 大井町立湘光中学校
    金子1970番地:
      latlng: 35.32653748,139.15551294
      name:
      - 大井町総合体育館
  大和市:
    つきみ野3丁目4番地:
      latlng: 35.50723111,139.45529049
      name:
      - 大和高等学校
    つきみ野3丁目5番地1:
      latlng: 35.50892230,139.45399328
      name:
      - 大和市立つきみ野中学校
    上和田1314番地1:
      latlng: 35.44878901,139.47943902
      name:
      - 大和市立上和田中学校
    上和田2557番地:
      latlng: 35.44293977,139.47449780
      name:
      - 大和南高等学校
    上和田2695番地:
      latlng: 35.44116485,139.46989248
      name:
      - 大和市立上和田小学校
    上和田832番地:
      latlng: 35.45309375,139.46841716
      name:
      - 大和市立桜丘小学校
    上草柳7丁目4番26号:
      latlng: 35.48367378,139.45349180
      name:
      - 大和市立大野原小学校
    下和田49番地:
      latlng: 35.43085771,139.47304796
      name:
      - 大和市立渋谷中学校
    下和田929番地:
      latlng: 35.43148243,139.46705101
      name:
      - 大和市立渋谷小学校
    下鶴間1450番地29:
      latlng: 35.51721775,139.44926557
      name:
      - 大和市立中央林間小学校
    下鶴間3016番地:
      latlng: 35.49619265,139.45409674
      name:
      - 大和市立鶴間中学校
    下鶴間685番地:
      latlng: 35.50918352,139.46162882
      name:
      - 大和市立北大和小学校
    中央3丁目6番1号:
      latlng: 35.47203490,139.45472549
      name:
      - 大和市立草柳小学校
    中央林間西5丁目3番1号:
      latlng: 35.50293832,139.43783107
      name:
      - 大和市立緑野小学校
    南林間9丁目3番1号:
      latlng: 35.49682062,139.43602034
      name:
      - 大和市立南林間中学校
    南林間9丁目3番2号:
      latlng: 35.49618467,139.43643699
      name:
      - 大和市立南林間小学校
    南林間9丁目5番1号:
      latlng: 35.49627083,139.43445104
      name:
      - 大和西高等学校
    大和南2丁目11番1号:
      latlng: 35.46542520,139.46388361
      name:
      - 大和市立光丘中学校
    林間1丁目5番18号:
      latlng: 35.49685353,139.44913316
      name:
      - 大和市立林間小学校
    柳橋1丁目17番地7:
      latlng: 35.46009533,139.46226714
      name:
      - 大和市立柳橋小学校
    柳橋4丁目5050番地:
      latlng: 35.45694850,139.46178390
      name:
      - 大和市立引地台中学校
    桜森3丁目16番31号:
      latlng: 35.47458672,139.43855693
      name:
      - 大和市立文ヶ岡小学校
    深見1760番地:
      latlng: 35.47991968,139.46978002
      name:
      - 大和東高等学校
    深見1805番地:
      latlng: 35.47715085,139.46942183
      name:
      - 大和市立大和東小学校
    深見台2丁目9番1号:
      latlng: 35.46802489,139.46988050
      name:
      - 大和市立深見小学校
    深見西7丁目5番1号:
      latlng: 35.48588437,139.45498329
      name:
      - 大和市立大和中学校
    深見西8丁目7番1号:
      latlng: 35.48727585,139.46128009
      name:
      - 大和市立大和小学校
    福田1569番地1:
      latlng: 35.42566621,139.46139302
      name:
      - 大和市立下福田中学校
    福田570番地:
      latlng: 35.43163757,139.45756254
      name:
      - 大和市立下福田小学校
    福田5丁目22番地1:
      latlng: 35.44403908,139.46177875
      name:
      - 大和市立福田小学校
    草柳3丁目1番地2:
      latlng: 35.45989526,139.45941724
      name:
      - 大和市立引地台小学校
    西鶴間2丁目25番43号:
      latlng: 35.48776157,139.44474220
      name:
      - 大和市立西鶴間小学校
    鶴間1丁目31番7号:
      latlng: 35.49048590,139.45449421
      name:
      - 大和市保健福祉センター
  大磯町:
    国府新宿397番地の1:
      latlng: 35.30406911,139.27292562
      name:
      - 大磯町立国府新宿福祉館
    国府本郷1120番地:
      latlng: 35.30945768,139.28376900
      name:
      - 大磯町立馬場老人憩の家
    国府本郷1196番地:
      latlng: 35.30904666,139.28512999
      name:
      - 大磯町障害福祉センターすばる
    国府本郷785番地の1:
      latlng: 35.30516378,139.28443016
      name:
      - 大磯町立中丸会館
    大磯1121番地の5:
      latlng: 35.30933581,139.31476313
      name:
      - 大磯町立南本町会館
    大磯1253番地のイ:
      latlng: 35.30828602,139.31244394
      name:
      - 大磯町立裡道児童館
    大磯1352番地の1:
      latlng: 35.30699447,139.31397164
      name:
      - 大磯町立福祉センター
    大磯1713番地の19:
      latlng: 35.31047991,139.31914323
      name:
      - 大磯町立北下町福祉館
    大磯1922番地の22:
      latlng: ''
      name:
      - 大磯町立長者町老人憩の家
    大磯937番地の4:
      latlng: 35.31267694,139.31623506
      name:
      - 大磯町立ふれあい会館
    寺坂236番地の1:
      latlng: 35.32550019,139.28925685
      name:
      - 大磯町立寺坂老人憩の家
    月京18番1号:
      latlng: 35.31109339,139.27701400
      name:
      - 大磯町立国府小学校
    月京40番1号:
      latlng: 35.31402905,139.27428083
      name:
      - 大磯町立国府中学校
    月京5番12号:
      latlng: 35.31011021,139.27809171
      name:
      - 大磯町立月京会館
    東小磯261番地:
      latlng: 35.30744731,139.30797217
      name:
      - 大磯町立大磯中学校
    東小磯3番地:
      latlng: 35.30961369,139.31103011
      name:
      - 大磯町立大磯小学校
    東町2丁目8番37号:
      latlng: 35.31373471,139.32452040
      name:
      - 大磯町立東町福祉館
    東町2丁目9番1号:
      latlng: 35.31260992,139.32466767
      name:
      - 大磯高等学校
    生沢699番地の1:
      latlng: 35.32020342,139.27884691
      name:
      - 大磯町立生沢会館
    石神台1丁目1番13号:
      latlng: 35.31044054,139.27205889
      name:
      - 大磯町立石神台会館
    虫窪354番地:
      latlng: 35.32154727,139.26699792
      name:
      - 大磯町立虫窪老人憩の家
    西久保189番地の2:
      latlng: 35.32410767,139.25820687
      name:
      - 大磯町立西久保福祉館
    西小磯104番地:
      latlng: 35.30564189,139.30042855
      name:
      - 大磯町立西小磯東老人憩の家
    西小磯287番地の2:
      latlng: 35.30417527,139.29368204
      name:
      - 大磯町立西小磯西老人憩の家
  寒川町:
    一之宮3丁目9番1号:
      latlng: 35.36858930,139.38071940
      name:
      - 寒川町立寒川中学校
    一之宮7丁目3番1号:
      latlng: 35.36425098,139.37982486
      name:
      - 寒川町立一之宮小学校
    一之宮8丁目5番20号:
      latlng: 35.36351491,139.38317174
      name:
      - 寒川町南部文化福祉会館
    一之宮9丁目30番1号:
      latlng: 35.35962928,139.38617687
      name:
      - 寒川高等学校
    一之宮9丁目9番1号:
      latlng: 35.36172899,139.38573258
      name:
      - 寒川町立南小学校
    倉見1675番地3:
      latlng: 35.39132054,139.38580337
      name:
      - 寒川町立旭小学校
    宮山275番地:
      latlng: 35.37529691,139.38534736
      name:
      - さむかわ中央公園
    宮山2820番地1:
      latlng: 35.38919589,139.38740914
      name:
      - 寒川町北部文化福祉会館
    宮山934番地:
      latlng: 35.37459145,139.38928609
      name:
      - 寒川町立寒川小学校
    小動933番地:
      latlng: 35.38465746,139.38988686
      name:
      - 寒川町立旭が丘中学校
    小谷4丁目5番1号:
      latlng: 35.38272704,139.39907493
      name:
      - 寒川町立小谷小学校
    岡田718番地:
      latlng: 35.36582848,139.39196040
      name:
      - 寒川町立寒川東中学校
  小田原市:
    中曽根359番地:
      latlng: 35.29139541,139.15462600
      name:
      - 小田原市立東富水小学校
    久野1561番地:
      latlng: 35.27238110,139.13640416
      name:
      - 小田原市立久野小学校
    前川858番地:
      latlng: 35.28540409,139.22674051
      name:
      - 小田原市立前羽小学校
    千代687番地:
      latlng: 35.29549275,139.17824528
      name:
      - 小田原市立千代小学校
    千代800番地:
      latlng: 35.29499831,139.17600947
      name:
      - 小田原市立千代中学校
    南鴨宮3丁目25番1号:
      latlng: 35.27075511,139.18209074
      name:
      - 小田原市立富士見小学校
    国府津2372番地:
      latlng: 35.28401215,139.19962350
      name:
      - 小田原市立国府津中学校
    国府津2485番地:
      latlng: 35.28268468,139.20226768
      name:
      - 小田原市立国府津小学校
    城山3丁目4番1号:
      latlng: 35.25524787,139.15158421
      name:
      - 小田原市立城山中学校
    寿町2丁目7番25号:
      latlng: 35.26106989,139.16688782
      name:
      - 小田原市立町田小学校
    小台405番地:
      latlng: 35.30134332,139.14013800
      name:
      - 小田原市立報徳小学校
    小船178番地:
      latlng: 35.30182087,139.22501521
      name:
      - 小田原市立下中小学校
    成田530番地1:
      latlng: 35.28625494,139.16560842
      name:
      - 小田原市立豊川小学校
    扇町1丁目37番7号:
      latlng: 35.26509950,139.15703857
      name:
      - 小田原市立芦子小学校
    扇町3丁目21番7号:
      latlng: 35.26899894,139.15663281
      name:
      - 小田原市立足柄小学校
    扇町5丁目7番17号:
      latlng: 35.27339271,139.15629644
      name:
      - 小田原市立白山中学校
    早川2丁目14番1号:
      latlng: 35.24358523,139.14344128
      name:
      - 小田原市立早川小学校
    曽我原333番地:
      latlng: 35.29980912,139.19049639
      name:
      - 小田原市立下曽我小学校
    曽我大沢69番地:
      latlng: 35.31704999,139.16631796
      name:
      - 小田原市立曽我小学校
    曽比1943番地:
      latlng: 35.31075013,139.13925142
      name:
      - 小田原市立桜井小学校
    本町1丁目12番49号:
      latlng: 35.24850172,139.15593978
      name:
      - 小田原市立三の丸小学校
    東町2丁目9番1号:
      latlng: 35.25766508,139.17585924
      name:
      - 小田原市立山王小学校
    東町4丁目13番1号:
      latlng: 35.26033708,139.18051956
      name:
      - 小田原市立白鴎中学校
    板橋875番地1:
      latlng: 35.25248120,139.14153259
      name:
      - 小田原市立城南中学校
    板橋985番地:
      latlng: 35.25056184,139.13655262
      name:
      - 小田原市立大窪小学校
    栢山2888番地:
      latlng: 35.30814498,139.13898493
      name:
      - 小田原市立城北中学校
    根府川41番地:
      latlng: 35.20614881,139.13946735
      name:
      - (旧)小田原市立片浦中学校
    根府川534番地1:
      latlng: ''
      name:
      - 小田原市立片浦小学校
    浜町2丁目1番20号:
      latlng: 35.25555110,139.16464119
      name:
      - 小田原市立新玉小学校
    矢作227番地:
      latlng: 35.28715797,139.17662647
      name:
      - 小田原市立矢作小学校
    羽根尾410番地:
      latlng: 35.29266688,139.23248162
      name:
      - 小田原市立橘中学校
    酒匂5丁目15番3号:
      latlng: 35.26969458,139.19469471
      name:
      - 小田原市立酒匂小学校
    酒匂930番地:
      latlng: 35.27857639,139.18776995
      name:
      - 小田原市立下府中小学校
    酒匂丁3目4番1号:
      latlng: ''
      name:
      - 小田原市立酒匂中学校
    飯田岡22番地:
      latlng: 35.28744858,139.14697707
      name:
      - 小田原市立泉中学校
    飯田岡481番地:
      latlng: 35.28879260,139.14114426
      name:
      - 小田原市立富水小学校
    鴨宮547番地:
      latlng: 35.28424175,139.17620171
      name:
      - 小田原市立鴨宮中学校
  山北町:
    中川921番地82:
      latlng: 35.41693114,139.04398307
      name:
      - 三保支所・公民館
    中川921番地87:
      latlng: ''
      name:
      - 山北町立三保小・中学校
    向原1630番地:
      latlng: 35.36189665,139.10165385
      name:
      - 山北町立向原保育園
    向原2370番:
      latlng: 35.35466751,139.10818381
      name:
      - 山北高等学校
    向原401番地1:
      latlng: ''
      name:
      - 山北町立山北中学校
    向原6892番地:
      latlng: 35.37597014,139.11561330
      name:
      - 元山北町立川村小学校高松分校
    山北1002番地:
      latlng: 35.35767470,139.08976060
      name:
      - 山北町立川村小学校
    山北121番地:
      latlng: 35.36189349,139.09028268
      name:
      - 山北児童館
    山北1266番地:
      latlng: 35.36004073,139.08220018
      name:
      - 山北町立山北幼稚園
    山北1301番地4:
      latlng: 35.36101843,139.08398885
      name:
      - 山北町中央公民館
    山北1943番地:
      latlng: 35.35462801,139.09126052
      name:
      - 山北町立わかば保育園
    山北1971-2:
      latlng: 35.36051275,139.07963376
      name:
      - 健康福祉センター
    山北1971番地2:
      latlng: 35.36051275,139.07963376
      name:
      - 鉄道公園
    山北2594番地:
      latlng: 35.36051818,139.07692849
      name:
      - 山北体育館
    山北3138番地:
      latlng: ''
      name:
      - 山北スポーツ広場
    岸1995番地:
      latlng: 35.35331157,139.09168550
      name:
      - 山北町立岸幼稚園
    岸2061番地:
      latlng: 35.35197843,139.09232712
      name:
      - 山北町立高齢者いきいきセンター
    岸4031番地イ:
      latlng: ''
      name:
      - ぐみの木近隣公園
    川西688番地:
      latlng: 35.37436709,139.03108367
      name:
      - 山北町立清水小・中学校
      - 清水支所・清水ふれあいセンター
    皆瀬川275番地:
      latlng: 35.37324886,139.06381283
      name:
      - 元山北町立共和小学校
  川崎市:
    中原区上丸子八幡町815:
      latlng: 35.57991737,139.66519651
      name:
      - 川崎市立上丸子小学校
    中原区上小田中1-27-1:
      latlng: 35.59090971,139.63174633
      name:
      - 川崎市立大谷戸小学校
    中原区上小田中3-10-5:
      latlng: 35.58526059,139.63734333
      name:
      - 川崎市立聾学校
    中原区上平間1368:
      latlng: 35.55864047,139.67838568
      name:
      - 川崎市立平間中学校
    中原区上平間1480:
      latlng: 35.55724908,139.67623600
      name:
      - 川崎市立平間小学校
    中原区上平間585:
      latlng: 35.55762392,139.68157432
      name:
      - 川崎市立下河原小学校
    中原区下小田中1-4-1:
      latlng: 35.58077524,139.63848246
      name:
      - 川崎市立大戸小学校
    中原区下小田中2-17-1:
      latlng: 35.57896172,139.64345154
      name:
      - 川崎市立西中原中学校
    中原区下小田中3-35-1:
      latlng: 35.57166013,139.64014963
      name:
      - 川崎市立下小田中小学校
    中原区下新城1-15-1:
      latlng: 35.58161680,139.63221642
      name:
      - 川崎市立新城小学校
    中原区下沼部1955:
      latlng: 35.57311585,139.67040213
      name:
      - 川崎市立下沼部小学校
    中原区中丸子562:
      latlng: 35.56628380,139.66797795
      name:
      - 川崎市立玉川中学校
      - 川崎市立橘高等学校
    中原区井田中ノ町29-1:
      latlng: 35.56454771,139.64535514
      name:
      - 川崎市立井田小学校
    中原区井田杉山町11-1:
      latlng: 35.56999667,139.64420493
      name:
      - 川崎市立井田中学校
    中原区今井仲町321:
      latlng: 35.57554028,139.65062059
      name:
      - 川崎市立今井中学校
    中原区今井南町1111:
      latlng: 35.56941675,139.65808444
      name:
      - 川崎市立東住吉小学校
    中原区今井西町100:
      latlng: 35.57622066,139.64923177
      name:
      - 川崎市立今井小学校
    中原区北谷町32:
      latlng: 35.56223442,139.67264439
      name:
      - 川崎市立玉川小学校
    中原区宮内2-4-1:
      latlng: 35.58883216,139.64137032
      name:
      - 川崎市立宮内小学校
    中原区宮内4ー13-1:
      latlng: 35.58518281,139.64648675
      name:
      - 川崎市立宮内中学校
    中原区小杉御殿町1-950:
      latlng: 35.58368315,139.65087813
      name:
      - 川崎市立中原小学校
    中原区小杉陣屋町1-24-1:
      latlng: 35.58589117,139.65934373
      name:
      - 川崎市立中原中学校
    中原区小杉陣屋町2-19-1:
      latlng: 35.58729641,139.65596892
      name:
      - 川崎市立西丸子小学校
    中原区木月4-53-1:
      latlng: 35.55764357,139.65551851
      name:
      - 川崎市立木月小学校
    中原区木月住吉町27-1:
      latlng: 35.56555069,139.66139818
      name:
      - 川崎市立住吉中学校
    中原区木月祇園町17-1:
      latlng: ''
      name:
      - 川崎市立住吉小学校
    中原区苅宿25-1:
      latlng: 35.56244561,139.66310371
      name:
      - 川崎市立苅宿小学校
    多摩区三田2-5420-2:
      latlng: 35.61229600,139.54577684
      name:
      - 川崎市立生田中学校
    多摩区三田3-6-4:
      latlng: 35.61007963,139.54615745
      name:
      - 川崎市立三田小学校
    多摩区中野島1-16-1:
      latlng: 35.62819097,139.54583986
      name:
      - 川崎市立中野島中学校
    多摩区中野島3-12-1:
      latlng: 35.62930703,139.55179989
      name:
      - 川崎市立中野島小学校
    多摩区南生田3-1-1:
      latlng: 35.60648566,139.53396139
      name:
      - 川崎市立南生田小学校
    多摩区南生田3-4-1:
      latlng: 35.60591073,139.53354755
      name:
      - 川崎市立南生田中学校
    多摩区宿河原2-1-1:
      latlng: 35.61660556,139.57445059
      name:
      - 川崎市立宿河原小学校
    多摩区宿河原3-18-1:
      latlng: 35.61292286,139.57955589
      name:
      - 川崎市立稲田小学校
    多摩区宿河原4-1-1:
      latlng: 35.61861071,139.57919149
      name:
      - 川崎市立稲田中学校
    多摩区布田23-1:
      latlng: 35.63177897,139.54676698
      name:
      - 川崎市立下布田小学校
    多摩区桝形1-22-1:
      latlng: 35.61871449,139.54815126
      name:
      - 川崎市立枡形中学校
    多摩区桝形4-9-1:
      latlng: 35.61587315,139.55078998
      name:
      - 川崎市立東生田小学校
    多摩区生田7-22-1:
      latlng: 35.61706476,139.54189916
      name:
      - 川崎市立生田小学校
    多摩区登戸1329:
      latlng: 35.62239118,139.55896613
      name:
      - 川崎市立登戸小学校
    多摩区菅2-6-1:
      latlng: 35.63261179,139.53260961
      name:
      - 川崎市立菅小学校
    多摩区菅北浦4-2-1:
      latlng: 35.62731284,139.53037705
      name:
      - 川崎市立西菅小学校
    多摩区菅城下28-1:
      latlng: 35.63644679,139.52300706
      name:
      - 川崎市立菅中学校
    多摩区菅馬場2-19-1:
      latlng: 35.62685758,139.53735995
      name:
      - 川崎市立東菅小学校
    多摩区菅馬場3-25-1:
      latlng: 35.62277762,139.53210513
      name:
      - 川崎市立南菅小学校
    多摩区菅馬場4-1-1:
      latlng: 35.62258317,139.53007197
      name:
      - 川崎市立南菅中学校
    多摩区長尾7-28-1:
      latlng: 35.60534079,139.58152296
      name:
      - 川崎市立長尾小学校
    宮前区南平台13-1:
      latlng: 35.59560616,139.56751945
      name:
      - 川崎市立白幡台小学校
    宮前区土橋3-1-11:
      latlng: 35.58308584,139.57552192
      name:
      - 川崎市立土橋小学校
    宮前区宮前平2-18-3:
      latlng: 35.58816847,139.57926303
      name:
      - 川崎市立富士見台小学校
    宮前区宮前平2-7:
      latlng: 35.58961007,139.58307374
      name:
      - 川崎市立宮前平中学校
    宮前区宮前平3-14-1:
      latlng: 35.58904914,139.58570688
      name:
      - 川崎市立宮前平小学校
    宮前区宮崎107:
      latlng: 35.58879402,139.59799479
      name:
      - 川崎市立宮崎中学校
    宮前区宮崎3-18:
      latlng: 35.59244868,139.58949806
      name:
      - 川崎市立宮崎台小学校
    宮前区平1-6-1:
      latlng: 35.60041933,139.57617941
      name:
      - 川崎市立向丘小学校
    宮前区平3-15-1:
      latlng: 35.60344115,139.56899952
      name:
      - 川崎市立平中学校
    宮前区平6-5-1:
      latlng: 35.59546738,139.58002373
      name:
      - 川崎市立平小学校
    宮前区有馬7-6-1:
      latlng: 35.57139626,139.57652518
      name:
      - 川崎市立西有馬小学校
    宮前区有馬7-7-1:
      latlng: 35.57099357,139.57711404
      name:
      - 川崎市立有馬中学校
    宮前区東有馬5-12-1:
      latlng: 35.56806122,139.59136292
      name:
      - 川崎市立有馬小学校
    宮前区水沢3-7-1:
      latlng: 35.59552594,139.54268590
      name:
      - 川崎市立稗原小学校
    宮前区犬蔵1-10-1:
      latlng: 35.58915986,139.56359510
      name:
      - 川崎市立犬蔵中学校
    宮前区犬蔵1-3-1:
      latlng: 35.59139841,139.56569757
      name:
      - 川崎市立犬蔵小学校
    宮前区神木本町5-11-1:
      latlng: 35.59844748,139.58121789
      name:
      - 川崎市立向丘中学校
    宮前区菅生1-5-1:
      latlng: 35.59818654,139.55705665
      name:
      - 川崎市立菅生小学校
    宮前区菅生2-10-1:
      latlng: 35.59833104,139.55243490
      name:
      - 川崎市立菅生中学校
    宮前区野川1269:
      latlng: 35.57366038,139.61007484
      name:
      - 川崎市立野川小学校
    宮前区野川2604:
      latlng: 35.56689764,139.60355351
      name:
      - 川崎市立南野川小学校
    宮前区野川3142-1:
      latlng: 35.57369655,139.60592802
      name:
      - 川崎市立野川中学校
    宮前区野川3142-2:
      latlng: 35.57460751,139.60682512
      name:
      - 川崎市立西野川小学校
    宮前区馬絹1795:
      latlng: 35.57982029,139.58760994
      name:
      - 川崎市立宮崎小学校
    宮前区鷺沼2-1:
      latlng: 35.57745893,139.56879505
      name:
      - 川崎市立鷺沼小学校
    川崎区下並木50:
      latlng: ''
      name:
      - 川崎市立川崎中学校
    川崎区中島3-3-1:
      latlng: 35.52758326,139.71404709
      name:
      - 川崎市立川崎高等学校
    川崎区京町1-1-4:
      latlng: 35.51937661,139.69205771
      name:
      - 川崎市立京町小学校
    川崎区京町3-19-11:
      latlng: ''
      name:
      - 川崎市立京町中学校
    川崎区四谷下町24-1:
      latlng: 35.52428672,139.73918685
      name:
      - 川崎市立南大師中学校
    川崎区四谷下町4-1:
      latlng: 35.52684746,139.73760354
      name:
      - 川崎市立四谷小学校
    川崎区大島4-17-1:
      latlng: 35.52423094,139.71514991
      name:
      - 川崎市立向小学校
    川崎区大島5-25-1:
      latlng: 35.52356987,139.71945788
      name:
      - 川崎市立東大島小学校
    川崎区大師河原2-1-1:
      latlng: 35.53536318,139.73875315
      name:
      - 川崎市立大師中学校
    川崎区宮前町8-13:
      latlng: 35.52872490,139.70566172
      name:
      - 川崎市立宮前小学校
    川崎区富士見2-1-2:
      latlng: ''
      name:
      - 川崎市立富士見中学校
    川崎区小田2-21-7:
      latlng: ''
      name:
      - 川崎市立田島中学校
    川崎区小田4-12-24:
      latlng: 35.51140248,139.70198758
      name:
      - 川崎市立小田小学校
    川崎区小田5-11-20:
      latlng: 35.51215226,139.70683994
      name:
      - 川崎市立東小田小学校
    川崎区小田7-3-1:
      latlng: 35.51084407,139.70877037
      name:
      - 川崎市南部防災センター
    川崎区川中島2-4-19:
      latlng: 35.53064112,139.72515708
      name:
      - 川崎市立川中島小学校
    川崎区日進町20-1:
      latlng: 35.52474242,139.69512674
      name:
      - 川崎市立川崎小学校
    川崎区旭町2-2-1:
      latlng: 35.53183818,139.71496346
      name:
      - 川崎市立旭町小学校
    川崎区東門前2-6-1:
      latlng: 35.53358820,139.73527564
      name:
      - 川崎市立大師小学校
    川崎区東門前3-4-6:
      latlng: 35.53634064,139.73535885
      name:
      - 川崎市立東門前小学校
    川崎区殿町1-17-19:
      latlng: 35.53755777,139.74563047
      name:
      - 川崎市立殿町小学校
    川崎区池上新町1-1-3:
      latlng: 35.52367261,139.72542125
      name:
      - 川崎市立さくら小学校
    川崎区池上新町1-2-4:
      latlng: 35.52317824,139.72689892
      name:
      - 川崎市立桜本中学校
    川崎区浅田2-11-21:
      latlng: 35.50741412,139.70292371
      name:
      - 川崎市立浅田小学校
    川崎区浜町1-5-1:
      latlng: 35.51681808,139.71726667
      name:
      - 川崎市立大島小学校
    川崎区浜町2-11-22:
      latlng: 35.51440456,139.71597520
      name:
      - 川崎市立臨港中学校
    川崎区渡田1-20-1:
      latlng: 35.52192583,139.70810900
      name:
      - 川崎市立田島小学校
    川崎区渡田向町11-1:
      latlng: ''
      name:
      - 川崎市立渡田中学校
    川崎区渡田新町3-15-1:
      latlng: 35.51825710,139.70052365
      name:
      - 川崎市立新町小学校
    川崎区田島町14-1:
      latlng: 35.51601554,139.70927853
      name:
      - 川崎市立渡田小学校
    川崎区藤崎2-19-1:
      latlng: 35.52725266,139.72192694
      name:
      - 川崎市立川中島中学校
    川崎区藤崎3-2-1:
      latlng: 35.52563069,139.72501565
      name:
      - 川崎市立藤崎小学校
    幸区下平間175:
      latlng: 35.54937253,139.67915555
      name:
      - 川崎市立下平間小学校
    幸区中幸町2-17:
      latlng: 35.53827657,139.69386536
      name:
      - 川崎市立幸町小学校
    幸区中幸町4-31:
      latlng: 35.53326346,139.69276286
      name:
      - 川崎市立南河原中学校
    幸区北加瀬1-37-1:
      latlng: 35.54777848,139.66932318
      name:
      - 川崎市立日吉小学校
    幸区北加瀬2-3-1:
      latlng: 35.55380812,139.66140148
      name:
      - 川崎市立日吉中学校
    幸区南加瀬2-13-1:
      latlng: 35.54775353,139.66250435
      name:
      - 川崎市立夢見ヶ崎小学校
    幸区南加瀬3-10-1:
      latlng: 35.54421242,139.66294331
      name:
      - 川崎市立南加瀬中学校
    幸区南加瀬4-24-1:
      latlng: 35.54295709,139.65951587
      name:
      - 川崎市立南加瀬小学校
    幸区古川町70:
      latlng: 35.54678678,139.68091101
      name:
      - 川崎市立古川小学校
    幸区古市場1-1:
      latlng: 35.55543530,139.68601844
      name:
      - 川崎市立古市場小学校
    幸区塚越1-60:
      latlng: 35.54715067,139.67799739
      name:
      - 川崎市立塚越中学校
    幸区小倉1119:
      latlng: 35.54141283,139.66545149
      name:
      - 川崎市立小倉小学校
    幸区小倉1541-1:
      latlng: 35.53620804,139.66891796
      name:
      - 川崎市立看護短期大学
    幸区小向仲野町5-1:
      latlng: 35.55269925,139.69600612
      name:
      - 川崎市立川崎総合科学高等学校
    幸区小向西町4-30:
      latlng: 35.54619499,139.68850462
      name:
      - 川崎市立西御幸小学校
    幸区戸手4-2-1:
      latlng: 35.54446450,139.69409288
      name:
      - 川崎市立御幸中学校
    幸区戸手本町1-150:
      latlng: 35.54220677,139.68640776
      name:
      - 川崎市立商業高等学校
    幸区戸手本町1-165:
      latlng: 35.54237067,139.68522456
      name:
      - 川崎市立戸手小学校
    幸区東小倉1-1:
      latlng: 35.54708407,139.67466160
      name:
      - 川崎市立東小倉小学校
    幸区遠藤町1:
      latlng: 35.54342251,139.69190874
      name:
      - 川崎市立御幸小学校
    幸区都町18:
      latlng: 35.53774342,139.69034910
      name:
      - 川崎市立南河原小学校
    高津区上作延559:
      latlng: 35.59763406,139.59756929
      name:
      - 川崎市立上作延小学校
    高津区上作延796:
      latlng: 35.59709509,139.58954222
      name:
      - 川崎市立南原小学校
    高津区下作延5-19-1:
      latlng: 35.60323306,139.60046303
      name:
      - 川崎市立下作延小学校
    高津区久地1-10-1:
      latlng: 35.60728517,139.61021445
      name:
      - 川崎市立西高津中学校
    高津区久地4-2-1:
      latlng: 35.61125105,139.59994284
      name:
      - 川崎市立久地小学校
    高津区久末647:
      latlng: 35.56795271,139.61912411
      name:
      - 川崎市立久末小学校
    高津区久本3-11-1:
      latlng: 35.59607317,139.61669528
      name:
      - 川崎市立高津高等学校
    高津区久本3-11-2:
      latlng: 35.59564262,139.61901720
      name:
      - 川崎市立高津中学校
    高津区久本3-11-3:
      latlng: 35.59529272,139.61758689
      name:
      - 川崎市立久本小学校
    高津区北見方2-5-1:
      latlng: 35.60179968,139.62798207
      name:
      - 川崎市立東高津小学校
    高津区千年1024:
      latlng: 35.58128378,139.62168714
      name:
      - 川崎市立橘小学校
    高津区千年1300:
      latlng: 35.58420279,139.62046491
      name:
      - 川崎市立橘中学校
    高津区坂戸1-18-1:
      latlng: 35.59635074,139.62241942
      name:
      - 川崎市立坂戸小学校
    高津区子母口321:
      latlng: 35.57042965,139.63258653
      name:
      - 川崎市立東橘中学校
    高津区子母口730:
      latlng: 35.56957977,139.63316708
      name:
      - 川崎市立子母口小学校
    高津区新作1-9-1:
      latlng: 35.58722479,139.61116592
      name:
      - 川崎市立新作小学校
    高津区末長1274-7:
      latlng: 35.59182374,139.62129490
      name:
      - 川崎市立東高津中学校
    高津区末長1705:
      latlng: 35.59033516,139.61936748
      name:
      - 川崎市立末長小学校
    高津区梶ヶ谷2-14-1:
      latlng: 35.58778865,139.60183064
      name:
      - 川崎市立西梶ヶ谷小学校
    高津区梶ヶ谷4-12:
      latlng: 35.58540573,139.60363336
      name:
      - 川崎市立梶ヶ谷小学校
    高津区溝口4-19-1:
      latlng: 35.60508830,139.61372813
      name:
      - 川崎市立高津小学校
    麻生区はるひ野4-8-1:
      latlng: 35.61765982,139.46140327
      name:
      - 川崎市立はるひ野小学校
      - 川崎市立はるひ野中学校
    麻生区上麻生3-24-1:
      latlng: 35.60242741,139.50434984
      name:
      - 川崎市立麻生小学校
    麻生区上麻生4-39-1:
      latlng: 35.59608143,139.50345302
      name:
      - 川崎市立麻生中学校
    麻生区上麻生6-40-1:
      latlng: 35.58654594,139.49986161
      name:
      - 川崎市立柿生中学校
    麻生区千代ヶ丘8-9-1:
      latlng: 35.61715237,139.50345439
      name:
      - 川崎市立千代ヶ丘小学校
    麻生区岡上675-1:
      latlng: 35.57901090,139.48320921
      name:
      - 川崎市立岡上小学校
    麻生区東百合丘2-24-7:
      latlng: 35.59794502,139.52770376
      name:
      - 川崎市立長沢小学校
    麻生区東百合丘4-12-1:
      latlng: 35.59797832,139.52415960
      name:
      - 川崎市立長沢中学校
    麻生区栗木台5-15-1:
      latlng: 35.61167886,139.47698072
      name:
      - 川崎市立栗木台小学校
    麻生区片平3-3-1:
      latlng: 35.59123726,139.49559527
      name:
      - 川崎市立柿生小学校
    麻生区片平5-28-1:
      latlng: 35.59680854,139.49292298
      name:
      - 川崎市立片平小学校
    麻生区王禅寺東4-14-1:
      latlng: 35.58680735,139.51354393
      name:
      - 川崎市立王禅寺中央小学校
    麻生区王禅寺東4-14-2:
      latlng: 35.58597131,139.51322452
      name:
      - 川崎市立王禅寺中央中学校
    麻生区王禅寺東6-3-1:
      latlng: 35.57941072,139.51016649
      name:
      - 川崎市立東柿生小学校
    麻生区王禅寺西1-26-1:
      latlng: 35.59955021,139.51307433
      name:
      - 川崎市立南百合丘小学校
    麻生区白山1-1-1:
      latlng: 35.59094579,139.51432717
      name:
      - (旧)川崎市立白山中学校
    麻生区白山2-1-1:
      latlng: 35.59163211,139.51238844
      name:
      - 日本映画大学
    麻生区白山5-3-1:
      latlng: 35.59037084,139.50636394
      name:
      - 川崎市立真福寺小学校
    麻生区白鳥1-5-1:
      latlng: 35.60130944,139.48593109
      name:
      - 川崎市立白鳥中学校
    麻生区百合丘2-1-2:
      latlng: 35.60718796,139.51443782
      name:
      - 川崎市立百合丘小学校
    麻生区細山2-2-1:
      latlng: 35.61693108,139.51916482
      name:
      - 川崎市立西生田小学校
    麻生区虹ヶ丘1-21-2:
      latlng: 35.57899424,139.52112660
      name:
      - 川崎市立虹ヶ丘小学校
    麻生区金程2-10-1:
      latlng: 35.61180877,139.49938277
      name:
      - 川崎市立金程小学校
    麻生区金程3-16-1:
      latlng: 35.61382500,139.49905207
      name:
      - 川崎市立金程中学校
    麻生区高石3-25-1:
      latlng: 35.61597567,139.51899544
      name:
      - 川崎市立西生田中学校
  平塚市:
    上吉沢395番地:
      latlng: 35.34394464,139.29120360
      name:
      - 平塚市立吉沢公民館
    上吉沢465番地:
      latlng: 35.34584159,139.28979812
      name:
      - 平塚市立吉沢小学校
    中里10番1号:
      latlng: 35.33278623,139.33435488
      name:
      - 平塚市立富士見小学校
    中里11番21号:
      latlng: 35.33160851,139.33451042
      name:
      - 平塚市立富士見公民館
    中里33番1号:
      latlng: 35.33121712,139.33095245
      name:
      - 平塚市立春日野中学校
    中里50番1号:
      latlng: 35.33127290,139.32842493
      name:
      - 平塚商業高等学校
    久領堤5番1号:
      latlng: 35.32520405,139.36274230
      name:
      - 平塚競輪場
    入野108番地1:
      latlng: 35.35352947,139.31938149
      name:
      - 平塚市立金田公民館
    入野514番地:
      latlng: 35.35418772,139.31527912
      name:
      - 平塚市立金田小学校
    八千代町2番23号:
      latlng: 35.33149678,139.35485357
      name:
      - 平塚市立松原公民館
    北金目545番地:
      latlng: ''
      name:
      - 平塚市立みずほ小学校
    南原1丁目11番31号:
      latlng: 35.33745304,139.32665566
      name:
      - 平塚市立南原小学校
    南原2丁目15番1号:
      latlng: 35.34014175,139.32536136
      name:
      - 平塚市立南原公民館
    南豊田366番地1:
      latlng: 35.35638206,139.33008039
      name:
      - 平塚市立豊田公民館
    南金目1013番地2:
      latlng: 35.36059788,139.29180071
      name:
      - 平塚市立金目中学校
    南金目907番地:
      latlng: 35.35894254,139.29027582
      name:
      - 平塚市立金目小学校
    南金目966番地:
      latlng: 35.36145053,139.29055081
      name:
      - 平塚市立金目公民館
    四之宮1丁目10番1号:
      latlng: 35.34924679,139.34952266
      name:
      - 平塚市立神明中学校
    四之宮3丁目20番26号:
      latlng: 35.35299679,139.36106295
      name:
      - 平塚市立四之宮公民館
    土屋1864番地1:
      latlng: 35.35049875,139.26240020
      name:
      - 平塚市立土屋公民館
    土屋2244番地:
      latlng: 35.34608853,139.26899686
      name:
      - 平塚市立土沢中学校
    土屋3004番地2:
      latlng: 35.34744628,139.25955612
      name:
      - 平塚市立土屋小学校
    城所649番地:
      latlng: 35.37158061,139.32336159
      name:
      - 平塚市立大住中学校
    夕陽ヶ丘22番1号:
      latlng: 35.32226271,139.35759865
      name:
      - 平塚市立港小学校
    夕陽ヶ丘60番32号:
      latlng: 35.32443465,139.35906224
      name:
      - 平塚市立須賀公民館
    夕陽丘:
      latlng: 35.32400889,139.35631965
      name:
      - 平塚市立須賀公園
    大原1番13号:
      latlng: 35.34291088,139.33864611
      name:
      - 大原高等学校
    大原1番14号:
      latlng: 35.34449130,139.33852109
      name:
      - 平塚市立大原小学校
    大原1番15号:
      latlng: ''
      name:
      - 平塚市立大原公民館
    大神2391番地1:
      latlng: 35.39091900,139.36572990
      name:
      - 平塚市立大神公民館
    天沼7番10号:
      latlng: 35.33494356,139.35615599
      name:
      - 平塚市立松原小学校
    小鍋島271番地1:
      latlng: 35.37309173,139.33295217
      name:
      - 平塚市立城島公民館
    小鍋島608番地3:
      latlng: 35.37240565,139.33027748
      name:
      - 平塚市立城島小学校
    山下1096番地1:
      latlng: 35.33452344,139.31494297
      name:
      - 平塚市立旭南公民館
    山下801番地3:
      latlng: 35.33052116,139.31674559
      name:
      - 平塚市立山下小学校
    岡崎3430番地:
      latlng: 35.37294103,139.30654939
      name:
      - 平塚市立岡崎小学校
    岡崎3634番地:
      latlng: 35.37186620,139.30802982
      name:
      - 平塚市立岡崎公民館
    広川12番地:
      latlng: 35.35578193,139.30432741
      name:
      - 平塚市立金旭中学校
    御殿2丁目17番38号:
      latlng: ''
      name:
      - 平塚市立中原公民館
    御殿2丁目8番9号:
      latlng: 35.34434964,139.32954429
      name:
      - 平塚市立中原小学校
    御殿4丁目5番1号:
      latlng: 35.35071584,139.32515034
      name:
      - 平塚市立中原中学校
    撫子原12番54号:
      latlng: 35.31661990,139.33357788
      name:
      - 平塚市立なでしこ公民館
    日向岡2丁目9番1号:
      latlng: 35.34087841,139.30023616
      name:
      - 平塚市立旭陵中学校
    東中原1丁目12番1号:
      latlng: 35.35421020,139.34177917
      name:
      - 平塚市立大野中学校
    東中原1丁目12番2号:
      latlng: 35.35497957,139.34070707
      name:
      - 平塚市立松が丘小学校
    東中原2丁目17番19号:
      latlng: 35.35184079,139.33672968
      name:
      - 平塚市立松が丘公民館
    東八幡3丁目8番1号:
      latlng: 35.34440020,139.35756049
      name:
      - 平塚市立八幡小学校
    東真土2丁目12番1号:
      latlng: 35.35561321,139.35470277
      name:
      - 平塚市立大野公民館
    東真土2番1番1号:
      latlng: 35.35323286,139.35862719
      name:
      - 平塚市立大野小学校
    桃浜町34番34号:
      latlng: 35.32149732,139.34326323
      name:
      - 平塚市立花水公民館
    横内1948番地3:
      latlng: 35.37371699,139.35373611
      name:
      - 平塚市立横内中学校
    横内2506番地:
      latlng: 35.37190344,139.35328914
      name:
      - 平塚市立横内公民館
    横内2687番地:
      latlng: 35.37179232,139.35235312
      name:
      - 平塚市立横内小学校
    河内307番地:
      latlng: 35.33498203,139.30903525
      name:
      - 平塚市立旭小学校
    河内440番地:
      latlng: 35.33825923,139.31040177
      name:
      - 平塚市立旭北公民館
    浅間町:
      latlng: 35.33534025,139.34749732
      name:
      - 八幡山公園
    浅間町4番3号:
      latlng: 35.33304573,139.34602362
      name:
      - 平塚市立崇善小学校
    浅間町8番1号:
      latlng: 35.33567889,139.34794558
      name:
      - 平塚市立江陽中学校
    浅間町9番1号:
      latlng: 35.33549015,139.34937324
      name:
      - 平塚市庁舎群
    田村3丁目12番5号:
      latlng: 35.37381427,139.35864950
      name:
      - 平塚市立神田公民館
    田村3丁目13番1号:
      latlng: 35.37253956,139.35850528
      name:
      - 平塚湘風高等学校
    田村4丁目31番1号:
      latlng: 35.37888532,139.35901807
      name:
      - 平塚市立神田中学校
    田村6丁目1番1号:
      latlng: 35.37625513,139.36276511
      name:
      - 平塚市立神田小学校
    田村6丁目9番1号:
      latlng: 35.37828247,139.36229820
      name:
      - 平塚市立相模小学校
    纒226番地:
      latlng: 35.34177535,139.31172943
      name:
      - 平塚市立松延小学校
    花水台42番1号:
      latlng: 35.31669516,139.33863039
      name:
      - 平塚市立なでしこ小学校
    西八幡1丁目10番22号:
      latlng: 35.34267790,139.34809791
      name:
      - 平塚市立八幡公民館
    西真土4丁目3番1号:
      latlng: 35.36064613,139.34885914
      name:
      - 平塚市立真土小学校
    見附町30番2号:
      latlng: 35.32902911,139.34261004
      name:
      - 平塚市立崇善公民館
    諏訪町5番1号:
      latlng: 35.33889438,139.33537426
      name:
      - 平塚江南高等学校
    豊田宮下552番地:
      latlng: 35.35860968,139.33120528
      name:
      - 平塚市立豊田小学校
    追分1番20号:
      latlng: 35.33539824,139.34629018
      name:
      - 平塚市中央公民館
    達上ヶ丘10番10号:
      latlng: 35.33380323,139.32870546
      name:
      - 平塚農業高等学校
    高村166番地:
      latlng: 35.33216031,139.30836589
      name:
      - 平塚市立山城中学校
    高村45番地:
      latlng: 35.33338234,139.30541619
      name:
      - 平塚市立勝原小学校
    高浜台:
      latlng: 35.31798201,139.35756286
      name:
      - 湘南海岸公園
    高浜台7番1号:
      latlng: 35.32043511,139.35605722
      name:
      - 平塚市立太洋中学校
    高浜台8番1号:
      latlng: 35.32034916,139.35722663
      name:
      - 高浜高等学校
    黒部丘12番7号:
      latlng: 35.32185503,139.33746625
      name:
      - 平塚工科高等学校
    龍城ヶ丘4番26号:
      latlng: 35.31975886,139.34418551
      name:
      - 平塚市立浜岳中学校
    龍城ヶ丘5番62号:
      latlng: 35.31877300,139.34497998
      name:
      - 平塚市立花水小学校
      - 平塚市立花水小学校
  座間市:
    ひばりが丘3丁目58番1号:
      latlng: 35.48062444,139.43621528
      name:
      - 相模向陽館高等学校
    ひばりが丘4丁目4番1号:
      latlng: 35.48372953,139.43072954
      name:
      - 座間市立ひばりが丘小学校
    ひばりが丘5丁目43番1号:
      latlng: 35.48724834,139.42946844
      name:
      - 座間市立旭小学校
    ひばりが丘5丁目57番1号:
      latlng: 35.48528489,139.42856857
      name:
      - 座間市立東中学校
    入谷1丁目3097番地:
      latlng: 35.48430734,139.39321619
      name:
      - 座間市公民館
    入谷2丁目262番地:
      latlng: 35.47789991,139.39686063
      name:
      - 座間高等学校
    入谷2丁目345番地:
      latlng: 35.47985523,139.39625226
      name:
      - 座間市立入谷小学校
    南栗原3丁目8番1号:
      latlng: 35.47552015,139.42108061
      name:
      - 座間市立南中学校
    広野台1丁目41番1号:
      latlng: 35.50374234,139.41918830
      name:
      - 座間市立相模野小学校
    座間2丁目1230番地:
      latlng: 35.48501523,139.38599727
      name:
      - 座間市立西中学校
    座間2丁目3133番地:
      latlng: 35.48583486,139.39189678
      name:
      - 座間市立座間小学校
    座間3734番地:
      latlng: ''
      name:
      - 富士山公園
    東原2丁目6番1号:
      latlng: 35.48120517,139.42692439
      name:
      - 座間市立東原小学校
    東原3丁目1番1号:
      latlng: 35.47843354,139.42389418
      name:
      - 東地区文化センター
    栗原1302番地:
      latlng: 35.49962420,139.41766078
      name:
      - 座間市立相武台東小学校
    栗原2487番地:
      latlng: 35.48791558,139.41740838
      name:
      - 座間総合高等学校
    栗原2891番地:
      latlng: 35.48304123,139.41991107
      name:
      - 芹沢公園(一部)
    栗原中央6丁目4番1号:
      latlng: 35.48480214,139.41794454
      name:
      - 座間市立栗原中学校
    栗原中央6丁目8番1号:
      latlng: 35.48255525,139.41777240
      name:
      - 座間市立栗原小学校
    相模が丘3丁目1番3号:
      latlng: ''
      name:
      - 座間市立相模が丘小学校
    相模が丘5丁目30番4号:
      latlng: 35.50919579,139.42460985
      name:
      - 北地区文化センター
    相模が丘6丁目35番1号:
      latlng: 35.50407464,139.42993730
      name:
      - 座間市立相模中学校
    相模が丘6丁目36番24号:
      latlng: 35.50248622,139.42966793
      name:
      - 座間市民球場
    立野台1丁目1番1号:
      latlng: ''
      name:
      - 座間市立立野台小学校
    緑ヶ丘4丁目6番10号:
      latlng: 35.49217942,139.40723693
      name:
      - 座間市立座間中学校
    西栗原2丁目16番1号:
      latlng: 35.47242036,139.40817646
      name:
      - 座間市立中原小学校
  愛川町:
    三増767番地:
      latlng: 35.53486406,139.31196706
      name:
      - 愛川町立高峰小学校
    三増773番地:
      latlng: 35.53462242,139.31332806
      name:
      - 愛川町立高峰保育園
    三増822番地の1:
      latlng: 35.53166450,139.31719177
      name:
      - 愛川高等学校
    中津1103番地:
      latlng: 35.52096894,139.33512179
      name:
      - 愛川町立菅原小学校
    中津1400番地:
      latlng: 35.52363796,139.32858866
      name:
      - 愛川町立愛川東中学校
    中津2281番地1:
      latlng: 35.52868141,139.34197262
      name:
      - 愛川町立諏訪老人いこいの家
    中津3893番地:
      latlng: 35.50741528,139.33902776
      name:
      - 愛川町立中津南保育園
    中津4043番地:
      latlng: 35.52195203,139.34145961
      name:
      - 愛川町立中津工業団地第1号公園
    中津5177番:
      latlng: 35.50085781,139.34160203
      name:
      - 愛川町立坂本体育館
    中津544番地:
      latlng: 35.51196464,139.33340117
      name:
      - 愛川町立中津小学校
      - 愛川町立中津保育園
    中津681番地12:
      latlng: 35.51301729,139.33587568
      name:
      - 愛川町立中津老人福祉センター
    半原2201番地:
      latlng: 35.53990949,139.27368945
      name:
      - 愛川町立半原小学校
    半原3390:
      latlng: 35.53707043,139.26308486
      name:
      - 愛川ふれあいの村
    半原4495番地1:
      latlng: 35.54359473,139.26690113
      name:
      - 愛川町立半原保育園
    半原6677番地:
      latlng: 35.53723253,139.28116382
      name:
      - 愛川町立半原老人福祉センター
    春日台2丁目11番3号:
      latlng: 35.52485446,139.32904680
      name:
      - 愛川町立春日台保育園
    春日台2丁目9番1号:
      latlng: 35.52461005,139.32952179
      name:
      - 愛川町立中津第二小学校
    田代1195番地:
      latlng: 35.53456103,139.29091591
      name:
      - 愛川町立農村環境改善センター
    田代1395番地:
      latlng: 35.53274728,139.28762173
      name:
      - 愛川町立愛川中学校
    田代323番地:
      latlng: 35.52563155,139.28860793
      name:
      - 愛川町立田代保育園
    田代500番地:
      latlng: 35.52754806,139.29104661
      name:
      - 愛川町立田代小学校
    角田1321番地3:
      latlng: 35.52992310,139.31851122
      name:
      - 愛川町立高峰老人福祉センター
    角田210番地:
      latlng: 35.52869553,139.32579115
      name:
      - 愛川町立愛川中原中学校
  松田町:
    寄2505番地:
      latlng: 35.39597998,139.13724722
      name:
      - 松田町立寄幼稚園
    寄2540番地:
      latlng: 35.39649112,139.13912485
      name:
      - 松田町立寄小・中学校運動場
    寄2549番地:
      latlng: 35.39591900,139.13979424
      name:
      - 松田町立寄中学校屋内運動場
    寄3111番地:
      latlng: ''
      name:
      - 松田町寄みやま運動広場
    松田庶子162番地:
      latlng: 35.34776436,139.13411437
      name:
      - 松田町立第二幼稚園園庭
      - 松田町立第二幼稚園
    松田庶子204番地:
      latlng: 35.34551470,139.13437272
      name:
      - 松田町立松田小学校運動場
    松田惣領1400番地:
      latlng: 35.34292088,139.13987779
      name:
      - 松田町立松田中学校運動場
    松田惣領17番地2:
      latlng: 35.33815756,139.13758928
      name:
      - 松田町健康福祉センター
    松田惣領2078番地:
      latlng: 35.34851176,139.14027484
      name:
      - 松田町民文化センター
    神山225番地先:
      latlng: 35.34664573,139.14942398
      name:
      - 神山清水公園
    神山404番地:
      latlng: 35.34841223,139.15287920
      name:
      - 松田町立第一幼稚園園庭
      - 松田町立第一幼稚園
  横浜市:
    中区仲尾台23番地:
      latlng: 35.42562074,139.64511708
      name:
      - 横浜市立仲尾台中学校
    中区山下町241番地:
      latlng: 35.44131607,139.64310018
      name:
      - 横浜市立港中学校
    中区山元町3丁目152番地:
      latlng: 35.42814006,139.63802039
      name:
      - 横浜市立山元小学校
    中区山手町36番地:
      latlng: 35.43628879,139.64889154
      name:
      - 横浜市立元街小学校
    中区山田町3番地の9:
      latlng: 35.43924985,139.63369830
      name:
      - 横浜市立富士見中学校
    中区本牧元町44番1号:
      latlng: 35.41646078,139.66839566
      name:
      - 横浜市立本牧南小学校
    中区本牧和田5番1号:
      latlng: 35.42463986,139.66197126
      name:
      - 横浜市立本牧小学校
    中区本牧町1丁目251番地:
      latlng: 35.42730331,139.65694390
      name:
      - 横浜市立大鳥小学校
    中区本牧間門29番1号:
      latlng: 35.41795212,139.65548300
      name:
      - 横浜市立間門小学校
    中区立野76番地:
      latlng: 35.42710943,139.64506151
      name:
      - 横浜市立立野小学校
    中区羽衣町3丁目84番地:
      latlng: 35.44281603,139.63262041
      name:
      - 横浜市立吉田中学校
    中区花咲町3丁目86番地:
      latlng: 35.45071219,139.62861210
      name:
      - 横浜市立本町小学校
    中区諏訪町29番地:
      latlng: 35.43658873,139.65399109
      name:
      - 横浜市立北方小学校
    保土ヶ谷区上星川二丁目51番1号:
      latlng: 35.47614221,139.57782790
      name:
      - 横浜市立上星川小学校
    保土ヶ谷区上菅田町134番地:
      latlng: 35.48419918,139.56618662
      name:
      - 横浜市立上菅田小学校
    保土ヶ谷区上菅田町1422番地:
      latlng: 35.49263076,139.56452773
      name:
      - 横浜市立笹山小学校
    保土ヶ谷区上菅田町1574番地1:
      latlng: 35.49579915,139.55680288
      name:
      - 横浜市立新井小学校
    保土ヶ谷区今井町981番地1:
      latlng: 35.44662857,139.55846617
      name:
      - 横浜市立今井小学校
    保土ヶ谷区仏向町1167番地2:
      latlng: 35.45579148,139.57657020
      name:
      - 横浜市立橘中学校
    保土ヶ谷区仏向町845番地:
      latlng: 35.46052450,139.58589707
      name:
      - 横浜市立仏向小学校
    保土ヶ谷区坂本町6番地:
      latlng: 35.46489336,139.57976417
      name:
      - 横浜市立坂本小学校
    保土ヶ谷区宮田町1丁目100番地:
      latlng: 35.46153577,139.60460618
      name:
      - 横浜市立宮田中学校
    保土ヶ谷区岩井町307番地:
      latlng: 35.44241018,139.60204550
      name:
      - 横浜市立富士見台小学校
    保土ヶ谷区岩崎町22番1号:
      latlng: 35.44689541,139.58685542
      name:
      - 横浜市立岩崎小学校
    保土ヶ谷区峰岡町1丁目10番地:
      latlng: 35.46152738,139.59924010
      name:
      - 横浜市立峯小学校
    保土ヶ谷区川島町1162番地:
      latlng: 35.47346442,139.56797586
      name:
      - 横浜市立川島小学校
    保土ヶ谷区川島町1208番地:
      latlng: 35.47446417,139.56448434
      name:
      - 横浜市立西谷中学校
    保土ヶ谷区川島町1374番地1:
      latlng: 35.47242534,139.55958470
      name:
      - 横浜市立くぬぎ台小学校
    保土ヶ谷区川辺町65番地1:
      latlng: 35.45662791,139.59758200
      name:
      - 横浜市立帷子小学校
    保土ヶ谷区新井町43番地7:
      latlng: 35.48431243,139.55959231
      name:
      - 横浜市立新井中学校
    保土ヶ谷区新桜ヶ丘一丁目22番1号:
      latlng: 35.45094471,139.56289076
      name:
      - 横浜市立藤塚小学校
    保土ヶ谷区星川三丁目18番1号:
      latlng: 35.46157167,139.58931058
      name:
      - 横浜市立星川小学校
    保土ヶ谷区桜ヶ丘一丁目13番1号:
      latlng: 35.45056175,139.59009675
      name:
      - 横浜市立桜台小学校
    保土ヶ谷区権太坂二丁目4番1号:
      latlng: 35.44173747,139.57449263
      name:
      - 横浜市立権太坂小学校
    保土ヶ谷区瀬戸ヶ谷町243番地:
      latlng: 35.44138766,139.58695539
      name:
      - 横浜市立瀬戸ヶ谷小学校
    保土ヶ谷区神戸町129番地4:
      latlng: 35.45480306,139.59506285
      name:
      - 横浜市立保土ヶ谷小学校
    保土ヶ谷区藤塚町1番1号:
      latlng: 35.44808123,139.57610083
      name:
      - 横浜市立初音が丘小学校
    保土ヶ谷区釜台町22番1号:
      latlng: 35.46913749,139.58546359
      name:
      - 横浜市立常盤台小学校
    保土ヶ谷区釜台町3番1号:
      latlng: 35.46626833,139.58436932
      name:
      - 横浜市立保土ヶ谷中学校
    南区三春台42番地:
      latlng: 35.44097182,139.61759665
      name:
      - 横浜市立太田小学校
    南区中村町1丁目66番地:
      latlng: 35.43442545,139.63573440
      name:
      - 横浜市立石川小学校
    南区中村町4丁目269番地1:
      latlng: 35.43294239,139.62579344
      name:
      - 横浜市立中村小学校
    南区中里一丁目6番16号:
      latlng: ''
      name:
      - 横浜市立南小学校
    南区井土ヶ谷上町2番1号:
      latlng: 35.43310018,139.59958748
      name:
      - 横浜市立井土ヶ谷小学校
    南区六ッ川三丁目81番地11:
      latlng: 35.42934162,139.57838392
      name:
      - 横浜市立六ツ川中学校
    南区六ツ川一丁目14番地:
      latlng: 35.42692597,139.59797931
      name:
      - 横浜市立南中学校
    南区六ツ川三丁目4番地12:
      latlng: 35.42901383,139.58402507
      name:
      - 横浜市立六つ川小学校
    南区六ツ川三丁目65番地9:
      latlng: 35.42858057,139.58091424
      name:
      - 横浜市立六つ川台小学校
    南区六ツ川二丁目156番地1:
      latlng: 35.42490058,139.57754788
      name:
      - 横浜市立六つ川西小学校
    南区別所三丁目6番1号:
      latlng: 35.41386658,139.59079383
      name:
      - 横浜市立南が丘中学校
    南区別所六丁目3番1号:
      latlng: 35.41701015,139.58178637
      name:
      - 横浜市立別所小学校
    南区南太田一丁目17番1号:
      latlng: ''
      name:
      - 横浜市立南太田小学校
    南区大岡四丁目10番1号:
      latlng: 35.41241197,139.60483136
      name:
      - 横浜市立藤の木小学校
    南区大岡四丁目44番1号:
      latlng: 35.41077621,139.60598121
      name:
      - 横浜市立藤の木中学校
    南区大橋町3丁目49番地:
      latlng: 35.42595677,139.60077628
      name:
      - 横浜市立大岡小学校
    南区山王町5丁目31番地:
      latlng: 35.43559196,139.61662469
      name:
      - 横浜市立日枝小学校
    南区平楽1番地:
      latlng: 35.43128423,139.63332629
      name:
      - 横浜市立平楽中学校
    南区東蒔田町1番地の5:
      latlng: 35.43269236,139.61683584
      name:
      - 横浜市立共進中学校
    南区永田みなみ台6番1号:
      latlng: 35.43283867,139.58938846
      name:
      - 横浜市立永田台小学校
    南区永田みなみ台7番1号:
      latlng: 35.43321909,139.58723589
      name:
      - 横浜市立永田中学校
    南区永田北二丁目6番12号:
      latlng: 35.43557456,139.59157159
      name:
      - 横浜市立永田小学校
    南区花之木町2丁目45番地:
      latlng: 35.43199510,139.60922266
      name:
      - 横浜市立蒔田中学校
    南区蒔田町1020番地:
      latlng: ''
      name:
      - 横浜市立蒔田小学校
    南区高根町2丁目14番地:
      latlng: ''
      name:
      - 横浜市立南吉田小学校
    戸塚区上倉田町1426番地6:
      latlng: 35.38951068,139.54088168
      name:
      - 横浜市立倉田小学校
    戸塚区上矢部町1463番地4:
      latlng: 35.42354788,139.52835204
      name:
      - 横浜市立上矢部小学校
    戸塚区下倉田町950番地:
      latlng: 35.38217850,139.54231780
      name:
      - 横浜市立豊田中学校
    戸塚区俣野町371番地:
      latlng: 35.37836738,139.49562705
      name:
      - 横浜市立俣野小学校
    戸塚区南舞岡四丁目15番1号:
      latlng: 35.38881631,139.55464730
      name:
      - 横浜市立南舞岡小学校
    戸塚区原宿四丁目12番1号:
      latlng: 35.37831465,139.50317920
      name:
      - 横浜市立大正中学校
    戸塚区原宿四丁目17番1号:
      latlng: 35.37956726,139.50330141
      name:
      - 横浜市立大正小学校
    戸塚区吉田町88番地:
      latlng: 35.40171728,139.53808451
      name:
      - 横浜市立東戸塚小学校
    戸塚区名瀬町776番地:
      latlng: 35.43106943,139.54124825
      name:
      - 横浜市立名瀬小学校
    戸塚区名瀬町791番地6:
      latlng: 35.43395521,139.54363418
      name:
      - 横浜市立名瀬中学校
    戸塚区品濃町504番地1:
      latlng: 35.42615610,139.55735518
      name:
      - 横浜市立品濃小学校
    戸塚区品濃町559番地:
      latlng: 35.43417453,139.56072436
      name:
      - 横浜市立東品濃小学校
    戸塚区小雀町1845番地:
      latlng: 35.37698994,139.51165074
      name:
      - 横浜市立小雀小学校
    戸塚区川上町63番地1:
      latlng: 35.42907244,139.55413600
      name:
      - 横浜市立川上北小学校
    戸塚区平戸三丁目48番1号:
      latlng: 35.43687691,139.56863759
      name:
      - 横浜市立境木小学校
    戸塚区平戸三丁目48番2号:
      latlng: 35.43699078,139.56942919
      name:
      - 横浜市立境木中学校
    戸塚区平戸町1165番地:
      latlng: 35.42298142,139.56793762
      name:
      - 横浜市立平戸台小学校
    戸塚区平戸町542番地:
      latlng: 35.42678930,139.56374075
      name:
      - 横浜市立平戸小学校
    戸塚区戸塚町132番地:
      latlng: 35.39732062,139.53246275
      name:
      - 横浜市立戸塚小学校
    戸塚区戸塚町1842番地1:
      latlng: 35.38114509,139.51826130
      name:
      - 横浜市立南戸塚中学校
    戸塚区戸塚町2447番地2:
      latlng: 35.38645548,139.52363026
      name:
      - 横浜市立下郷小学校
    戸塚区戸塚町2790番地3:
      latlng: 35.38811914,139.52568285
      name:
      - 横浜市立南戸塚小学校
    戸塚区戸塚町4542番地:
      latlng: 35.40176984,139.52372999
      name:
      - 横浜市立戸塚中学校
    戸塚区東俣野町1103番地1:
      latlng: 35.36793823,139.49630198
      name:
      - 横浜市立東俣野小学校
    戸塚区柏尾町1317番地:
      latlng: 35.41494632,139.55181952
      name:
      - 横浜市立柏尾小学校
    戸塚区汲沢一丁目16番1号:
      latlng: 35.39949792,139.52131354
      name:
      - 横浜市立東汲沢小学校
    戸塚区汲沢三丁目6番1号:
      latlng: 35.39763428,139.51415867
      name:
      - 横浜市立汲沢小学校
    戸塚区汲沢町550番地2:
      latlng: 35.39846471,139.50747594
      name:
      - 横浜市立汲沢中学校
    戸塚区深谷町1312番地1:
      latlng: 35.38809662,139.49647144
      name:
      - 横浜市立深谷台小学校
    戸塚区深谷町1688番地2:
      latlng: 35.39159340,139.50289307
      name:
      - 横浜市立深谷小学校
    戸塚区矢部町1698番地:
      latlng: 35.40729968,139.52338836
      name:
      - 横浜市立矢部小学校
    戸塚区秋葉町203番地2:
      latlng: 35.42660888,139.54521174
      name:
      - 横浜市立川上小学校
    戸塚区秋葉町392番地1:
      latlng: 35.42078173,139.54410070
      name:
      - 横浜市立秋葉小学校
    戸塚区舞岡町226番地:
      latlng: 35.40888588,139.54488676
      name:
      - 横浜市立舞岡中学校
    戸塚区舞岡町534番地:
      latlng: 35.40706947,139.55094462
      name:
      - 横浜市立舞岡小学校
    戸塚区鳥が丘53番地:
      latlng: 35.41118254,139.52229682
      name:
      - 横浜市立鳥が丘小学校
    旭区さちが丘110番地1:
      latlng: 35.45679935,139.52294404
      name:
      - 横浜市立さちが丘小学校
    旭区万騎が原31番地:
      latlng: 35.45762996,139.53564842
      name:
      - 横浜市立万騎が原中学校
    旭区上川井町2913番地:
      latlng: 35.49866824,139.50275257
      name:
      - 横浜市立上川井小学校
    旭区上白根二丁目45番1号:
      latlng: 35.49554161,139.53929387
      name:
      - 横浜市立上白根小学校
    旭区上白根二丁目47番1号:
      latlng: 35.49523615,139.53736352
      name:
      - 横浜市立旭北中学校
    旭区上白根町1306番地14:
      latlng: 35.50358261,139.53052251
      name:
      - 横浜市立ひかりが丘小学校
    旭区上白根町901番地:
      latlng: 35.49655835,139.53171408
      name:
      - 横浜市立大池小学校
    旭区中尾一丁目8番1号:
      latlng: 35.46558159,139.52249098
      name:
      - 横浜市立中尾小学校
    旭区中希望が丘124番地:
      latlng: 35.45906560,139.51258382
      name:
      - 横浜市立希望ヶ丘小学校
    旭区中沢三丁目25番1号:
      latlng: 35.47470268,139.52231840
      name:
      - 横浜市立中沢小学校
    旭区中白根一丁目9番1号:
      latlng: 35.48784520,139.54435182
      name:
      - 横浜市立白根小学校
    旭区二俣川1丁目33番地:
      latlng: 35.46411793,139.52952368
      name:
      - 横浜市立二俣川小学校
    旭区今宿二丁目40番1号:
      latlng: 35.47418605,139.51777442
      name:
      - 横浜市立旭中学校
    旭区今宿南町1879番地2:
      latlng: 35.47892714,139.52915920
      name:
      - 横浜市立今宿南小学校
    旭区今宿東町825番地:
      latlng: 35.48470689,139.53688324
      name:
      - 横浜市立今宿中学校
    旭区今宿東町829番地:
      latlng: 35.48458750,139.53513342
      name:
      - 横浜市立今宿小学校
    旭区南希望が丘108番地8:
      latlng: 35.45707967,139.50972022
      name:
      - 横浜市立南希望が丘中学校
    旭区南本宿町79番地:
      latlng: 35.45841874,139.53850924
      name:
      - 横浜市立南本宿小学校
    旭区善部町4番地1:
      latlng: 35.45125822,139.51622807
      name:
      - 横浜市立善部小学校
    旭区大池町66番地:
      latlng: 35.45276117,139.53389603
      name:
      - 横浜市立万騎が原小学校
    旭区小高町55番地2:
      latlng: 35.46179889,139.55364396
      name:
      - 横浜市立左近山小高小学校
    旭区川井宿町32番地2:
      latlng: 35.49393924,139.52080678
      name:
      - 横浜市立川井小学校
    旭区川島町1979番地:
      latlng: 35.46404578,139.54755264
      name:
      - 横浜市立本宿中学校
    旭区左近山1011番地:
      latlng: 35.45711338,139.55634113
      name:
      - 横浜市立左近山第二小学校
    旭区左近山1997番地2:
      latlng: 35.46238768,139.54978033
      name:
      - 横浜市立左近山第一小学校
    旭区市沢町781番地:
      latlng: 35.46165171,139.55878525
      name:
      - 横浜市立市沢小学校
    旭区本宿町16番地:
      latlng: 35.46920062,139.54455541
      name:
      - 横浜市立本宿小学校
    旭区東希望が丘155番地:
      latlng: 35.46446218,139.51151987
      name:
      - 横浜市立東希望が丘小学校
    旭区白根三丁目33番1号:
      latlng: 35.48341526,139.55017369
      name:
      - 横浜市立不動丸小学校
    旭区笹野台四丁目48番1号:
      latlng: 35.47346663,139.51016407
      name:
      - 横浜市立笹野台小学校
    旭区若葉台二丁目14番1号:
      latlng: 35.50832192,139.50046075
      name:
      - 横浜市立若葉台小学校
    旭区若葉台二丁目1番1号:
      latlng: 35.50307580,139.50256909
      name:
      - 旧若葉台東小学校
    旭区若葉台四丁目34番1号:
      latlng: 35.50523257,139.49132236
      name:
      - 旧若葉台西中学校
    旭区都岡町4番地8:
      latlng: 35.48522084,139.52115423
      name:
      - 横浜市立都岡小学校
    旭区鶴ヶ峰一丁目42番地:
      latlng: 35.47190864,139.55194083
      name:
      - 横浜市立鶴ヶ峯小学校
    旭区鶴ヶ峰本町三丁目28番1号:
      latlng: 35.48162389,139.54238836
      name:
      - 横浜市立鶴ヶ峯中学校
    栄区上郷町242番地2:
      latlng: 35.36609124,139.57237077
      name:
      - 横浜市立桜井小学校
    栄区中野町16番地1:
      latlng: 35.36319185,139.56128018
      name:
      - 横浜市立本郷小学校
    栄区公田町354番地3:
      latlng: 35.35439591,139.55383087
      name:
      - 横浜市立公田小学校
    栄区小山台一丁目15番1号:
      latlng: 35.38027300,139.55763054
      name:
      - 横浜市立小山台小学校
    栄区小菅ヶ谷一丁目29番1号:
      latlng: 35.36376757,139.54295963
      name:
      - 横浜市立西本郷中学校
    栄区小菅ヶ谷二丁目22番1号:
      latlng: 35.36582562,139.54196526
      name:
      - 横浜市立西本郷小学校
    栄区庄戸一丁目15番1号:
      latlng: 35.35305930,139.58430565
      name:
      - 横浜市立庄戸小学校
    栄区庄戸三丁目1番1号:
      latlng: 35.35190669,139.58530832
      name:
      - 横浜市立庄戸中学校
    栄区本郷台一丁目6番1号:
      latlng: 35.37126065,139.54918961
      name:
      - 横浜市立本郷台小学校
    栄区本郷台四丁目31番1号:
      latlng: 35.37705422,139.54820910
      name:
      - 横浜市立小菅ヶ谷小学校
    栄区桂台中5番1号:
      latlng: 35.35381505,139.56475759
      name:
      - 横浜市立桂台中学校
    栄区桂台南一丁目1番1号:
      latlng: 35.35264854,139.56377435
      name:
      - 横浜市立桂台小学校
    栄区桂台南二丁目34番1号:
      latlng: 35.34999309,139.57195130
      name:
      - 横浜市立上郷小学校
    栄区桂町84番地14:
      latlng: 35.36485872,139.55049785
      name:
      - 横浜市立本郷中学校
    栄区田谷町1832番地:
      latlng: 35.37162717,139.51974739
      name:
      - 横浜市立千秀小学校
    栄区笠間三丁目28番1号:
      latlng: 35.36193492,139.53189668
      name:
      - 横浜市立笠間小学校
    栄区野七里二丁目3番1号:
      latlng: 35.34609077,139.57890614
      name:
      - 旧野七里小学校
    栄区長沼町125番地4:
      latlng: 35.38257571,139.53600438
      name:
      - 横浜市立豊田小学校
    栄区飯島町746番地1:
      latlng: 35.37263018,139.53207706
      name:
      - 横浜市立飯島中学校
    栄区飯島町771番地2:
      latlng: 35.37321346,139.53507128
      name:
      - 横浜市立飯島小学校
    泉区上飯田町1331番地:
      latlng: 35.42403638,139.47948930
      name:
      - 横浜市立上飯田小学校
    泉区上飯田町2254番地:
      latlng: 35.42979684,139.48164746
      name:
      - 横浜市立上飯田中学校
    泉区上飯田町3220番地4:
      latlng: 35.43207427,139.47531726
      name:
      - 横浜市立いちょう小学校
    泉区上飯田町3795番地:
      latlng: 35.43441575,139.48156132
      name:
      - 横浜市立飯田北小学校
    泉区中田北二丁目20番1号:
      latlng: 35.41469038,139.50541498
      name:
      - 横浜市立中田中学校
    泉区中田南五丁目15番1号:
      latlng: 35.40419172,139.50805085
      name:
      - 横浜市立葛野小学校
    泉区中田南四丁目4番1号:
      latlng: 35.41081587,139.50766199
      name:
      - 横浜市立中田小学校
    泉区中田東四丁目43番1号:
      latlng: 35.41764279,139.51153667
      name:
      - 横浜市立東中田小学校
    泉区和泉町1436番地:
      latlng: 35.40129211,139.49312721
      name:
      - 横浜市立下和泉小学校
    泉区和泉町2221番地:
      latlng: 35.40473055,139.49251613
      name:
      - 横浜市立泉が丘中学校
    泉区和泉町2868番地:
      latlng: 35.41083533,139.49696853
      name:
      - 横浜市立伊勢山小学校
    泉区和泉町3721番地:
      latlng: 35.41587914,139.49093848
      name:
      - 横浜市立中和田小学校
    泉区和泉町4062番地:
      latlng: 35.41599578,139.49824619
      name:
      - 横浜市立中和田中学校
    泉区和泉町4320番地:
      latlng: 35.42280605,139.49630748
      name:
      - 横浜市立和泉小学校
    泉区和泉町6201番地:
      latlng: 35.43181882,139.49764070
      name:
      - 横浜市立いずみ野中学校
    泉区和泉町6211番地:
      latlng: 35.43427408,139.49463260
      name:
      - 横浜市立いずみ野小学校
    泉区和泉町987番地:
      latlng: 35.39802588,139.48379189
      name:
      - 横浜市立中和田南小学校
    泉区岡津町2311番地:
      latlng: 35.42828617,139.52475515
      name:
      - 横浜市立岡津小学校
    泉区新橋町909番地:
      latlng: 35.43436848,139.50662053
      name:
      - 横浜市立新橋小学校
    泉区緑園三丁目39番地:
      latlng: 35.44042344,139.51770858
      name:
      - 横浜市立緑園西小学校
    泉区緑園五丁目28番地:
      latlng: 35.44380383,139.52629963
      name:
      - 横浜市立緑園東小学校
    泉区西が岡三丁目12番地11:
      latlng: 35.41906488,139.51543636
      name:
      - 横浜市立西が岡小学校
    泉区領家四丁目3番地1:
      latlng: 35.41566534,139.52107198
      name:
      - 横浜市立領家中学校
    港北区下田町四丁目10番1号:
      latlng: 35.55731273,139.63010957
      name:
      - 横浜市立下田小学校
    港北区大曽根二丁目31番1号:
      latlng: 35.53211702,139.63011879
      name:
      - 横浜市立大曽根小学校
    港北区大豆戸町759番地:
      latlng: 35.51567140,139.62191151
      name:
      - 横浜市立大豆戸小学校
    港北区太尾町1880番地:
      latlng: ''
      name:
      - 横浜市立太尾小学校
    港北区太尾町976番地:
      latlng: ''
      name:
      - 横浜市立大綱小学校
    港北区小机町1382番地10:
      latlng: 35.50538905,139.59798672
      name:
      - 横浜市立小机小学校
    港北区小机町325番地:
      latlng: 35.50529439,139.58752382
      name:
      - 横浜市立城郷中学校
    港北区師岡町986番地:
      latlng: 35.52384870,139.63891530
      name:
      - 横浜市立師岡小学校
    港北区新吉田東五丁目25番1号:
      latlng: 35.54118773,139.62242203
      name:
      - 横浜市立新田中学校
    港北区新吉田東六丁目44番1号:
      latlng: 35.53843536,139.61748933
      name:
      - 横浜市立新吉田小学校
    港北区新吉田町3226番1:
      latlng: 35.53331931,139.60992645
      name:
      - 横浜市立新田小学校
    港北区新吉田町491番地1:
      latlng: 35.54968367,139.61293101
      name:
      - 横浜市立新吉田第二小学校
    港北区新羽町1452番地2:
      latlng: 35.52272603,139.60789367
      name:
      - 横浜市立新羽小学校
    港北区日吉三丁目23番1号:
      latlng: 35.55412195,139.65749348
      name:
      - 横浜市立矢上小学校
    港北区日吉本町一丁目34番21号:
      latlng: 35.55278035,139.64355027
      name:
      - 横浜市立日吉台小学校
    港北区日吉本町二丁目51番1号:
      latlng: 35.55255529,139.63515931
      name:
      - 横浜市立駒林小学校
    港北区日吉本町四丁目2番6号:
      latlng: 35.54478727,139.63959533
      name:
      - 横浜市立日吉南小学校
    港北区樽町四丁目15番1号:
      latlng: 35.52843154,139.64230383
      name:
      - 横浜市立樽町中学校
    港北区篠原東三丁目27番1号:
      latlng: 35.50307522,139.62690254
      name:
      - 横浜市立篠原小学校
    港北区篠原町1241番地1:
      latlng: 35.50198382,139.61500411
      name:
      - 横浜市立篠原西小学校
    港北区綱島東三丁目1番30号:
      latlng: 35.53753571,139.64020938
      name:
      - 横浜市立綱島東小学校
    港北区綱島西三丁目11番1号:
      latlng: 35.53736063,139.62794942
      name:
      - 横浜市立綱島小学校
    港北区綱島西五丁目14番40号:
      latlng: 35.54397346,139.63079891
      name:
      - 横浜市立北綱島小学校
    港北区菊名二丁目15番1号:
      latlng: 35.50005037,139.63596528
      name:
      - 横浜市立港北小学校
    港北区菊名五丁目18番1号:
      latlng: 35.51293292,139.63517674
      name:
      - 横浜市立菊名小学校
    港北区高田東二丁目33番1号:
      latlng: 35.55232475,139.62481021
      name:
      - 横浜市立高田東小学校
    港北区高田町2439:
      latlng: 35.55669631,139.61736636
      name:
      - 高田中学校
    港北区鳥山町814番地:
      latlng: 35.50505022,139.60238065
      name:
      - 横浜市立城郷小学校
    港南区上大岡東三丁目11番1号:
      latlng: 35.40454664,139.60380352
      name:
      - 横浜市立上大岡小学校
    港南区上永谷一丁目7番5号:
      latlng: 35.40247887,139.58053096
      name:
      - 横浜市立相武山小学校
    港南区上永谷二丁目21番10号:
      latlng: 35.40580315,139.57004858
      name:
      - 横浜市立永野小学校
    港南区上永谷四丁目12番14号:
      latlng: 35.40996926,139.56897088
      name:
      - 横浜市立上永谷中学校
    港南区下永谷五丁目48番15号:
      latlng: 35.41147177,139.55955502
      name:
      - 横浜市立永谷小学校
    港南区丸山台三丁目8番1号:
      latlng: 35.40099264,139.56847930
      name:
      - 横浜市立丸山台小学校
    港南区丸山台四丁目1番1号:
      latlng: 35.39489059,139.56510187
      name:
      - 横浜市立丸山台中学校
    港南区大久保一丁目6番43号:
      latlng: 35.41218364,139.59314914
      name:
      - 横浜市立桜岡小学校
    港南区日野七丁目11番1号:
      latlng: 35.38756949,139.57957833
      name:
      - 横浜市立日野小学校
    港南区日野二丁目20番40号:
      latlng: 35.39743792,139.58356123
      name:
      - 横浜市立吉原小学校
    港南区日野南六丁目35番1号:
      latlng: 35.37512364,139.56212736
      name:
      - 横浜市立日野南小学校
    港南区日限山二丁目16番1号:
      latlng: 35.39379899,139.55966904
      name:
      - 横浜市立日限山小学校
    港南区日限山四丁目33番1号:
      latlng: 35.38687767,139.55694993
      name:
      - 横浜市立日限山中学校
    港南区東永谷一丁目36番1号:
      latlng: 35.40858084,139.58174472
      name:
      - 横浜市立下永谷小学校
    港南区東永谷二丁目14番7号:
      latlng: 35.40629219,139.57890055
      name:
      - 横浜市立東永谷中学校
    港南区港南中央通6番1号:
      latlng: 35.40222106,139.59089102
      name:
      - 横浜市立港南中学校
    港南区港南五丁目6番1号:
      latlng: 35.39759390,139.59215755
      name:
      - 横浜市立南台小学校
    港南区港南五丁目8番1号:
      latlng: 35.39653575,139.59323244
      name:
      - 横浜市立笹下中学校
    港南区港南台二丁目14番1号:
      latlng: 35.37907596,139.58260028
      name:
      - 横浜市立港南台第三小学校
    港南区港南台五丁目4番1号:
      latlng: 35.37189888,139.57917010
      name:
      - 横浜市立港南台第二小学校
    港南区港南台六丁目6番1号:
      latlng: 35.37167114,139.58634162
      name:
      - 横浜市立港南台第一中学校
    港南区港南台六丁目7番1号:
      latlng: 35.37064068,139.58698323
      name:
      - 横浜市立港南台第一小学校
    港南区港南台四丁目11番1号:
      latlng: 35.37613176,139.57361231
      name:
      - 横浜市立小坪小学校
    港南区港南台四丁目37番1号:
      latlng: 35.37532632,139.56896556
      name:
      - 横浜市立日野南中学校
    港南区笹下三丁目9番1号:
      latlng: 35.39047564,139.60175112
      name:
      - 横浜市立日下小学校
    港南区芹が谷三丁目32番1号:
      latlng: 35.41549634,139.57353991
      name:
      - 横浜市立芹が谷小学校
    港南区芹が谷二丁目7番1号:
      latlng: 35.41751828,139.57381489
      name:
      - 横浜市立芹が谷中学校
    港南区芹が谷四丁目22番1号:
      latlng: 35.41230230,139.57132067
      name:
      - 横浜市立芹が谷南小学校
    港南区野庭町346番地2:
      latlng: 35.38872758,139.57450938
      name:
      - 横浜市立野庭すずかけ小学校
    港南区野庭町602番地:
      latlng: 35.39292423,139.57147076
      name:
      - 横浜市立下野庭小学校
    港南区野庭町630番地:
      latlng: 35.38673330,139.57069866
      name:
      - 横浜市立野庭中学校
    瀬谷区三ツ境157番地:
      latlng: 35.46055142,139.49804871
      name:
      - 横浜市立三ツ境小学校
    瀬谷区下瀬谷三丁目58番地1:
      latlng: 35.45118036,139.48109996
      name:
      - 横浜市立瀬谷さくら小学校
    瀬谷区中央5番地41:
      latlng: 35.47198555,139.48134649
      name:
      - 横浜市立瀬谷中学校
    瀬谷区二ッ橋町507番地:
      latlng: 35.47283870,139.49733727
      name:
      - 横浜市立二つ橋小学校
    瀬谷区南台二丁目2番地8:
      latlng: 35.45784891,139.48554119
      name:
      - 横浜市立南瀬谷中学校
    瀬谷区南瀬谷一丁目1番地1:
      latlng: 35.45744342,139.48653003
      name:
      - 横浜市立南瀬谷小学校
    瀬谷区南瀬谷二丁目20番地:
      latlng: 35.44559221,139.48595257
      name:
      - 旧日向山小学校
    瀬谷区本郷三丁目47番地5:
      latlng: 35.47156602,139.47514679
      name:
      - 横浜市立大門小学校
    瀬谷区橋戸二丁目41番地1:
      latlng: 35.46076235,139.48213573
      name:
      - 横浜市立瀬谷第二小学校
    瀬谷区瀬谷町7140番地:
      latlng: 35.48967896,139.47704313
      name:
      - 横浜市立上瀬谷小学校
    瀬谷区相沢二丁目56番地1:
      latlng: 35.47511865,139.48980705
      name:
      - 横浜市立相沢小学校
    瀬谷区相沢四丁目1番地1:
      latlng: 35.47221337,139.48414913
      name:
      - 横浜市立瀬谷小学校
    瀬谷区阿久和南四丁目8番地2:
      latlng: 35.44118988,139.49699072
      name:
      - 横浜市立阿久和小学校
    瀬谷区阿久和東四丁目33番地1:
      latlng: 35.44748352,139.50050430
      name:
      - 横浜市立原小学校
    瀬谷区阿久和西二丁目1番地6:
      latlng: 35.45467713,139.49805161
      name:
      - 横浜市立原中学校
    磯子区上中里町548番地:
      latlng: 35.36922776,139.60910352
      name:
      - 横浜市立さわの里小学校
    磯子区丸山二丁目25番1号:
      latlng: 35.42194121,139.62101894
      name:
      - 横浜市立滝頭小学校
    磯子区久木町11番1号:
      latlng: 35.41440074,139.62212994
      name:
      - 横浜市立磯子小学校
    磯子区岡村一丁目14番1号:
      latlng: 35.41699751,139.61774700
      name:
      - 横浜市立岡村中学校
    磯子区岡村四丁目7番1号:
      latlng: 35.42088565,139.61131706
      name:
      - 横浜市立岡村小学校
    磯子区杉田一丁目8番1号:
      latlng: 35.38555434,139.61676661
      name:
      - 横浜市立杉田小学校
    磯子区杉田三丁目30番11号:
      latlng: 35.37904919,139.61099216
      name:
      - 横浜市立浜中学校
    磯子区杉田五丁目13番1号:
      latlng: 35.37804964,139.62020814
      name:
      - 横浜市立梅林小学校
    磯子区森一丁目4番:
      latlng: 35.39711436,139.61572481
      name:
      - 横浜市立森東小学校
    磯子区森三丁目11番1号:
      latlng: 35.39116212,139.61405838
      name:
      - 横浜市立屏風浦小学校
    磯子区森五丁目22番1号:
      latlng: 35.39263674,139.60489522
      name:
      - 横浜市立森中学校
    磯子区汐見台1丁目2番地1:
      latlng: 35.40736036,139.61126677
      name:
      - 横浜市立汐見台中学校
    磯子区汐見台3丁目6番地:
      latlng: 35.40115559,139.60664212
      name:
      - 横浜市立汐見台小学校
    磯子区洋光台一丁目4番1号:
      latlng: 35.38422867,139.59572398
      name:
      - 横浜市立洋光台第一小学校
    磯子区洋光台二丁目4番1号:
      latlng: 35.38238696,139.59013287
      name:
      - 横浜市立洋光台第三小学校
    磯子区洋光台六丁目6番1号:
      latlng: 35.37300455,139.59704617
      name:
      - 横浜市立洋光台第四小学校
    磯子区洋光台四丁目15番1号:
      latlng: 35.37609614,139.59987924
      name:
      - 横浜市立洋光台第二小学校
    磯子区磯子五丁目2番1号:
      latlng: 35.40782688,139.61449155
      name:
      - 横浜市立山王台小学校
    磯子区磯子台23番1号:
      latlng: 35.40567729,139.61329159
      name:
      - 横浜市立浜小学校
    磯子区西町17番地13:
      latlng: 35.41504767,139.63118486
      name:
      - 横浜市立根岸中学校
    磯子区西町2番46号:
      latlng: 35.41774722,139.63290973
      name:
      - 横浜市立根岸小学校
    神奈川区三ッ沢中町4番17号:
      latlng: 35.47601468,139.60850281
      name:
      - 横浜市立三ツ沢小学校
    神奈川区六角橋二丁目34番19号:
      latlng: 35.49024593,139.62081734
      name:
      - 横浜市立神橋小学校
    神奈川区大口仲町460番地:
      latlng: 35.49547844,139.63776501
      name:
      - 横浜市立大口台小学校
    神奈川区平川町11番地の1:
      latlng: 35.48068005,139.62851649
      name:
      - 横浜市立二谷小学校
    神奈川区幸ヶ谷1番地の1:
      latlng: 35.47150643,139.63061396
      name:
      - 横浜市立幸ヶ谷小学校
    神奈川区斉藤分町34番1号:
      latlng: ''
      name:
      - 横浜市立斎藤分小学校
    神奈川区新子安一丁目24番1号:
      latlng: 35.48833830,139.65302261
      name:
      - 横浜市立子安小学校
    神奈川区東神奈川二丁目35番地1:
      latlng: 35.47755529,139.63566007
      name:
      - 横浜市立神奈川小学校
    神奈川区栗田谷3番1号:
      latlng: 35.47705593,139.62435088
      name:
      - 横浜市立栗田谷中学校
    神奈川区桐畑17番地:
      latlng: 35.47328967,139.62617011
      name:
      - 横浜市立青木小学校
    神奈川区浦島丘16番地:
      latlng: 35.48395690,139.63673711
      name:
      - 横浜市立浦島小学校
    神奈川区白幡上町11番1号:
      latlng: 35.49155626,139.63148213
      name:
      - 横浜市立白幡小学校
    神奈川区白幡東町27番1号:
      latlng: 35.48589027,139.64101738
      name:
      - 横浜市立浦島丘中学校
    神奈川区神大寺三丁目17番1号:
      latlng: 35.48228619,139.60296158
      name:
      - 横浜市立中丸小学校
    神奈川区神大寺三丁目34番1号:
      latlng: 35.48790221,139.60888857
      name:
      - 横浜市立神大寺小学校
    神奈川区神大寺二丁目9番16号:
      latlng: 35.48531350,139.61223818
      name:
      - 横浜市立南神大寺小学校
    神奈川区羽沢町935番地:
      latlng: 35.48852987,139.58706577
      name:
      - 横浜市立羽沢小学校
    神奈川区菅田町1393番地:
      latlng: 35.49643716,139.58577961
      name:
      - 横浜市立池上小学校
    神奈川区菅田町674番地:
      latlng: 35.49620633,139.57817728
      name:
      - 横浜市立菅田小学校
    神奈川区西寺尾三丁目10番1号:
      latlng: 35.49610147,139.65110050
      name:
      - 横浜市立錦台中学校
    神奈川区西寺尾二丁目15番1号:
      latlng: 35.49925924,139.64647012
      name:
      - 横浜市立西寺尾第二小学校
    神奈川区西寺尾二丁目5番1号:
      latlng: 35.49734821,139.64546460
      name:
      - 横浜市立西寺尾小学校
    緑区いぶき野14番地1:
      latlng: 35.52588320,139.50179373
      name:
      - 横浜市立いぶき野小学校
    緑区三保町1867番地:
      latlng: 35.51599774,139.52649538
      name:
      - 横浜市立三保小学校
    緑区上山二丁目5番1号:
      latlng: 35.50651815,139.54708221
      name:
      - 横浜市立上山小学校
    緑区中山町925番地:
      latlng: 35.51070671,139.54837116
      name:
      - 横浜市立中山小学校
    緑区北八朔町1865番地3:
      latlng: 35.52527456,139.53828921
      name:
      - 横浜市立山下小学校
    緑区北八朔町2031番地3:
      latlng: 35.53187088,139.53315914
      name:
      - 横浜市立山下みどり台小学校
    緑区十日市場町1296番地:
      latlng: 35.52220435,139.51179907
      name:
      - 横浜市立十日市場小学校
    緑区十日市場町1501番地42:
      latlng: 35.52252104,139.51255738
      name:
      - 横浜市立十日市場中学校
    緑区寺山町653番地21:
      latlng: 35.50395185,139.53996890
      name:
      - 横浜市立中山中学校
    緑区新治町768番地:
      latlng: 35.51746116,139.51953476
      name:
      - 横浜市立新治小学校
    緑区東本郷五丁目40番1号:
      latlng: 35.50496925,139.58209646
      name:
      - 横浜市立東本郷小学校
    緑区森の台13番1号:
      latlng: 35.50897644,139.53569725
      name:
      - 横浜市立森の台小学校
    緑区竹山三丁目1番地16:
      latlng: 35.49625473,139.56074148
      name:
      - 横浜市立竹山小学校
    緑区長津田二丁目24番1号:
      latlng: 35.53462590,139.49823801
      name:
      - 横浜市立田奈中学校
    緑区長津田町2330番地:
      latlng: 35.53033373,139.49080209
      name:
      - 横浜市立長津田小学校
    緑区長津田町2469番地3:
      latlng: 35.53472717,139.48823253
      name:
      - 横浜市立長津田第二小学校
    緑区霧が丘三丁目23番地:
      latlng: 35.51625997,139.50455488
      name:
      - 旧霧が丘第三小学校
    緑区霧が丘四丁目3番地:
      latlng: 35.51209700,139.50716592
      name:
      - 横浜市立霧が丘小学校
    緑区鴨居三丁目39番1号:
      latlng: 35.50429937,139.57149147
      name:
      - 横浜市立東鴨居中学校
    緑区鴨居五丁目12番35号:
      latlng: 35.50757635,139.56162816
      name:
      - 横浜市立鴨居中学校
    緑区鴨居五丁目19番1号:
      latlng: 35.50505149,139.56074753
      name:
      - 横浜市立緑小学校
    緑区鴨居四丁目7番15号:
      latlng: 35.50894033,139.56617241
      name:
      - 横浜市立鴨居小学校
    西区中央二丁目27番7号:
      latlng: 35.45391732,139.61570222
      name:
      - 横浜市立西前小学校
    西区伊勢町2丁目115番地:
      latlng: 35.45311746,139.62191265
      name:
      - 横浜市立戸部小学校
    '西区北軽井沢24番地 ':
      latlng: 35.46898771,139.60959447
      name:
      - 横浜市立軽井沢中学校
    西区宮ヶ谷6番地の7:
      latlng: 35.46630747,139.60840850
      name:
      - 横浜市立宮谷小学校
    西区岡野二丁目14番1号:
      latlng: 35.46183855,139.61217755
      name:
      - 横浜市立岡野中学校
    西区平沼二丁目11番36号:
      latlng: 35.45720024,139.61571052
      name:
      - 横浜市立平沼小学校
    西区東ヶ丘59番地:
      latlng: 35.44339101,139.62377097
      name:
      - 横浜市立東小学校
    西区浅間町3丁目237番地:
      latlng: 35.46186630,139.60588103
      name:
      - 横浜市立浅間台小学校
    西区老松町27番地:
      latlng: 35.44799592,139.62469858
      name:
      - 横浜市立老松中学校
    西区藤棚町2丁目220番地:
      latlng: 35.44885405,139.61235819
      name:
      - 横浜市立稲荷台小学校
    西区西戸部町1丁目115番地:
      latlng: 35.44685440,139.61890469
      name:
      - 横浜市立一本松小学校
    西区西戸部町3丁目286番地:
      latlng: 35.45203425,139.61847693
      name:
      - 横浜市立西中学校
    都筑区すみれが丘34番地:
      latlng: 35.56615835,139.57989180
      name:
      - 横浜市立すみれが丘小学校
    都筑区中川一丁目3番1号:
      latlng: 35.56016727,139.56922361
      name:
      - 横浜市立中川西小学校
    都筑区中川二丁目1番1号:
      latlng: 35.56198917,139.56525167
      name:
      - 横浜市立中川西中学校
    都筑区中川六丁目2番1号:
      latlng: 35.55640414,139.57477888
      name:
      - 横浜市立都筑小学校
    都筑区勝田町266番地:
      latlng: 35.54346805,139.59516097
      name:
      - 横浜市立勝田小学校
    都筑区北山田五丁目14番1号:
      latlng: 35.56461992,139.58553305
      name:
      - 横浜市立北山田小学校
    都筑区南山田二丁目27番1号:
      latlng: 35.55746840,139.58931639
      name:
      - 横浜市立南山田小学校
    都筑区大棚町240番地:
      latlng: 35.55157782,139.59312743
      name:
      - 横浜市立中川中学校
    都筑区富士見が丘21番1号:
      latlng: 35.53114319,139.55682353
      name:
      - 横浜市立川和中学校
    都筑区富士見が丘21番2号:
      latlng: 35.53160981,139.55773176
      name:
      - 横浜市立川和東小学校
    都筑区川和町1463番地:
      latlng: 35.52993768,139.54715512
      name:
      - 横浜市立川和小学校
    都筑区折本町1321番地:
      latlng: 35.52840580,139.59459224
      name:
      - 横浜市立折本小学校
    都筑区東山田一丁目4番1号:
      latlng: 35.56409811,139.59624877
      name:
      - 横浜市立東山田小学校
    都筑区東山田三丁目29番1号:
      latlng: 35.56004874,139.60309272
      name:
      - 横浜市立山田小学校
    都筑区池辺町2452番地1:
      latlng: 35.52150012,139.56351736
      name:
      - 横浜市立都田西小学校
    都筑区池辺町2818番地:
      latlng: 35.52303898,139.56990571
      name:
      - 横浜市立都田中学校
    都筑区池辺町2831番地:
      latlng: 35.52243631,139.57156113
      name:
      - 横浜市立都田小学校
    都筑区牛久保一丁目23番1号:
      latlng: 35.55952061,139.58212528
      name:
      - 横浜市立牛久保小学校
    都筑区牛久保東二丁目21番1号:
      latlng: 35.55063886,139.58745859
      name:
      - 横浜市立中川小学校
    都筑区茅ヶ崎南一丁目10番1号:
      latlng: 35.54037342,139.58222630
      name:
      - 横浜市立茅ヶ崎中学校
    都筑区茅ヶ崎南一丁目11番1号:
      latlng: 35.54077052,139.58047367
      name:
      - 横浜市立茅ヶ崎小学校
    都筑区茅ヶ崎東二丁目11番1号:
      latlng: 35.54262308,139.58118462
      name:
      - 横浜市立茅ヶ崎東小学校
    都筑区荏田南二丁目5番2号:
      latlng: 35.54451085,139.55645365
      name:
      - 横浜市立荏田南小学校
    都筑区荏田南町694番地:
      latlng: 35.55758424,139.56359378
      name:
      - 横浜市立荏田小学校
    都筑区荏田東一丁目22番1号:
      latlng: 35.54583594,139.56549987
      name:
      - 横浜市立つづきの丘小学校
    都筑区荏田東三丁目5番1号:
      latlng: 35.54669407,139.56288342
      name:
      - 横浜市立荏田東第一小学校
    都筑区長坂13番1号:
      latlng: 35.53741776,139.56993039
      name:
      - 横浜市立茅ヶ崎台小学校
    金沢区並木一丁目25番1号:
      latlng: 35.36666820,139.64118729
      name:
      - 横浜市立並木中央小学校
    金沢区並木一丁目7番1号:
      latlng: 35.37279511,139.63890404
      name:
      - 横浜市立並木第一小学校
    金沢区並木三丁目10番1号:
      latlng: 35.35591973,139.64134303
      name:
      - 横浜市立並木第四小学校
    金沢区並木三丁目4番1号:
      latlng: 35.35924147,139.64091245
      name:
      - 並木中学校
    金沢区六浦一丁目24番4号:
      latlng: 35.32466501,139.61775556
      name:
      - 横浜市立六浦中学校
    金沢区六浦三丁目11番1号:
      latlng: 35.33023049,139.61304726
      name:
      - 横浜市立六浦小学校
    金沢区六浦南三丁目22番1号:
      latlng: 35.31585164,139.61092045
      name:
      - 横浜市立六浦南小学校
    金沢区六浦東三丁目2番1号:
      latlng: 35.31944930,139.62016393
      name:
      - 横浜市立瀬ヶ崎小学校
    金沢区大道一丁目85番1号:
      latlng: 35.33057416,139.60138996
      name:
      - 横浜市立大道中学校
    金沢区大道二丁目3番1号:
      latlng: 35.32658080,139.61046964
      name:
      - 横浜市立大道小学校
    金沢区富岡西一丁目69番1号:
      latlng: 35.37180309,139.62036378
      name:
      - 横浜市立小田小学校
    金沢区富岡西七丁目13番1号:
      latlng: 35.36668444,139.62462467
      name:
      - 横浜市立富岡小学校
    金沢区富岡西五丁目49番1号:
      latlng: 35.36208440,139.61406433
      name:
      - 横浜市立西富岡小学校
    金沢区寺前二丁目21番7号:
      latlng: 35.34008017,139.63100781
      name:
      - 横浜市立文庫小学校
    金沢区東朝比奈二丁目53番1号:
      latlng: 35.32308317,139.59504641
      name:
      - 横浜市立朝比奈小学校
    金沢区泥亀一丁目21番2号:
      latlng: 35.33869107,139.62198874
      name:
      - 横浜市立八景小学校
    金沢区町屋町26番26号:
      latlng: 35.33568343,139.62971608
      name:
      - 横浜市立金沢小学校
    金沢区能見台三丁目32番地1:
      latlng: 35.35783554,139.62247493
      name:
      - 横浜市立能見台小学校
    金沢区能見台六丁目3番地1:
      latlng: 35.35334398,139.61480597
      name:
      - 横浜市立能見台南小学校
    金沢区西柴一丁目23番1号:
      latlng: 35.35273937,139.62941624
      name:
      - 横浜市立西柴中学校
    金沢区西柴四丁目23番1号:
      latlng: 35.34790146,139.63324115
      name:
      - 横浜市立西柴小学校
    金沢区釜利谷南四丁目12番1号:
      latlng: 35.33886217,139.60584242
      name:
      - 横浜市立釜利谷南小学校
    金沢区釜利谷東二丁目12番1号:
      latlng: 35.34450656,139.61697520
      name:
      - 横浜市立釜利谷東小学校
    金沢区釜利谷東六丁目37番1号:
      latlng: 35.34387548,139.60821178
      name:
      - 横浜市立釜利谷小学校
    金沢区釜利谷西四丁目19番1号:
      latlng: 35.34388302,139.59334361
      name:
      - 横浜市立釜利谷西小学校
    金沢区高舟台一丁目35番1号:
      latlng: 35.33372966,139.60778655
      name:
      - 横浜市立高舟台小学校
    青葉区あかね台二丁目8-2:
      latlng: 35.54115084,139.48487680
      name:
      - あかね台中学校
    青葉区あざみ野一丁目29番地1:
      latlng: 35.57176814,139.54730566
      name:
      - 横浜市立あざみ野中学校
    青葉区あざみ野三丁目29番地3:
      latlng: 35.56395532,139.54186206
      name:
      - 横浜市立あざみ野第二小学校
    青葉区あざみ野四丁目6番地1:
      latlng: 35.57185137,139.54230606
      name:
      - 横浜市立あざみ野第一小学校
    青葉区さつきが丘8番地:
      latlng: 35.53078189,139.52015177
      name:
      - 横浜市立さつきが丘小学校
    青葉区すすき野一丁目6番地4:
      latlng: 35.57585882,139.52929015
      name:
      - 横浜市立嶮山小学校
    青葉区すすき野三丁目4番地1:
      latlng: 35.57928062,139.53042883
      name:
      - 横浜市立すすき野小学校
    青葉区すみよし台36番地3:
      latlng: 35.55698366,139.49473724
      name:
      - 横浜市立奈良中学校
    青葉区つつじが丘34番地:
      latlng: 35.53596468,139.52009914
      name:
      - 横浜市立つつじが丘小学校
    青葉区みたけ台18番地:
      latlng: 35.55647488,139.51694772
      name:
      - 横浜市立みたけ台小学校
    青葉区みたけ台30番地:
      latlng: 35.55700570,139.52161413
      name:
      - 横浜市立みたけ台中学校
    青葉区もえぎ野16番地:
      latlng: 35.54861265,139.52312304
      name:
      - 横浜市立もえぎ野小学校
    青葉区千草台50番地1:
      latlng: 35.53560362,139.53677547
      name:
      - 横浜市立緑が丘中学校
    青葉区奈良二丁目29番地1:
      latlng: 35.55161923,139.48649864
      name:
      - 横浜市立奈良の丘小学校
    青葉区奈良町1541番地2:
      latlng: 35.56275057,139.48081778
      name:
      - 横浜市立奈良小学校
    青葉区市ヶ尾町1632番地1:
      latlng: 35.55607583,139.53996834
      name:
      - 横浜市立市ヶ尾小学校
    青葉区市ヶ尾町519番地:
      latlng: 35.54315524,139.54644922
      name:
      - 横浜市立東市ヶ尾小学校
    青葉区新石川一丁目20番地1:
      latlng: 35.56912133,139.55637161
      name:
      - 横浜市立山内小学校
    青葉区新石川三丁目12番地1:
      latlng: 35.57673959,139.56209296
      name:
      - 横浜市立新石川小学校
    青葉区桂台一丁目4番地:
      latlng: 35.54841938,139.50538190
      name:
      - 横浜市立桂小学校
    青葉区桂台二丁目36番地:
      latlng: 35.55250974,139.49926790
      name:
      - 横浜市立恩田小学校
    青葉区桜台47番地:
      latlng: 35.55118341,139.50981779
      name:
      - 横浜市立青葉台小学校
    青葉区梅が丘5番地:
      latlng: 35.53716471,139.52264904
      name:
      - 横浜市立谷本中学校
    青葉区榎が丘29番地:
      latlng: 35.54190700,139.50980163
      name:
      - 横浜市立榎が丘小学校
    青葉区田奈町51番地13:
      latlng: 35.53926444,139.50033231
      name:
      - 横浜市立田奈小学校
    青葉区美しが丘三丁目41番地1:
      latlng: 35.58791577,139.55141861
      name:
      - 横浜市立美しが丘中学校
    青葉区美しが丘二丁目25番地:
      latlng: 35.58245537,139.56003183
      name:
      - 横浜市立美しが丘東小学校
    青葉区美しが丘二丁目29番地:
      latlng: 35.58436344,139.55670154
      name:
      - 横浜市立美しが丘小学校
    青葉区美しが丘五丁目4番地:
      latlng: 35.57671739,139.55185504
      name:
      - 横浜市立山内中学校
    青葉区美しが丘四丁目31番地1:
      latlng: 35.58327479,139.54821628
      name:
      - 横浜市立元石川小学校
    青葉区荏子田三丁目8番地9:
      latlng: 35.57502579,139.53494540
      name:
      - 横浜市立荏子田小学校
    青葉区荏田西四丁目5番地1:
      latlng: 35.54741868,139.54921532
      name:
      - 横浜市立荏田西小学校
    青葉区藤が丘一丁目55番地10:
      latlng: 35.54325536,139.53527247
      name:
      - 横浜市立谷本小学校
    青葉区藤が丘二丁目30番地3:
      latlng: 35.53930319,139.52624852
      name:
      - 横浜市立藤が丘小学校
    青葉区鉄町427番地:
      latlng: 35.56256865,139.52002491
      name:
      - 横浜市立鉄小学校
    青葉区青葉台二丁目25番地2:
      latlng: 35.54754831,139.51512342
      name:
      - 横浜市立青葉台中学校
    青葉区鴨志田町532番地:
      latlng: 35.56383131,139.50526446
      name:
      - 横浜市立鴨志田緑小学校
    青葉区鴨志田町805番地6:
      latlng: 35.55710477,139.50926191
      name:
      - 横浜市立鴨志田第一小学校
    青葉区黒須田34番地1:
      latlng: 35.56820447,139.53293755
      name:
      - 横浜市立黒須田小学校
    鶴見中央三丁目19番1号:
      latlng: 35.50924211,139.68408077
      name:
      - 横浜市立鶴見小学校
    鶴見区上の宮一丁目26番33号:
      latlng: 35.51221362,139.63898197
      name:
      - 横浜市立上の宮中学校
    鶴見区上末吉一丁目9番1号:
      latlng: 35.52519019,139.66958476
      name:
      - 横浜市立末吉小学校
    鶴見区上末吉五丁目24番1号:
      latlng: 35.53409454,139.66194919
      name:
      - 横浜市立上末吉小学校
    鶴見区下末吉二丁目25番6号:
      latlng: 35.52285153,139.67510093
      name:
      - 横浜市立下末吉小学校
    鶴見区下末吉六丁目13番1号:
      latlng: 35.52345439,139.66431028
      name:
      - 横浜市立末吉中学校
    鶴見区下野谷町2丁目49番地:
      latlng: 35.50015993,139.68144510
      name:
      - 横浜市立下野谷小学校
    鶴見区元宮一丁目13番1号:
      latlng: 35.52292635,139.68282240
      name:
      - 横浜市立市場小学校
    鶴見区北寺尾三丁目13番1号:
      latlng: 35.51988552,139.65910250
      name:
      - 横浜市立寺尾中学校
    鶴見区北寺尾四丁目25番1号:
      latlng: 35.51622471,139.65482233
      name:
      - 横浜市立旭小学校
    鶴見区向井町3丁目82番地1:
      latlng: 35.50609236,139.69058583
      name:
      - 横浜市立潮田小学校
    鶴見区向井町4丁目83番地:
      latlng: 35.50668948,139.69168851
      name:
      - 横浜市立潮田中学校
    鶴見区寛政町23番1号:
      latlng: 35.50188715,139.69960189
      name:
      - 横浜市立寛政中学校
    鶴見区岸谷一丁目6番1号:
      latlng: 35.49353845,139.66172504
      name:
      - 横浜市立岸谷小学校
    鶴見区岸谷二丁目1番1号:
      latlng: 35.49337734,139.65935305
      name:
      - 横浜市立生麦中学校
    鶴見区市場下町1番1号:
      latlng: 35.51525241,139.68331968
      name:
      - 横浜市立市場中学校
    鶴見区平安町2丁目9番地1:
      latlng: 35.51219706,139.69225505
      name:
      - 横浜市立平安小学校
    鶴見区東寺尾五丁目19番1号:
      latlng: 35.50423439,139.65769451
      name:
      - 横浜市立寺尾小学校
    鶴見区東寺尾東台12番1号:
      latlng: 35.50379010,139.66443284
      name:
      - 横浜市立東台小学校
    鶴見区汐入町2丁目36番地:
      latlng: 35.49876555,139.68772236
      name:
      - 横浜市立汐入小学校
    鶴見区江ヶ崎町2番1号:
      latlng: 35.53186684,139.67752555
      name:
      - 横浜市立新鶴見小学校
    鶴見区浜町1丁目1番地1:
      latlng: 35.50119849,139.69263856
      name:
      - 横浜市立入船小学校
    鶴見区獅子ヶ谷一丁目19番1号:
      latlng: 35.51690234,139.65082820
      name:
      - 横浜市立獅子ヶ谷小学校
    鶴見区生麦四丁目15番1号:
      latlng: 35.49567438,139.67077967
      name:
      - 横浜市立生麦小学校
    鶴見区矢向一丁目8番24号:
      latlng: 35.52919785,139.67492585
      name:
      - 横浜市立矢向中学校
    鶴見区矢向三丁目8番1号:
      latlng: 35.53341936,139.67905315
      name:
      - 横浜市立矢向小学校
    鶴見区豊岡町27番1号:
      latlng: 35.51261958,139.67486222
      name:
      - 横浜市立豊岡小学校
    鶴見区馬場七丁目20番1号:
      latlng: 35.51017780,139.64432039
      name:
      - 横浜市立馬場小学校
    鶴見区馬場三丁目21番21号:
      latlng: 35.50717560,139.65395304
      name:
      - 横浜市立上寺尾小学校
    鶴見区駒岡三丁目14番1号:
      latlng: 35.52915364,139.65486936
      name:
      - 横浜市立駒岡小学校
    鶴見区鶴見中央三丁目14番1号:
      latlng: 35.50999200,139.68447518
      name:
      - 横浜市立鶴見中学校
  横須賀市:
    ハイランド2丁目41番1号:
      latlng: 35.22371597,139.68497106
      name:
      - 横須賀市立粟田小学校
    三春町6丁目4番地:
      latlng: 35.26603622,139.68266021
      name:
      - 横須賀市立山崎小学校
    上町3丁目21番地:
      latlng: 35.27102467,139.66955309
      name:
      - 横須賀市立豊島小学校
    不入斗町1丁目1番地:
      latlng: 35.26848334,139.66712827
      name:
      - 横須賀市立鶴久保小学校
    久里浜2丁目11番1号:
      latlng: 35.22897354,139.69854201
      name:
      - 横須賀市立久里浜中学校
    久里浜6丁目1番1号:
      latlng: 35.22956504,139.70895227
      name:
      - 横須賀市立横須賀総合高等学校
    久里浜6丁目6番1号:
      latlng: 35.22969282,139.70767460
      name:
      - 横須賀市立久里浜小学校
    久里浜6丁目7番1号:
      latlng: 35.22765416,139.70706077
      name:
      - 横須賀市立明浜小学校
    佐原4丁目20番1号:
      latlng: 35.23674499,139.68900667
      name:
      - 横須賀明光高等学校
    公郷町3丁目109番地:
      latlng: 35.25700966,139.67025005
      name:
      - 横須賀高等学校
    公郷町4丁目10番地:
      latlng: 35.25486258,139.67654394
      name:
      - 横須賀工業高等学校
    公郷町4丁目5番地:
      latlng: 35.25526811,139.67563013
      name:
      - 横須賀市立公郷小学校
    公郷町5丁目81番地:
      latlng: 35.25705396,139.67868545
      name:
      - 横須賀市立公郷中学校
    坂本町1丁目19番地:
      latlng: 35.27175531,139.65850400
      name:
      - 横須賀市立桜小学校
      - 横須賀市立坂本中学校
      - 横須賀市立不入斗中学校
    夏島町12番地:
      latlng: 35.31867429,139.63221851
      name:
      - 横須賀市立追浜中学校
    夏島町13番地:
      latlng: ''
      name:
      - 追浜高等学校
    大津町3丁目24番1号:
      latlng: 35.25987012,139.69363144
      name:
      - 横須賀市立大津小学校
    大津町4丁目17番1号:
      latlng: 35.25895913,139.69200102
      name:
      - 横須賀大津高等学校
    大津町5丁目2番1号:
      latlng: 35.26032843,139.69094278
      name:
      - 横須賀市立大津中学校
    大津町5丁目5番1号:
      latlng: 35.25668444,139.68655701
      name:
      - 横須賀市立根岸小学校
    大矢部3丁目26番1号:
      latlng: 35.23815612,139.67614394
      name:
      - 横須賀市立大矢部小学校
    太田和3丁目1番1号:
      latlng: 35.22485501,139.63950009
      name:
      - 横須賀市立武山小学校
    安針台17番地:
      latlng: 35.28263774,139.64219172
      name:
      - 安針台第2公園
    安針台3番1号:
      latlng: 35.28808454,139.64590531
      name:
      - 横須賀市立長浦小学校
    小原台3番1号:
      latlng: 35.25247614,139.72977598
      name:
      - 横須賀市立小原台小学校
    小川町18番地:
      latlng: ''
      name:
      - 横須賀市立常葉中学校
      - 横須賀市立諏訪小学校
    小矢部2丁目16番1号:
      latlng: 35.25530721,139.66367277
      name:
      - 横須賀市立衣笠小学校
    岩戸5丁目20番1号:
      latlng: 35.23372338,139.66768921
      name:
      - 横須賀市立岩戸小学校
    岩戸5丁目6番3号:
      latlng: 35.22798510,139.66874752
      name:
      - 横須賀市立岩戸中学校
    岩戸5丁目6番5号:
      latlng: 35.22669359,139.66780317
      name:
      - 岩戸養護学校
    平作1丁目6番1号:
      latlng: 35.25639324,139.65657063
      name:
      - 横須賀市立城北小学校
    平作2丁目31番1号:
      latlng: 35.25300471,139.65247654
      name:
      - 横須賀市立衣笠中学校
    平作5丁目28番10号:
      latlng: 35.25810124,139.64349411
      name:
      - 横須賀市立平作小学校
    平成町1丁目10番1号:
      latlng: ''
      name:
      - 神奈川県立保健福祉大学
    東逸見町3丁目35番地:
      latlng: 35.27499949,139.65039088
      name:
      - 横須賀市立沢山小学校
    桜が丘1丁目50番1号:
      latlng: 35.25438450,139.70338618
      name:
      - 横須賀市立望洋小学校
    森崎3丁目13番1号:
      latlng: 35.24493032,139.67891590
      name:
      - 横須賀市立森崎小学校
    森崎5丁目14番2号:
      latlng: 35.24475001,139.66468938
      name:
      - 横須賀市立大矢部中学校
    森崎5丁目1番1号:
      latlng: 35.24653308,139.66908621
      name:
      - 旧横須賀市立横須賀高等学校
    武3丁目19番1号:
      latlng: 35.22020273,139.64220539
      name:
      - 横須賀市立富士見小学校
    武3丁目31番1号:
      latlng: 35.21805018,139.64427744
      name:
      - 横須賀市立武山中学校
    汐入町2丁目53番地:
      latlng: 35.28000158,139.66357306
      name:
      - 横須賀市立汐入小学校
    池上3丁目5番1号:
      latlng: 35.26035383,139.64753542
      name:
      - 横須賀市立池上小学校
      - 横須賀市立池上中学校
    池田町3丁目1番1号:
      latlng: 35.24507727,139.69466736
      name:
      - 横須賀市立大塚台小学校
    津久井4丁目4番1号:
      latlng: 35.20027985,139.66335376
      name:
      - 津久井浜高等学校
    津久井5丁目2番1号:
      latlng: 35.20752071,139.66757006
      name:
      - 横須賀市立津久井小学校
    浦賀3丁目26番1号:
      latlng: 35.24994049,139.71176049
      name:
      - 横須賀市立浦賀中学校
    浦賀町3丁目8番地1号:
      latlng: ''
      name:
      - 横須賀市立浦賀小学校
    浦郷町4丁目35番地:
      latlng: 35.31680218,139.63399334
      name:
      - 横須賀市立夏島小学校
    深田台19番地:
      latlng: 35.27282163,139.67366384
      name:
      - 中央公園
    湘南鷹取2丁目30番1号:
      latlng: 35.30774444,139.62258894
      name:
      - 横須賀市立鷹取中学校
    湘南鷹取4丁目7番1号:
      latlng: 35.30789137,139.61451777
      name:
      - 横須賀市立鷹取小学校
    田浦町3丁目55番地:
      latlng: 35.29075934,139.63151795
      name:
      - 横須賀市立田浦小学校
    神明町1番地:
      latlng: 35.22495174,139.70208621
      name:
      - 神明公園
    神明町407番地:
      latlng: 35.22571833,139.70141681
      name:
      - 横須賀市立神明小学校
    神明町903番地:
      latlng: 35.22534616,139.70061966
      name:
      - 横須賀市立神明中学校
    米が浜通2丁目12番地:
      latlng: 35.27458808,139.67523035
      name:
      - 横須賀市立田戸小学校
    船越町5丁目34番地:
      latlng: 35.30063927,139.62699940
      name:
      - 横須賀市立船越小学校
    船越町7丁目66番地:
      latlng: 35.30182258,139.63087955
      name:
      - 横須賀市立田浦中学校
    芦名1丁目29番18号:
      latlng: 35.23383430,139.60784996
      name:
      - 横須賀市立大楠小学校
    芦名1丁目2番1号:
      latlng: 35.23109022,139.61578262
      name:
      - 横須賀市立大楠中学校
    荻野14番1号:
      latlng: 35.22747964,139.62939811
      name:
      - 大楠高等学校
    荻野8番1号:
      latlng: 35.22663529,139.62866761
      name:
      - 横須賀市立荻野小学校
    西浦賀3丁目1番1号:
      latlng: 35.24135263,139.71531570
      name:
      - 横須賀市立高坂小学校
    西逸見町1丁目14番地:
      latlng: 35.28332376,139.64980767
      name:
      - 横須賀市立逸見小学校
    走水2丁目2番2号:
      latlng: 35.26545280,139.72913424
      name:
      - 横須賀市立走水小学校
    追浜東町2丁目14番地:
      latlng: 35.31253306,139.62974375
      name:
      - 横須賀市立浦郷小学校
    野比1丁目25番1号:
      latlng: 35.21560026,139.68457677
      name:
      - 横須賀市立野比小学校
    野比4丁目4番1号:
      latlng: 35.21548072,139.69461475
      name:
      - 横須賀市立野比中学校
    野比4丁目6番1号:
      latlng: 35.21376425,139.69536193
      name:
      - 横須賀市立野比東小学校
    長井5丁目12番1号:
      latlng: 35.20579860,139.61483523
      name:
      - 横須賀市立長井中学校
    長井5丁目9番1号:
      latlng: 35.20503480,139.61289371
      name:
      - 横須賀市立長井小学校
    長沢1丁目29番1号:
      latlng: 35.20274074,139.67456952
      name:
      - 横須賀市立北下浦小学校
    長沢1丁目30番17号:
      latlng: 35.20416279,139.67292520
      name:
      - 横須賀市立北下浦中学校
    長沢5丁目1番1号:
      latlng: 35.21329224,139.67569711
      name:
      - 横須賀市立長沢中学校
    馬堀町4丁目10番1号:
      latlng: 35.25992272,139.71500199
      name:
      - 横須賀市立馬堀小学校
    馬堀町4丁目10番2号:
      latlng: 35.25850618,139.71721850
      name:
      - 横須賀市立馬堀中学校
    鴨居2丁目55番15号:
      latlng: 35.24792399,139.73092304
      name:
      - 旧横須賀市立上の台中学校
    鴨居3丁目1番6号:
      latlng: 35.25072080,139.73283687
      name:
      - 横須賀市立鴨居小学校
    鴨居3丁目2番2号:
      latlng: 35.25215670,139.73312577
      name:
      - 横須賀市立鴨居中学校
    鴨居4-1:
      latlng: ''
      name:
      - 横須賀美術館
    鷹取2丁目16番1号:
      latlng: 35.31555491,139.61789762
      name:
      - 横須賀市立追浜小学校
  海老名市:
    さつき町51番地:
      latlng: ''
      name:
      - 海老名市立海老名青少年会館
    さつき町58番地:
      latlng: 35.44844776,139.38017655
      name:
      - 海老名市立海西中学校
    上今泉1840番地:
      latlng: 35.46557050,139.39303374
      name:
      - 海老名市立今泉中学校
    上今泉1丁目23番1号:
      latlng: 35.46682349,139.40337995
      name:
      - 海老名市立上星小学校
    上今泉1丁目5番32号:
      latlng: 35.46651252,139.40534364
      name:
      - 海老名市立上今泉コミュニティセンター
    上今泉2028番地:
      latlng: 35.46115429,139.39182011
      name:
      - 海老名市立今泉小学校
    上今泉6丁目340番1号:
      latlng: ''
      name:
      - 北部公園
    上郷476番地2:
      latlng: 35.45230835,139.38697880
      name:
      - 海老名市文化会館
    下今泉1丁目17番55号:
      latlng: 35.46275421,139.38581764
      name:
      - 海老名市立下今泉コミュニティセンター
    中新田1丁目15番1号:
      latlng: 35.43867394,139.38534260
      name:
      - 海老名市立中新田小学校
    中新田1丁目26番1号:
      latlng: 35.44199024,139.38744531
      name:
      - 海老名高等学校
    中新田2丁目16番14号:
      latlng: 35.44267624,139.38210132
      name:
      - 海老名市立中新田コミュニティセンター
    中新田377番地:
      latlng: 35.44455381,139.38633991
      name:
      - 海老名市立保健相談センター
    中新田4丁目12番1号:
      latlng: 35.43373285,139.38630900
      name:
      - 中央農業高等学校
    中河内1784番地:
      latlng: 35.41589601,139.39499650
      name:
      - 海老名市立有馬小学校
    勝瀬4番40号:
      latlng: 35.44638699,139.39749737
      name:
      - 海老名市立勝瀬文化センター
    国分北4丁目10番1号:
      latlng: 35.46454345,139.40829893
      name:
      - 海老名市立杉本小学校
    国分南3丁目11番1号:
      latlng: 35.44991429,139.39808069
      name:
      - 海老名市立海老名中学校
    国分南3丁目12番3号:
      latlng: 35.45131690,139.39871397
      name:
      - 海老名市立海老名小学校
    国分南4丁目14番1号:
      latlng: 35.45272243,139.40308577
      name:
      - 海老名市立国分コミュニティセンター
    国分寺台2丁目10番23号:
      latlng: 35.43933811,139.40542998
      name:
      - 海老名市立国分寺台文化センター
    国分寺台2丁目13番1号:
      latlng: 35.43983799,139.40331070
      name:
      - 海老名市立大谷小学校
    大谷南2丁目10番1号:
      latlng: 35.43682986,139.39614731
      name:
      - 海老名市立大谷中学校
    大谷南4丁目21号:
      latlng: 35.43221377,139.39755818
      name:
      - 大谷近隣公園
    大谷南4丁目21番1号:
      latlng: 35.43311090,139.39787485
      name:
      - 海老名市立大谷コミュニティセンター
    本郷4601番地:
      latlng: 35.41604881,139.39604645
      name:
      - 海老名市立有馬中学校
    本郷4626番地1:
      latlng: 35.41339350,139.39554357
      name:
      - 海老名市立本郷コミュニティセンター
    杉久保北2丁目18番15号:
      latlng: 35.42680884,139.39759132
      name:
      - 海老名市立杉久保コミュニティセンター
    杉久保北4丁目4番1号:
      latlng: 35.42896709,139.40308003
      name:
      - 海老名市立杉久保小学校
    東柏ヶ谷1丁目1766番49号:
      latlng: ''
      name:
      - 東柏ヶ谷近隣公園
    東柏ヶ谷2丁目14番12号:
      latlng: 35.46888778,139.42483042
      name:
      - 海老名市立柏ヶ谷コミュニティセンター
    東柏ヶ谷6丁目9番7号:
      latlng: 35.46793782,139.43496842
      name:
      - 海老名市立東柏ヶ谷小学校
    柏ヶ谷1090番地:
      latlng: 35.46649913,139.41712291
      name:
      - 海老名市立柏ヶ谷小学校
    柏ヶ谷884番地:
      latlng: 35.46915708,139.41662291
      name:
      - 海老名市立柏ヶ谷中学校
    河原口816番地:
      latlng: 35.45279724,139.37774615
      name:
      - 海老名市立有鹿小学校
    社家240番地:
      latlng: 35.41478455,139.37972789
      name:
      - 有馬高等学校
    社家687番地:
      latlng: ''
      name:
      - 海老名市立社家小学校
    社家962番地:
      latlng: 35.42390328,139.38485861
      name:
      - 海老名市立社家コミュニティセンター
    門沢橋1丁目19番20号:
      latlng: ''
      name:
      - 海老名市立門沢橋小学校
    門沢橋1丁目20番41号:
      latlng: 35.40791013,139.38033588
      name:
      - 海老名市立門沢橋コミュニティセンター
  清川村:
    宮ヶ瀬954番地の1:
      latlng: 35.52426509,139.23131506
      name:
      - 清川村立宮ヶ瀬小学校
      - 清川村立宮ヶ瀬中学校
    煤ヶ谷1104番地の54:
      latlng: 35.46950110,139.28577526
      name:
      - 金翅自治会館
    煤ヶ谷1518番地の2:
      latlng: ''
      name:
      - 清川村運動公園野球場
    煤ヶ谷1619番地:
      latlng: 35.47187024,139.28104781
      name:
      - 清川村ふれあいセンター「別所の湯」
    煤ヶ谷1785番地の1:
      latlng: 35.47661153,139.28223647
      name:
      - 八幡自治会館
    煤ヶ谷1933番地:
      latlng: 35.47794466,139.27971997
      name:
      - 清川村立緑中学校
    煤ヶ谷1985番地:
      latlng: 35.47973062,139.27940607
      name:
      - 中根自治会館
    煤ヶ谷2076番地:
      latlng: 35.48056659,139.27727567
      name:
      - 清川村立緑小学校
  湯河原町:
    中央1丁目16番地:
      latlng: ''
      name:
      - 若宮公園
    中央1丁目19番1号:
      latlng: 35.14626926,139.11149468
      name:
      - 湯河原町立まさご保育園
    中央1丁目4番地:
      latlng: 35.14705783,139.10813110
