宮崎:
  えびの市:
    大字上江1580番地:
      latlng: 32.03253828,130.84796068
      name:
      - えびの市立上江小学校
    大字上江1735番地:
      latlng: 32.02871950,130.84470877
      name:
      - えびの市立上江中学校
    大字上江1780番地1:
      latlng: 32.02870012,130.84362286
      name:
      - 上江地区体育館
    大字原田110番地:
      latlng: 32.04762271,130.86580783
      name:
      - えびの市立飯野小学校
    大字原田190番地:
      latlng: 32.04567308,130.87113805
      name:
      - えびの市立飯野中学校
    大字原田2000番地:
      latlng: 32.02909416,130.86950546
      name:
      - 神社原運動公園
    大字原田2176番地:
      latlng: 32.03356599,130.87279666
      name:
      - 飯野駅前地区体育館
    大字原田3056番地:
      latlng: 32.04469532,130.86871882
      name:
      - えびの市勤労者体育センター
    大字向江1140番地:
      latlng: 32.04510078,130.76105292
      name:
      - えびの市立真幸小学校
    大字向江1188番地10:
      latlng: 32.04389259,130.76097518
      name:
      - 真幸地区体育館
    大字向江491番地4:
      latlng: ''
      name:
      - 老人福祉センター
    大字向江593番地2:
      latlng: 32.04572595,130.76767742
      name:
      - 真幸地区公民館
    大字向江850番地:
      latlng: 32.04717007,130.76321938
      name:
      - えびの市立真幸中学校
    大字坂元1666番地:
      latlng: 32.10019334,130.84222264
      name:
      - 高野畜産管理センター
    大字大明司2146番地2:
      latlng: 32.05256784,130.82772963
      name:
      - 文化センター
    大字大河平2410番地:
      latlng: ''
      name:
      - えびの市立大河平小学校
    大字島内2044番地:
      latlng: 32.04567643,130.77985711
      name:
      - 王子原運動公園
    大字東長江浦1652-179:
      latlng: 31.99336002,130.82041187
      name:
      - 加久藤小尾八重野分校
    大字栗下1168番地3:
      latlng: ''
      name:
      - 加久籐地区体育館
    大字栗下1269番地1:
      latlng: 32.04441081,130.81151850
      name:
      - えびの市立加久藤中学校
    大字栗下151番地:
      latlng: 32.04634670,130.81367645
      name:
      - えびの市立加久藤小学校
    大字榎田388番地1:
      latlng: 32.05634864,130.81086797
      name:
      - 国際交流センター
    大字永山785番地:
      latlng: 32.05310438,130.80607687
      name:
      - 永山運動公園
      - 永山公園
    大字浦371番地:
      latlng: 32.02349566,130.78688546
      name:
      - えびの市立岡元小学校
  三股町:
    五本松13-4:
      latlng: 31.73056291,131.12165050
      name:
      - 三股町武道体育館
    五本松7-1:
      latlng: 31.73099345,131.12253377
      name:
      - 三股町体育館
    五本松8-1:
      latlng: 31.73083791,131.12330876
      name:
      - 三股町中央公民館
      - 三股町勤労者体育センター
    大字宮村1295:
      latlng: 31.70792066,131.12257068
      name:
      - 三股町立宮村小学校体育館
    大字宮村1494-1:
      latlng: 31.70796229,131.12104019
      name:
      - 三股町第3地区分館
    大字樺山1867-2:
      latlng: 31.72551862,131.10712915
      name:
      - 三股町第9地区分館
    大字樺山1908-1:
      latlng: ''
      name:
      - 三股町西植木コミュニティーセンター
    大字樺山2724-91:
      latlng: 31.72377196,131.12807553
      name:
      - 三股町第2地区分館
    大字樺山2729-1:
      latlng: ''
      name:
      - 三股町第2地区交流プラザ
    大字樺山3384-2:
      latlng: 31.72889360,131.12152003
      name:
      - 三股町元気の杜
    大字樺山3404-2:
      latlng: 31.72871865,131.12345330
      name:
      - 三股町立文化会館
    大字樺山3480-2:
      latlng: 31.73136290,131.12663364
      name:
      - 三股町第1地区分館
    大字樺山3548:
      latlng: 31.73116572,131.12865860
      name:
      - 三股町立三股中学校体育館
    大字樺山4053-1:
      latlng: 31.73568476,131.12811397
      name:
      - 三股町山王原児童館
    大字樺山4373-2:
      latlng: 31.73628175,131.11600049
      name:
      - 三股町第7地区分館
    大字樺山4489:
      latlng: 31.73395988,131.12459746
      name:
      - 三股町立三股小学校体育館
    大字樺山4598:
      latlng: 31.72995171,131.11418975
      name:
      - 三股町第8地区分館
    大字蓼池2295:
      latlng: 31.75617461,131.11854133
      name:
      - 三股町第6地区分館
    大字蓼池3494:
      latlng: 31.76553221,131.11936886
      name:
      - 三股町蓼池児童館
    大字長田2860-1:
      latlng: ''
      name:
      - 三股町梶山児童館
    大字長田2876:
      latlng: 31.73780955,131.14527480
      name:
      - 三股町立梶山小学校体育館
    大字長田3093:
      latlng: 31.73352404,131.15104679
      name:
      - 三股町第4地区分館
    大字長田4726:
      latlng: 31.73846085,131.19056808
      name:
      - 三股町長田児童館
    大字長田6203:
      latlng: 31.73481387,131.18605747
      name:
      - 三股町立長田小学校体育館
    花見原11-1:
      latlng: 31.73743697,131.10607320
      name:
      - 三股町立三股西小学校体育館
    餅原1023-4:
      latlng: 31.74982240,131.11951917
      name:
      - 三股町殿岡生活改善センター
    餅原973:
      latlng: 31.75345271,131.12164953
      name:
      - 三股町立勝岡小学校体育館
  串間市:
    北方3768:
      latlng: 31.48595547,131.24829852
      name:
      - 串間市立北方中学校
    北方4894:
      latlng: 31.46964339,131.24348815
      name:
      - 串間市立北方小学校
    南方4438:
      latlng: 31.44555229,131.21296795
      name:
      - 串間市立金谷小学校
    大字西方4015:
      latlng: 31.46949641,131.23334395
      name:
      - 宮崎県立福島高校
    大字西方9080-1:
      latlng: ''
      name:
      - 市総合運動公園
      - 市総合運動公園多目的広場
      - 市総合運動公園野球場
    大字西方9365:
      latlng: 31.46497205,131.21850886
      name:
      - 串間市総合保健福祉センター
    大平1881:
      latlng: 31.56094222,131.24486333
      name:
      - 串間市立大平小学校
    大平5714:
      latlng: 31.52354056,131.23521377
      name:
      - 串間市立大束中学校
    大平5715:
      latlng: 31.52502376,131.23606659
      name:
      - 串間市立大束小学校
    奈留5225-1:
      latlng: 31.51134749,131.24773066
      name:
      - 大束地区公民館
    奴久見1297:
      latlng: 31.50041443,131.18558312
      name:
      - 串間市立笠祗小学校
    市木1835:
      latlng: 31.46116013,131.34400034
      name:
      - 串間市立市木中学校
    市木7295:
      latlng: ''
      name:
      - 串間市立市木小学校
    市木7375-ロ:
      latlng: ''
      name:
      - 市木支所
    市木9017:
      latlng: 31.47631294,131.38872377
      name:
      - 串間市立築島分校
    本城5951-2:
      latlng: 31.43582179,131.26330429
      name:
      - 串間市立本城中学校
    本城6040:
      latlng: 31.43068613,131.26414315
      name:
      - 本城地区公民館
    本城7764:
      latlng: 31.43398028,131.26244601
      name:
      - 串間市立本城小学校
    秋山2485:
      latlng: 31.50102377,131.26639450
      name:
      - 串間市立秋山小学校
    西方15077-2:
      latlng: 31.45667843,131.20490464
      name:
      - 串間市立有明小学校
    西方4184:
      latlng: 31.47138790,131.23110792
      name:
      - 串間市立福島小学校
    西方5550:
      latlng: 31.46453872,131.22830540
      name:
      - 串間市役所
    西方8607:
      latlng: 31.47370718,131.22679976
      name:
      - 串間市立福島中学校
    西方9050:
      latlng: 31.46479707,131.21897827
      name:
      - 総合体育館
      - 中央公民館
    都井2157:
      latlng: ''
      name:
      - 都井地区基幹集落センター
    都井2257-1:
      latlng: 31.39875763,131.30573064
      name:
      - 串間市立都井小学校
    都井4766:
      latlng: 31.39256975,131.31757156
      name:
      - 串間市立都井中学校
  五ヶ瀬町:
    三ヶ所10693-1:
      latlng: ''
      name:
      - 五ヶ瀬町町民センター
    三ヶ所1670:
      latlng: 32.68295061,131.19649481
      name:
      - 五ヶ瀬町役場
    三ヶ所3446:
      latlng: 32.65239366,131.22187219
      name:
      - 五ヶ瀬町立坂本小学校
    大字三ヶ所10153:
      latlng: 32.69591698,131.23542315
      name:
      - 五ヶ瀬町立三ヶ所中学校
    大字三ヶ所10750:
      latlng: 32.68435614,131.20127752
      name:
      - 五ヶ瀬町立三ヶ所小学校
    大字三ヶ所9223番地:
      latlng: 32.67793152,131.21187101
      name:
      - 五ヶ瀬Gパーク五ヶ瀬ドーム
    大字三ヶ所9468番地30:
      latlng: 32.67756209,131.20815200
      name:
      - 宮崎県立五ヶ瀬中等教育学校
    大字桑野内4917:
      latlng: ''
      name:
      - 五ヶ瀬町立上組小学校
    大字鞍岡1696:
      latlng: 32.64780040,131.16362789
      name:
      - 五ヶ瀬町立鞍岡小学校
    桑野内1514-5:
      latlng: 32.72985187,131.23353328
      name:
      - 桑野内交流センター(旧桑野内小)
    鞍岡5793:
      latlng: 32.64193431,131.15863711
      name:
      - 鞍岡地区公民館
    鞍岡5929:
      latlng: 32.64358139,131.15974521
      name:
      - 五ヶ瀬町立鞍岡中学校
  国富町:
    三名1658:
      latlng: 32.00830019,131.34260548
      name:
      - 国富町農業者トレーニングセンター
    八代北俣2415:
      latlng: 32.04779416,131.31735726
      name:
      - 国富町北俣体育館
    八代南俣1710:
      latlng: 32.02698444,131.30710888
      name:
      - 八代中学校
    八代南俣2101:
      latlng: 32.02798716,131.30797822
      name:
      - 八代小学校
    八代南俣3808-1:
      latlng: 32.05853706,131.29569493
      name:
      - 国富町籾木体育館
    大字本庄4778:
      latlng: 31.99043200,131.32426896
      name:
      - 国富町農村環境改善センター
    嵐田1518-1:
      latlng: ''
      name:
      - 川南地区健康増進センター
    木脇1707:
      latlng: 31.99148258,131.35538093
      name:
      - 木脇中学校
    木脇1730:
      latlng: 31.99204088,131.35634750
      name:
      - 木脇小学校
    木脇3096-1:
      latlng: 31.98563343,131.36851368
      name:
      - 木脇地区農業構造改善センター
    本庄2367-2:
      latlng: 31.98466062,131.33714643
      name:
      - 本庄東部体育館
    本庄4056:
      latlng: 31.98790445,131.32476075
      name:
      - 本庄小学校
    本庄4777-1:
      latlng: 31.99051812,131.32476893
      name:
      - 国富町武道館
    本庄4780:
      latlng: 31.99088474,131.32429393
      name:
      - 国富町中央体育館
    本庄5071:
      latlng: 31.98693490,131.31850828
      name:
      - 宮崎県立本庄高等学校体育館
    本庄6072:
      latlng: 31.99210371,131.31135546
      name:
      - 本庄中学校
    森永1967:
      latlng: 31.99895544,131.28387559
      name:
      - 森永小学校
    深年3071:
      latlng: ''
      name:
      - 国富町深年体育館
    須志田1104-2:
      latlng: 32.01163792,131.28444427
      name:
      - 須志田地区農業構造改善センター
  宮崎市:
    まなび野3丁目5-1:
      latlng: 31.85866060,131.41556586
      name:
      - 宮崎県立看護大学
    下北方町5348-1:
      latlng: 31.94873454,131.40654315
      name:
      - 大淀川学習館
    下北方町5945:
      latlng: 31.94224102,131.41900380
      name:
      - 大宮中学校
    下北方町下郷6101:
      latlng: 31.94512432,131.41759097
      name:
      - 大宮公民館
    下北方町新地849:
      latlng: ''
      name:
      - 大宮小学校
    下原町231-3:
      latlng: ''
      name:
      - 下原児童公園
    京塚2丁目1-18:
      latlng: 31.89823723,131.41145898
      name:
      - 市立大淀公民館
    佐土原町上田島1350:
      latlng: 32.04883735,131.42896502
      name:
      - 佐土原小学校
    佐土原町下田島20732-1:
      latlng: ''
      name:
      - 中央体育館
    佐土原町下那珂黒田7982:
      latlng: ''
      name:
      - 黒田地区学習等供用施設
    佐土原町大字上田島1680:
      latlng: ''
      name:
      - 佐土原地区公民館
    佐土原町大字上田島8476:
      latlng: 32.04344053,131.42208509
      name:
      - 佐土原中学校
    佐土原町大字上田島字野久尾8387-2:
      latlng: ''
      name:
      - 西体育館
    佐土原町大字下田島20527-4:
      latlng: 32.02298392,131.47392352
      name:
      - 佐土原総合文化センター
    佐土原町大字下田島20660:
      latlng: 32.02408659,131.47402898
      name:
      - 宮崎市役所佐土原総合支所
    佐土原町大字下田島21341:
      latlng: 32.02245871,131.46841851
      name:
      - 久峰中学校
    佐土原町大字下田島字袋20306:
      latlng: ''
      name:
      - 広瀬中学校
    佐土原町大字下田島字袋20308:
      latlng: ''
      name:
      - 広瀬小学校
    佐土原町大字下那珂12900-2:
      latlng: ''
      name:
      - 佐土原町武道館
    佐土原町大字下那珂田宮13270:
      latlng: ''
      name:
      - 広瀬西小学校
    佐土原町大字東上那珂14502:
      latlng: 32.02747014,131.42584099
      name:
      - 那珂地区公民館
    千草町49-1:
      latlng: ''
      name:
      - 千草児童公園
    原町1-4:
      latlng: 31.92260421,131.42246276
      name:
      - 西中学校
    原町2-22:
      latlng: 31.92285971,131.42174892
      name:
      - 福祉総合センター
    古城町5735:
      latlng: 31.89334786,131.38807172
      name:
      - 古城小学校
    吉村町ハシテ甲2386-139:
      latlng: ''
      name:
      - 宮崎地区交流センター
    吉村町冬治867:
      latlng: ''
      name:
      - 檍小学校
    吉村町南浜田甲4261:
      latlng: ''
      name:
      - 宮崎港小学校
    吉村町平塚甲1797:
      latlng: ''
      name:
      - 憶児童センター
    吉村町江田原甲265:
      latlng: 31.92514455,131.44488893
      name:
      - 檍中学校
    吉村町江田原町甲265-1:
      latlng: ''
      name:
      - 檍公民館
    和知川原2丁目44:
      latlng: ''
      name:
      - 和知川原児童公園
    和知川原3丁目24:
      latlng: 31.92396198,131.40809150
      name:
      - 宮崎商高等学校
    大坪町大坪4144外:
      latlng: ''
      name:
      - 大坪池公園
    大塚台西2丁目19:
      latlng: 31.91501783,131.38407944
      name:
      - 宮崎西小学校
    大塚台西3丁目22-3:
      latlng: 31.91074043,131.38283804
      name:
      - 大塚台児童センター
    大塚町3975-2:
      latlng: 31.90797969,131.38657406
      name:
      - 宮崎西高等学校
    大塚町八所3765:
      latlng: ''
      name:
      - 大塚児童センター
    大塚町鎌ヶ迫2296:
      latlng: 31.91876732,131.38944202
      name:
      - 大塚中学校
    大塚町鎌ヶ迫2296-1:
      latlng: ''
      name:
      - 市立大塚公民館
    大塚町鎌ヶ迫2296-2:
      latlng: ''
      name:
      - 大塚小学校
    大字内海1024:
      latlng: 31.75973005,131.47217183
      name:
      - 内海小学校
    大字加江田6896:
      latlng: 31.80532444,131.44870821
      name:
      - 宮崎市自然休養村センター
    大字大瀬町247:
      latlng: 31.96235786,131.37746974
      name:
      - 北中学校
    大字島之内5383:
      latlng: 31.98479138,131.44103374
      name:
      - 住吉小学校
    大字島之内7082-2:
      latlng: 31.98830263,131.45124668
      name:
      - 住吉児童センター
    大字島之内7410-1:
      latlng: 31.98222529,131.45032765
      name:
      - 市立住吉公民館
    大字島之内7608:
      latlng: 31.98879421,131.45004951
      name:
      - 住吉中学校
    大字広原1085-1:
      latlng: ''
      name:
      - 広原体育館
    大字恒久1061:
      latlng: 31.88580907,131.42371397
      name:
      - 宮崎農業高等学校
    大字恒久1287-3:
      latlng: 31.88683913,131.41880322
      name:
      - 吉永センター
    大字恒久2丁目15-4:
      latlng: 31.89521652,131.42644118
      name:
      - 恒久小学校
    大字恒久5124:
      latlng: 31.88840781,131.41113155
      name:
      - 市南部老人福祉センター
    大字恒久5132:
      latlng: 31.88862727,131.41167872
      name:
      - 宮崎勤労身体障害者体育センター
    大字恒久556:
      latlng: 31.88837616,131.42997718
      name:
      - 赤江小学校
    大字折生迫4828:
      latlng: 31.78652703,131.46916741
      name:
      - 青島中学校
    大字新名爪4567:
      latlng: 31.96970611,131.43446565
      name:
      - 宮崎北高等学校
    大字本郷北方3406-79:
      latlng: 31.86859640,131.42511454
      name:
      - 山崎台センター
    大字本郷北方36-1:
      latlng: 31.87318259,131.43064713
      name:
      - 津和田センター
    大字本郷北方3926:
      latlng: 31.86346054,131.42419268
      name:
      - 本郷小学校
    大字本郷北方4485-12:
      latlng: ''
      name:
      - 城ノ下センター
    大字本郷南方2487-4:
      latlng: 31.85401661,131.43341730
      name:
      - 赤江老人福祉センター
    大字本郷南方2793:
      latlng: 31.85935243,131.43108945
      name:
      - 市立本郷公民館
    大字本郷南方5460:
      latlng: 31.86250504,131.42405941
      name:
      - 本郷中学校
    大字浮田2920:
      latlng: 31.93196030,131.37168249
      name:
      - 生目小学校
    大字浮田3000:
      latlng: 31.92982172,131.37613224
      name:
      - 市立生目公民館
    大字浮田662:
      latlng: 31.92287237,131.37496032
      name:
      - 生目南中学校
    大字浮田662-14:
      latlng: 31.92268074,131.37577137
      name:
      - 市立生目南公民館
    大字熊野10956:
      latlng: 31.83219886,131.43460714
      name:
      - 木花小学校
    大字熊野591:
      latlng: 31.82914074,131.43640979
      name:
      - 市立木花公民館
    大字熊野字藤兵江衛中州:
      latlng: ''
      name:
      - 青島青少年自然の家
    大字瓜生野2589:
      latlng: 31.97036591,131.38761021
      name:
      - 瓜生野小学校
    大字瓜生野3909:
      latlng: 31.96268298,131.38298874
      name:
      - 西部地区農村環境改善センター
    大字田吉1031:
      latlng: 31.88849870,131.43287691
      name:
      - 赤江東中学校
    大字田吉1364-1:
      latlng: ''
      name:
      - 田吉センター
    大字田吉278-2:
      latlng: 31.87988791,131.42987749
      name:
      - 南赤江センター
    大字田吉4370-1:
      latlng: ''
      name:
      - 浜畑センター
    大字田吉5730-3:
      latlng: 31.88511241,131.42829134
      name:
      - 赤江センター
    大字糸原538:
      latlng: 31.96210500,131.36742321
      name:
      - 倉岡小学校
    大字芳士1811:
      latlng: 31.96603746,131.44746759
      name:
      - 住吉南小学校
    大字赤江79-1:
      latlng: 31.86923001,131.43463025
      name:
      - 空港南センター
    大字赤江980:
      latlng: ''
      name:
      - 緑松体育館
    大字赤江字飛江田652-2:
      latlng: ''
      name:
      - 航空大学校
    大字跡江3131:
      latlng: 31.93141336,131.38127348
      name:
      - 生目中学校
    大字跡江4461-1:
      latlng: 31.94416719,131.37230625
      name:
      - 宮崎市生目の杜運動公園
    大字郡司分210:
      latlng: 31.84944194,131.43468966
      name:
      - 宮崎県消防学校
    大字郡司分丙9568-1:
      latlng: ''
      name:
      - 西山崎センター
    大字郡司分甲2227-1:
      latlng: ''
      name:
      - 国富小学校
    大島町四反田623-2:
      latlng: ''
      name:
      - 平原公園
    大島町西田2143:
      latlng: ''
      name:
      - 東大宮小学校
    大工1丁目5-43:
      latlng: 31.91739898,131.41431914
      name:
      - 市立小戸小学校
    大工2丁目83:
      latlng: ''
      name:
      - 上水流児童公園
    天満1丁目2-6:
      latlng: 31.90143697,131.41453088
      name:
      - 大淀中学校
    天満町227外:
      latlng: ''
      name:
      - 天神山公園
    天満町9-1:
      latlng: 31.89990931,131.41283105
      name:
      - 宮崎工業高等学校
    太田2丁目125-5外:
      latlng: ''
      name:
      - 大淀東児童公園
    学園木花台南1丁目1:
      latlng: 31.83115181,131.42739140
      name:
      - 木花中学校
    学園木花台南2丁目13:
      latlng: 31.82520788,131.42388361
      name:
      - 学園木花台小
    宮崎駅東1丁目2-7:
      latlng: ''
      name:
      - 市中央公民館
      - 総合体育館
    小松台西1丁目10-9:
      latlng: 31.93316905,131.39403921
      name:
      - 小松台小学校
    平和が丘西町20-6外:
      latlng: ''
      name:
      - 平和が丘公園
    広島1丁目98外:
      latlng: ''
      name:
      - 別府児童公園
    恒久1丁目4-1:
      latlng: 31.89381629,131.42251937
      name:
      - 宮園前児童公園
    恒久3丁目29:
      latlng: 31.89258119,131.43039645
      name:
      - 片平児童公園
    恒久3丁目3:
      latlng: 31.89501145,131.43080189
      name:
      - 城ヶ崎児童公園
    恒久6丁目11-4:
      latlng: 31.89002437,131.43985117
      name:
      - 赤江東地区交流センター
    恒久南1丁目12-1:
      latlng: ''
      name:
      - 上池田児童公園
    恒久南2丁目1-5:
      latlng: ''
      name:
      - 南部記念体育館
    恒久南2丁目6外:
      latlng: ''
      name:
      - 曲田児童公園
    恒久南3丁目13:
      latlng: 31.88948125,131.42711075
      name:
      - 八重川児童公園
    恒久南3丁目4-3:
      latlng: ''
      name:
      - 大藪児童公園
    日の出町1:
      latlng: 31.90621290,131.44949701
      name:
      - 宮崎海洋高等学校
    旭1丁目4-1:
      latlng: 31.90996701,131.42604353
      name:
      - 宮崎小学校
    月見ヶ丘1丁目25-1:
      latlng: 31.88074850,131.42493071
      name:
      - 赤江中学校
    月見ヶ丘2丁目44-5:
      latlng: 31.87910413,131.42423361
      name:
      - 市立赤江公民館
    月見ヶ丘3丁目17-1:
      latlng: 31.87457909,131.41945920
      name:
      - 月見ヶ丘六次センター
    月見ヶ丘4丁目23-13:
      latlng: 31.87719278,131.41910356
      name:
      - 月見ヶ丘センター
    月見ヶ丘5丁目2-1:
      latlng: 31.88452550,131.41942826
      name:
      - 宮崎南高等学校
    村角町島ノ前1346-1:
      latlng: 31.94872674,131.44191425
      name:
      - 東大宮中学校
      - 東大宮地区コミュニティーセンター
    東大宮3丁目1573-9:
      latlng: ''
      name:
      - 花ヶ崎児童公園
    東大宮4丁目2177-101:
      latlng: ''
      name:
      - 雁ヶ音児童公園
    橘通東1丁目外:
      latlng: ''
      name:
      - 橘公園
    橘通西5丁目6-37:
      latlng: 31.92359301,131.42343209
      name:
      - 江平小学校
    永楽町43:
      latlng: ''
      name:
      - 宮崎中学校
    江南3丁目241:
      latlng: ''
      name:
      - 大淀台児童公園
    江南4丁目26-1:
      latlng: 31.90389982,131.39493488
      name:
      - 江南小学校
    江平東2丁目7-9:
      latlng: 31.93069514,131.42865919
      name:
      - 宮崎東中学校
    池内町榎迫508:
      latlng: ''
      name:
      - 池内小学校
    池内町陣ノ平594-5:
      latlng: ''
      name:
      - 平和が丘児童センター
    淀川2丁目3-7:
      latlng: 31.90332567,131.41641402
      name:
      - 大淀小学校
    清武町今泉甲5645:
      latlng: 31.85816112,131.36240802
      name:
      - 宮崎市立大久保小学校
    清武町今泉甲6980:
      latlng: 31.85314560,131.38770108
      name:
      - 宮崎市立清武中学校
    清武町今泉甲7023-1:
      latlng: 31.85453441,131.38810656
      name:
      - 宮崎市立清武小学校
    清武町加納乙1040:
      latlng: ''
      name:
      - 宮崎市立加納中学校
    清武町加納甲1010:
      latlng: 31.86930844,131.39050582
      name:
      - 宮崎市立加納小学校
    清武町木原6652-2:
      latlng: ''
      name:
      - 町民体育館
    清武町船引188-3:
      latlng: 31.85439567,131.39051755
      name:
      - 文化会館
    清武町船引204:
      latlng: 31.85557333,131.38995919
      name:
      - 清武総合支所
    清水1丁目114-1:
      latlng: ''
      name:
      - 二葉児童公園
    源藤町字堤下513-8:
      latlng: ''
      name:
      - 源藤センター
    源藤町池ノ内702:
      latlng: ''
      name:
      - 南小学校
    潮見町118:
      latlng: ''
      name:
      - 潮見小学校
    生目台東3丁目21-1:
      latlng: ''
      name:
      - 生目台3号児童公園
    生目台東4丁目1-1:
      latlng: 31.90410209,131.37990236
      name:
      - 生目台中学校
    生目台東4丁目2-1:
      latlng: 31.90339379,131.37867468
      name:
      - 生目台東小学校
    生目台西2丁目1-1:
      latlng: 31.90463792,131.37227501
      name:
      - 生目台西小学校
    田野町乙3521:
      latlng: 31.83113159,131.27694029
      name:
      - 七野小学校
    田野町乙3553-1:
      latlng: ''
      name:
      - 西地区公民館
    田野町甲2818:
      latlng: 31.83910389,131.30122406
      name:
      - 田野文化会館
    田野町甲2838:
      latlng: 31.83545142,131.30084095
      name:
      - 田野中学校
    田野町甲2856:
      latlng: 31.83734849,131.30138248
      name:
      - 田野小学校
    祇園2丁目135:
      latlng: 31.93252229,131.41082979
      name:
      - 宮崎市中部事務所
    祇園3丁目22外:
      latlng: ''
      name:
      - 中鶴児童公園
    祇園4丁目7:
      latlng: ''
      name:
      - 祇園児童公園
    神宮東1丁目2-27:
      latlng: 31.93214772,131.42626486
      name:
      - 市北部老人福祉センター
      - 市勤労者体育センター
    神宮東1丁目3-10:
      latlng: 31.93287818,131.42528712
      name:
      - 宮崎大宮高等学校
    神宮西2丁目252:
      latlng: ''
      name:
      - 矢の崎児童公園
    船塚1丁目1-2:
      latlng: 31.92627038,131.41929339
      name:
      - 宮崎公立大学体育館
    船塚1丁目81:
      latlng: 31.92759240,131.41731013
      name:
      - 霧島児童公園
    船塚3丁目:
      latlng: 31.93335931,131.41879812
      name:
      - 県総合文化公園
    花山手東3丁目25-2:
      latlng: 31.89933107,131.40050135
      name:
      - 市総合福祉保健センター
    西池町12-49:
      latlng: 31.92321518,131.42009346
      name:
      - 西池小学校
    阿波岐原町前浜4276-729:
      latlng: ''
      name:
      - 県教育研修センター
    阿波岐原町坂元1985:
      latlng: ''
      name:
      - 檍北小学校
    阿波岐原町火切塚1461:
      latlng: ''
      name:
      - 東小学校
    青島4丁目6-25:
      latlng: 31.79498996,131.46921983
      name:
      - 市立青島公民館
    青島4丁目9-17:
      latlng: 31.79378176,131.46858107
      name:
      - 青島児童センター
    青島西2-15-1:
      latlng: ''
      name:
      - 青島浄化センター2階
    青葉町82:
      latlng: ''
      name:
      - 働く婦人の家
    高岡町大字下倉永567:
      latlng: 31.94069499,131.34175927
      name:
      - 老人ホーム長寿園
    高岡町大字内山2007:
      latlng: 31.95792508,131.29063334
      name:
      - 天ヶ城体育館
    高岡町大字内山2877:
      latlng: 31.95771700,131.29868861
      name:
      - 穆園館
    高岡町大字内山2887:
      latlng: 31.95692816,131.29816089
      name:
      - 宮崎市役所高岡総合支所
    高岡町大字内山2888:
      latlng: ''
      name:
      - 農村環境改善センター
    高岡町大字内山2900:
      latlng: 31.95795304,131.29724422
      name:
      - 高岡小学校
    高岡町大字内山3621:
      latlng: 31.91533559,131.23019883
      name:
      - 去川小学校
    高岡町大字小山田3870:
      latlng: 31.93600605,131.32572438
      name:
      - サンスポーツランド高岡
    高岡町大字小山田69-2:
      latlng: 31.93424796,131.32993813
      name:
      - 農業団地センター
    鶴島3丁目132:
      latlng: ''
      name:
      - 末元街区公園
    鶴島3丁目93:
      latlng: 31.91305483,131.40866976
      name:
      - 市立小戸保育所
    鶴島3丁目99外:
      latlng: ''
      name:
      - 下水流児童公園
  小林市:
    北西方4076:
      latlng: 32.02598045,130.97528322
      name:
      - 永久津地区体育館
    北西方4440-8:
      latlng: 32.02305288,130.97155304
      name:
      - 小林市立永久津小学校
    北西方4578:
      latlng: 32.02101959,130.96617294
      name:
      - 小林市立永久津中学校
    北西方6212‐イ-3:
      latlng: ''
      name:
      - 西小林地区体育館
    南西方1037-1:
      latlng: ''
      name:
      - 出の山公園
    南西方2085:
      latlng: 32.00171845,130.95115254
      name:
      - 小林総合運動公園
    南西方6068-1:
      latlng: 32.00830294,130.91273838
      name:
      - 小林市立西小林小学校
    南西方6149:
      latlng: 32.01057768,130.91232168
      name:
      - 小林市立西小林中学校
    南西方7772:
      latlng: 31.98089247,130.91422837
      name:
      - 小林市立幸ヶ丘小学校
    南西方8565-12:
      latlng: 31.98070621,130.90643451
      name:
      - 小林コスモホール
    堤2331-3:
      latlng: 31.97633345,130.99843038
      name:
      - 小林市立三松中学校
    堤3519:
      latlng: 31.97064798,131.00140258
      name:
      - 小林市立三松小学校
    堤3699-32:
      latlng: 31.96457367,131.00917176
      name:
      - 三松地区体育館
    東方3094-2:
      latlng: 32.00896067,131.00977841
      name:
      - 小林市立東方中学校
    東方3216:
      latlng: 32.01240193,131.00698961
      name:
      - 小林市立東方小学校
    東方4738-1:
      latlng: 32.02221200,131.00420897
      name:
      - 東方森林体育館
    水流迫664-2:
      latlng: 31.98869872,130.99169991
      name:
      - 宮崎県立秀峰高等学校
    真方124:
      latlng: 31.99839462,130.97361762
      name:
      - 宮崎県立小林高等学校
    真方4906-1:
      latlng: 32.00267495,130.99071893
      name:
      - 真方地区体育館
    細野1265:
      latlng: 31.99310904,130.96834321
      name:
      - 小林市立南小学校
    細野184-1:
      latlng: 31.99595052,130.97722021
      name:
      - 小林市立小林小学校
    細野2381-14:
      latlng: 31.98453520,130.97870383
      name:
      - 永田平公園
    細野300:
      latlng: 31.99673092,130.97258999
      name:
      - 小林市役所
    細野38-1:
      latlng: 31.99384530,130.98343092
      name:
      - 市民体育館
      - 中央公民館
    細野3921:
      latlng: 31.97883285,130.96477453
      name:
      - 小林市立細野小学校
    細野4374:
      latlng: 31.97618310,130.96470240
      name:
      - 細野地区体育館
      - 小林市立細野中学校
    細野509-4:
      latlng: 32.00186900,130.96635416
      name:
      - 緑ヶ丘公園市営野球球場
      - 緑ヶ丘公園
    細野565-1:
      latlng: 32.00164399,130.96514314
      name:
      - 小林市立小林中学校
    細野979-1:
      latlng: 31.98825955,130.96418259
      name:
      - 南地区体育館
    野尻町三ヶ野山1621-2:
      latlng: ''
      name:
      - 三ヶ野山グラウンド
    野尻町三ヶ野山4087-10:
      latlng: ''
      name:
      - 三ヶ野山地区体育館
    野尻町三ヶ野山4093:
      latlng: 31.97645125,131.06255353
      name:
      - いきいきコミュニティーセンター
    野尻町三ヶ野山4136-1:
      latlng: 31.97694566,131.06309791
      name:
      - 小林市立栗須小学校
    野尻町三ヶ野山4336-19:
      latlng: ''
      name:
      - 農村環境改善センター
    野尻町三ヶ野山4336-20:
      latlng: ''
      name:
      - 大塚原公園
    野尻町東麓1158:
      latlng: 31.96121508,131.09755957
      name:
      - 野尻町保健福祉センター駐車場
      - 野尻町保健福祉センター
    野尻町東麓1183-2:
      latlng: 31.96002362,131.09984551
      name:
      - 小林市役所野尻庁舎
    野尻町東麓25:
      latlng: 31.95821840,131.10433407
      name:
      - 小林市立野尻小学校
    野尻町東麓2570-4:
      latlng: 31.96186719,131.08104450
      name:
      - 小林市立野尻中学校
    野尻町東麓4147-1:
      latlng: ''
      name:
      - 大塚原運動公園グラウンド
    野尻町東麓509-83:
      latlng: ''
      name:
      - あすなろ公園
    野尻町紙屋1754:
      latlng: 31.96424765,131.18320228
      name:
      - 小林市立紙屋中学校
    野尻町紙屋1766-1:
      latlng: 31.96356148,131.18050256
      name:
      - 小林市立紙屋小学校
    野尻町紙屋1992-2:
      latlng: ''
      name:
      - やすらぎ荘
    野尻町紙屋2910-1:
      latlng: ''
      name:
      - 紙屋地区体育館(花立原体育館)
    須木下田1397-2:
      latlng: 32.07132575,131.07268055
      name:
      - 小林市立須木小学校
    須木中原1730:
      latlng: 32.07581700,131.07051113
      name:
      - 小林市立須木中学校
    須木中原1738:
      latlng: 32.07537539,131.07138886
      name:
      - 須木体育館
    須木中原1741-1:
      latlng: 32.07559206,131.07278597
      name:
      - 須木総合ふるさとセンター
    須木中原1757:
      latlng: 32.07753911,131.07254148
      name:
      - 小林市須木庁舎
    須木内山5052:
      latlng: 32.00440555,131.11462843
      name:
      - 小林市立内山小中学校
    須木内山5203-1:
      latlng: 32.00294462,131.11588672
      name:
      - 内山地域福祉センター
    須木鳥田町3181:
      latlng: 32.09398160,131.03431885
      name:
      - 小林市立鳥田町小学校
  川南町:
    大字川南13493番地1:
      latlng: 32.20693232,131.52160110
      name:
      - 川南小学校
    大字川南13680番地1:
      latlng: 32.19200868,131.52581546
      name:
      - 川南町公民館
      - 川南町役場
    大字川南14389番地31:
      latlng: ''
      name:
      - 野田原保育所
    大字川南15113番地2:
      latlng: 32.18252241,131.48353450
      name:
      - 多賀小学校
    大字川南1567番地16:
      latlng: 32.18639964,131.48179018
      name:
      - 十文字保育所
    大字川南1568番地:
      latlng: ''
      name:
      - 十文字農村公園
    大字川南17493番地4:
      latlng: ''
      name:
      - 通浜健康増進センター
    大字川南17661番地1:
      latlng: ''
      name:
      - 伊倉浜自然公園
    大字川南17741番地:
      latlng: 32.23177150,131.50897921
      name:
      - 山本小学校
      - 山本別館
    大字川南18219番地2:
      latlng: 32.21844321,131.52622522
      name:
      - 記念館保育所
    大字川南18794番地3:
      latlng: 32.23255483,131.50995408
      name:
      - 山本保育所
    大字川南19301番地1:
      latlng: 32.20830732,131.52252039
      name:
      - 川南別館
    大字川南19664番地1:
      latlng: 32.21334372,131.53168323
      name:
      - 唐瀬原中学校
    大字川南21870番地:
      latlng: 32.21804137,131.54802324
      name:
      - 東保育所
    大字川南21909番地1:
      latlng: 32.21944408,131.54867591
      name:
      - 東小学校
    大字川南21911番地1:
      latlng: ''
      name:
      - 東別館
    大字川南23512番地:
      latlng: 32.17301848,131.51787043
      name:
      - 番野地保育所
    大字川南23566番地1:
      latlng: 32.17000207,131.51636524
      name:
      - 国光原中学校
    大字川南26907番地10:
      latlng: ''
      name:
      - 山本農村公園
    大字川南27532番地1:
      latlng: ''
      name:
      - 多賀別館
    大字川南9361番地1:
      latlng: ''
      name:
      - 東地区運動公園
    大字平田2334番地1:
      latlng: 32.19253676,131.53293964
      name:
      - 運動公園
    大字平田2395番地2:
      latlng: 32.19063395,131.52920962
      name:
      - 中央保育所
    大字平田5071番地3:
      latlng: 32.16925869,131.54665359
      name:
      - 通浜児童館
    大字平田6383番地:
      latlng: 32.17074417,131.53251618
      name:
      - 通山小学校
      - 通山別館
    大字平田6655番地1:
      latlng: ''
      name:
      - 通山農村公園
  延岡市:
    中川原町2丁目4623:
      latlng: 32.59493284,131.67042475
      name:
      - 延岡市立旭小学校
    伊形町5700:
      latlng: 32.52894367,131.66857234
      name:
      - 延岡市立伊形小学校
    出北5丁目12-1:
      latlng: 32.57347376,131.68435826
      name:
      - 延岡市立東小学校
    北川町川内名10506-2:
      latlng: ''
      name:
      - 祝子川へき地集会所
    北川町川内名435:
      latlng: 32.77946679,131.72420275
      name:
      - 旧松葉小学校体育館
    北川町川内名7150:
      latlng: 32.68757721,131.69157958
      name:
      - 中央公民館
    北川町川内名7250:
      latlng: 32.69013266,131.69459597
      name:
      - 多目的研修集会施設
    北川町川内名7330:
      latlng: 32.69274897,131.69160168
      name:
      - 延岡市北川体育館
    北川町川内名9406:
      latlng: 32.74830840,131.62897875
      name:
      - 旧下赤小学校体育館
    北川町長井4514:
      latlng: 32.68397784,131.69624881
      name:
      - 延岡市立北川小学校
    北川町長井5453:
      latlng: 32.66308910,131.70876539
      name:
      - 北川健康増進センター
    北方町川水流卯95番地1:
      latlng: ''
      name:
      - 北方町勤労者体育センター
    北方町川水流卯965番地:
      latlng: 32.56597259,131.52575923
      name:
      - 延岡市立北方小学校
    北方町川水流卯972番地:
      latlng: 32.56853067,131.52584807
      name:
      - 延岡市立北方中学校
    北方町板下戌465番地:
      latlng: 32.61342834,131.54308147
      name:
      - 延岡市立三椪小学校
    北方町美々地未985番地:
      latlng: 32.63054296,131.45208385
      name:
      - 延岡市立美々地小学校
    北浦町三川内2761:
      latlng: 32.76573214,131.79764958
      name:
      - 延岡市立三川内小学校
    北浦町三川内2787:
      latlng: 32.76448771,131.79432212
      name:
      - 延岡市立三川内中学校
    北浦町三川内5681:
      latlng: 32.76246007,131.79140850
      name:
      - 自然休養村センター清流荘
    北浦町古江1930:
      latlng: 32.70963266,131.82153369
      name:
      - 北浦体育館
      - 北浦総合支所
    北浦町古江1947-1:
      latlng: 32.70903546,131.82100872
      name:
      - 北浦防災センター
    北浦町古江2183:
      latlng: 32.70836612,131.82200310
      name:
      - 北浦老人福祉館
    北浦町古江2220-1:
      latlng: ''
      name:
      - 延岡市立北浦中学校
    北浦町古江2251:
      latlng: ''
      name:
      - 延岡市立北浦小学校
    北浦町古江2433-1:
      latlng: 32.70632733,131.82011434
      name:
      - 延岡市北浦保健福祉センター
    北浦町宮野浦1801:
      latlng: 32.69658997,131.84156845
      name:
      - 北浦小宮野浦
    北浦町市振556-22:
      latlng: ''
      name:
      - 北浦漁業センター
    南一ケ岡2丁目17-1:
      latlng: 32.52207517,131.67696069
      name:
      - 延岡市立一ケ岡小学校
    古城町2-9-9:
      latlng: 32.56857297,131.65895443
      name:
      - 延岡市立西小学校
    古城町3-233:
      latlng: 32.56965340,131.65732671
      name:
      - 宮崎県立延岡高校
    古城町4-149:
      latlng: 32.56547586,131.65658535
      name:
      - 延岡市立恒富中学校
    土々呂町1-276:
      latlng: 32.51778404,131.68149648
      name:
      - 延岡市立土々呂小学校
    土々呂町5-2085:
      latlng: 32.50721797,131.67239752
      name:
      - 宮崎県立延岡ととろ聴覚支援学校
    大貫町1丁目2894:
      latlng: 32.58089430,131.65627894
      name:
      - 延岡市民体育館
    大貫町1丁目3000:
      latlng: 32.57927505,131.65824551
      name:
      - 延岡市立延岡小学校
    大野町744-2:
      latlng: 32.62981172,131.62532145
      name:
      - 延岡市立黒岩小学校
    大野町750-イ:
      latlng: ''
      name:
      - 延岡市立黒岩中学校
    天神小路255-1:
      latlng: 32.58167770,131.65868706
      name:
      - 内藤記念館
    富美山町298-1:
      latlng: 32.59480209,131.66430011
      name:
      - 延岡市立旭中学校
    山下町1-7-9:
      latlng: 32.58888597,131.66901954
      name:
      - 北老人福祉センター
    島浦町14-7:
      latlng: 32.66987467,131.81476204
      name:
      - 延岡市立島野浦小学校
    島浦町322-4:
      latlng: 32.66241434,131.81771176
      name:
      - 延岡市立島野浦中学校
    川島町2770:
      latlng: 32.61894275,131.69182762
      name:
      - 延岡市立川島小学校
    平原町2-2618-2:
      latlng: 32.54920298,131.67179070
      name:
      - 宮崎県立延岡青朋高校
    平原町2-790-3:
      latlng: 32.55263327,131.67307099
      name:
      - 南老人福祉センター
    平原町2-825-1:
      latlng: 32.55415814,131.67315702
      name:
      - 延岡市立南小学校
    愛宕町1丁目1-1:
      latlng: 32.57038724,131.66985366
      name:
      - 延岡市立恒富小学校
    方財町18-2:
      latlng: 32.58752051,131.70694208
      name:
      - 延岡市立方財小学校
    本小路39-1:
      latlng: 32.58219716,131.65976473
      name:
      - 延岡市社会教育センター
    本小路75-2:
      latlng: 32.58281659,131.66033412
      name:
      - 延岡市立岡富中学校
    東本小路121-1:
      latlng: 32.58031691,131.66437012
      name:
      - 中小企業振興センター
    東本小路2-1:
      latlng: 32.58221681,131.66485613
      name:
      - 延岡市役所
    東浜砂町606-4:
      latlng: 32.57951247,131.69280189
      name:
      - 勤労者体育館
    松原町3丁目8933-1:
      latlng: 32.52115606,131.68440447
      name:
      - 延岡市立土々呂中学校
    柚の木田町2332:
      latlng: 32.60223830,131.68621236
      name:
      - 延岡市立東海東小学校
    桜ヶ丘3丁目7122:
      latlng: 32.61583970,131.66881825
      name:
      - 宮崎県立延岡商業高校
    水尻町奥東海182:
      latlng: ''
      name:
      - 延岡市立港小学校
    浜砂1-6-1:
      latlng: 32.57887324,131.68119155
      name:
      - 延岡市立延岡中学校
    浦城町346-イ:
      latlng: ''
      name:
      - 延岡市立浦城小学校
    浦城町36-ロ:
      latlng: ''
      name:
      - 延岡市立浦城中学校
    無鹿町1丁目2218-1:
      latlng: ''
      name:
      - 延岡市立東海中学校
    熊野江町2511-1:
      latlng: 32.67727015,131.78420624
      name:
      - 延岡市立熊野江中学校
    熊野江町2600-2:
      latlng: 32.67805065,131.78506447
      name:
      - 延岡市立熊野江小学校
    牧町4722:
      latlng: 32.59871377,131.69478970
      name:
      - 宮崎県立延岡星雲高等学校
      - 延岡星雲・東高校体育館
    稲葉崎町1丁目1703:
      latlng: 32.60813490,131.67821532
      name:
      - 延岡市立東海小学校
    細見町2971-13:
      latlng: 32.57484483,131.58622637
      name:
      - 延岡市立上南方小学校
    細見町2994:
      latlng: 32.57362826,131.58535157
      name:
      - 延岡市立南方中学校
    緑ヶ丘3丁目5-1:
      latlng: ''
      name:
      - 延岡市立南中学校
    緑ヶ丘4-11-1:
      latlng: 32.55046437,131.68136214
      name:
      - 延岡市立緑ヶ丘小学校
    西階町1-4042-3:
      latlng: 32.57296636,131.64102783
      name:
      - 延岡市立西階中学校
    西階町1-4341-1:
      latlng: 32.57063050,131.64251950
      name:
      - 勤労青少年ホーム
    野田町5910:
      latlng: ''
      name:
      - 延岡市立南方小学校
    長浜町3-1954-3:
      latlng: 32.57849879,131.69684054
      name:
      - 延岡市清掃工場
    高千穂通3830:
      latlng: 32.58758870,131.66551978
      name:
      - 延岡市立岡富小学校
      - 延岡市立岡富小学校体育館
    鯛名町545:
      latlng: 32.50522454,131.69450387
      name:
      - 延岡市立名水小学校
  新富町:
    上富田7485-4:
      latlng: 32.06950364,131.48598019
      name:
      - 新富体育館
    大字上富田7826:
      latlng: ''
      name:
      - 新富町立富田中学校
    大字上富田8016:
      latlng: ''
      name:
      - 新富町立富田小学校
    大字上富田字下屋敷7485-4:
      latlng: ''
      name:
      - 中央公民館
    大字新田16416:
      latlng: 32.10194363,131.44787666
      name:
      - 新富町立上新田小学校
    大字新田5795:
      latlng: 32.07106049,131.44497066
      name:
      - 新富町立新田中学校
    大字新田7287:
      latlng: 32.07000501,131.44359587
      name:
      - 西体育館
    大字新田7717-1:
      latlng: 32.07124934,131.44407352
      name:
      - 新富町立上新田中学校
    大字日置5176:
      latlng: 32.10567196,131.48780162
      name:
      - 富田小学校追分
    大字日置820-6:
      latlng: ''
      name:
      - 湖水ヶ池公園
    大字日置字池田965-5:
      latlng: ''
      name:
      - 富田浜公園
  日之影町:
    七折1764-14:
      latlng: 32.62279611,131.43377962
      name:
      - 日之影町立八戸小学校
    大字七3461折番:
      latlng: ''
      name:
      - 日之影活性化センター
    大字七折11669番:
      latlng: 32.68472446,131.36176126
      name:
      - 高齢者等人材活用センター
    大字七折12125番:
      latlng: 32.67057555,131.36727777
      name:
      - 平底癒しの森運動公園
    大字七折13635番:
      latlng: 32.68576466,131.32745220
      name:
      - 日之影町立高巣野小学校
    大字七折1946番地2:
      latlng: ''
      name:
      - 八戸いこいの広場
    大字七折4892番:
      latlng: 32.70468552,131.46951349
      name:
      - 鹿川交流センター
    大字七折9090番:
      latlng: 32.66127365,131.38236536
      name:
      - 日之影町立宮水小学校
    大字七折9097番:
      latlng: 32.66082649,131.38343472
      name:
      - 日之影町民センター
    大字岩井川1952:
      latlng: 32.66050408,131.37385233
      name:
      - 日之影町立日之影中学校
    大字見立2254番4:
      latlng: 32.77897008,131.44149889
      name:
      - 見立地区高齢者総合在宅支援施設
  日南市:
    上平野町2丁目9-1:
      latlng: ''
      name:
      - 平野街区公園
    中央通1丁目7-2:
      latlng: ''
      name:
      - 中央街区公園
    中平野1丁目9-6:
      latlng: ''
      name:
      - 海田街区公園
    今町2丁目15-1:
      latlng: ''
      name:
      - 今町街区公園
    今町2丁目22-1:
      latlng: ''
      name:
      - 飛ヶ峯街区公園
    北郷町北河内180-1:
      latlng: 31.69621614,131.35215970
      name:
      - 坂元保育所
    北郷町北河内6051:
      latlng: 31.73671395,131.33365743
      name:
      - 黒荷田小学校
    北郷町郷之原乙1477:
      latlng: 31.67692841,131.37521121
      name:
      - ふれあい交流センター
      - 北郷町総合支所
    北郷町郷之原乙1526:
      latlng: ''
      name:
      - 農村センター
    北郷町郷之原乙5079:
      latlng: 31.68758225,131.37467494
      name:
      - 北郷中学校
    北郷町郷之原甲110番地3:
      latlng: ''
      name:
      - 日南市北郷体育館
    北郷町郷之原甲3853-1:
      latlng: ''
      name:
      - 蜂之巣公園
    北郷町郷之原甲50:
      latlng: 31.69212601,131.37377212
      name:
      - 北郷保育所
      - 日南市立北郷小中学校
    南郷町中村乙1638:
      latlng: 31.53653688,131.37227074
      name:
      - 日南市立南郷小学校
    南郷町中村乙6142:
      latlng: 31.53772284,131.36747110
      name:
      - 日南市立南郷中学校
    南郷町中村乙7051-25:
      latlng: 31.52334964,131.37406504
      name:
      - 南郷ハートフルセンター
    南郷町中村乙7619-1:
      latlng: 31.53005204,131.41224388
      name:
      - 大島アドベンチャーキャビン
    南郷町中村甲160:
      latlng: ''
      name:
      - 日南市立榎原小学校
    南郷町南町8-1:
      latlng: 31.53463154,131.37171522
      name:
      - 南郷防災センター
      - 南郷町総合支所
    南郷町榎原甲482:
      latlng: 31.53797296,131.30748701
      name:
      - 日南市立榎原中学校
    南郷町脇本2855:
      latlng: ''
      name:
      - 日南市立潟上小学校
    南郷町西町1-2:
      latlng: 31.54277793,131.37623163
      name:
      - 西町体育館
    吾田東10-1-1:
      latlng: 31.61380309,131.37550768
      name:
      - 日南市立吾田東小学校
    吾田東4-9-1:
      latlng: 31.60733422,131.38058807
      name:
      - 日南市立吾田中学校
    園田2-11-1:
      latlng: 31.59114126,131.40167081
      name:
      - 日南市立油津小学校
    大堂津1-8-1:
      latlng: 31.56080702,131.38005628
      name:
      - 日南市立大堂津小学校
    大字上方1211:
      latlng: 31.56535655,131.35061885
      name:
      - 日南市立細田中学校
    大字吉野方7366:
      latlng: 31.63134715,131.31851403
      name:
      - 日南市立吉野方小学校
    大字大窪3021-3:
      latlng: 31.57819118,131.30349659
      name:
      - 日南市立大窪小学校
    大字宮浦2385:
      latlng: 31.66938175,131.44865858
      name:
      - 日南市立鵜戸小中学校
    大字宮浦4708:
      latlng: 31.64586721,131.45563474
      name:
      - 日南市立鵜戸小学校
    大字富土4028-4:
      latlng: 31.70334467,131.45910231
      name:
      - 日南市立潮小学校
    大字平野4400:
      latlng: 31.58863039,131.39056588
      name:
      - 日南市立桜ヶ丘小学校
    大字戸高1021番地2:
      latlng: ''
      name:
      - 中央児童遊園
    大字戸高1135:
      latlng: 31.60609532,131.37324418
      name:
      - 日南市立吾田小学校
    大字星倉5556-2:
      latlng: ''
      name:
      - 竹香園
    大字星倉5800:
      latlng: 31.62668257,131.36589690
      name:
      - 宮崎県立日南高校
    大字東弁分乙22:
      latlng: 31.62577179,131.38981738
      name:
      - 日南市立東郷中学校
    大字東弁分乙55:
      latlng: 31.62509406,131.39027015
      name:
      - 日南市立東郷小学校
    大字板敷410:
      latlng: 31.63686762,131.35518352
      name:
      - 宮崎県立日南振徳高等学校
    大字殿所2200:
      latlng: 31.61604743,131.38165439
      name:
      - 総合運動公園
    大字萩之嶺1200:
      latlng: 31.56337619,131.33946958
      name:
      - 日南市立細田小学校
    大字酒谷乙10429:
      latlng: 31.62688530,131.28876568
      name:
      - 日南市立酒谷中学校
    大字酒谷乙9086:
      latlng: 31.62284973,131.29183502
      name:
      - 日南市立酒谷小学校
    大字風田4030:
      latlng: 31.61340421,131.42574914
      name:
      - 宮崎県立日南くろしお支援学校
    天福2丁目10:
      latlng: 31.58333346,131.39601587
      name:
      - 天福球場
    星倉4丁目12-3:
      latlng: ''
      name:
      - 宮之前街区公園
    木山2丁目29-5:
      latlng: ''
      name:
      - 木山街区公園
    梅ヶ浜2-2-1:
      latlng: 31.58707488,131.40813180
      name:
      - 日南市立油津中学校
    瀬西1丁目:
      latlng: 31.58441639,131.39945845
      name:
      - 岩崎街区公園
    飫肥10-1-3:
      latlng: 31.62885976,131.35206453
      name:
      - 日南市立飫肥小学校
    飫肥10-2-3:
      latlng: 31.63077630,131.35271165
      name:
      - 日南市立飫肥中学校
    飫肥6丁目:
      latlng: 31.62386189,131.35538390
      name:
      - 前鶴街区公園
  日向市:
    中町1-31:
      latlng: 32.42003304,131.62729515
      name:
      - 日向市中央公民館
      - 日向市文化交流センター
    亀崎東4-10:
      latlng: 32.43724821,131.63634643
      name:
      - 大王谷コミュニティセンター
    大字塩見206-3:
      latlng: 32.41361926,131.60315024
      name:
      - 農村婦人の家
    大字塩見2678:
      latlng: 32.41820206,131.60241955
      name:
      - 日向市立塩見小学校
    大字富高207-3:
      latlng: 32.41784424,131.61979027
      name:
      - 日向市総合福祉センター
    大字富高6520:
      latlng: 32.42880435,131.62288675
      name:
      - 日向市立富高小学校
    大字富高6740:
      latlng: 32.43030700,131.62339497
      name:
      - 上町保育所
    大字富高733:
      latlng: 32.42221592,131.61615979
      name:
      - 日向市立日向中学校
    大字平岩200:
      latlng: 32.37127190,131.63057494
      name:
      - 元日向市立岩脇中学校
    大字平岩33-3:
      latlng: 32.37337736,131.63373568
      name:
      - 日向市立平岩小中学校
    大字平岩4499:
      latlng: 32.36567925,131.59002256
      name:
      - 元日向市立平岩小鵜毛分校
    大字平岩8750:
      latlng: 32.39211947,131.62457460
      name:
      - 宮崎県立日向工業高等学校
    大字幸脇1337:
      latlng: 32.34236527,131.61261332
      name:
      - 日向市立幸脇小学校
    大字日知屋121106:
      latlng: ''
      name:
      - 大王谷運動公園野球場
    大字日知屋1425-1:
      latlng: 32.41934719,131.64088031
      name:
      - 日知屋公民館
      - 日知屋児童センター
    大字日知屋16196-2:
      latlng: 32.42473284,131.64333265
      name:
      - 日向市立日知屋東小学校
    大字日知屋682-148:
      latlng: ''
      name:
      - 日向岬グリーンパーク
    大字日知屋8263:
      latlng: ''
      name:
      - 日向市立富島中学校
    大字日知屋8276:
      latlng: 32.41912497,131.63889435
      name:
      - 日向市立日知屋小学校
    大字細島593:
      latlng: 32.42447774,131.65972320
      name:
      - 日向市立細島小学校
    大字細島733:
      latlng: 32.42694428,131.66138682
      name:
      - 細島保育所
    大字財光寺1942:
      latlng: ''
      name:
      - お倉ヶ浜総合公園
      - サンドーム日向
    大字財光寺2867:
      latlng: 32.39961863,131.62603519
      name:
      - 日向市立財光寺南小学校
    大字財光寺4863-34:
      latlng: 32.40595378,131.61615233
      name:
      - 日向市立財光寺中学校
    大字財光寺6265:
      latlng: 32.41254469,131.61498816
      name:
      - 宮崎県立日向高等学校
    大王町5丁目1:
      latlng: 32.43866469,131.63409376
      name:
      - 日向市立大王谷小学校
    大王町5丁目2-1:
      latlng: 32.43885910,131.63230223
      name:
      - 日向市立大王谷中学校
    日知屋12106:
      latlng: 32.44550845,131.63294354
      name:
      - 大王谷運動公園陸上競技場
    本町10-5:
      latlng: 32.42222166,131.62360366
      name:
      - 日向市体育センター
      - 日向市武道館
      - 日向市役所
    東郷町下三ケ1586-1:
      latlng: ''
      name:
      - 元日向市立越表小学校
    東郷町坪谷1267:
      latlng: 32.36147110,131.46279151
      name:
      - ふるさとの家
    東郷町坪谷253-1:
      latlng: 32.36387036,131.45092328
      name:
      - 日向市立坪谷小学校
    東郷町大字山陰甲347:
      latlng: 32.31612278,131.58311358
      name:
      - 日向市立寺迫小学校
    東郷町山陰丙126:
      latlng: ''
      name:
      - 林業研修館
    東郷町山陰丙1325:
      latlng: 32.39109985,131.52978006
      name:
      - 日向市東郷地区文化センター
    東郷町山陰丙1390:
      latlng: ''
      name:
      - 東郷東公民館
    東郷町山陰丙1413:
      latlng: 32.39363286,131.53187706
      name:
      - やすらぎ館
    東郷町山陰乙1812:
      latlng: ''
      name:
      - 日向市立福瀬小学校
    東郷町山陰戊704:
      latlng: 32.36276542,131.46358584
      name:
      - 日向市立坪谷中学校
    東郷町山陰甲347:
      latlng: 32.31612278,131.58311358
      name:
      - 日向市立寺迫小学校
    東郷町山陰甲363-1:
      latlng: ''
      name:
      - 寺迫国民体育館
    東郷町山陰辛31-1:
      latlng: ''
      name:
      - 日向市立東郷中学校
    東郷町山陰辛961:
      latlng: 32.39326308,131.51486707
      name:
      - 日向市立東郷小学校
    比良町3丁目22:
      latlng: 32.41243099,131.62264033
      name:
      - 日向市立財光寺小学校
    江良町4-56:
      latlng: 32.42086374,131.64274677
      name:
      - 日知屋保育所
    美々津町2755:
      latlng: 32.32783047,131.60455050
      name:
      - 日向市立美々津中学校
    美々津町3432-1:
      latlng: 32.33734076,131.61111638
      name:
      - 美々津公民館
    美々津町3506:
      latlng: 32.33676021,131.60903322
      name:
      - 日向市立美々津小学校
    美々津町5744-2:
      latlng: 32.33864491,131.55471778
      name:
      - 日向市立美々津小田の原分校
    鶴町3丁目43番地:
      latlng: ''
      name:
      - 宮崎県立富島高等学校
  木城町:
    大字中之又328-7:
      latlng: 32.30470516,131.35632996
      name:
      - 木城町立中之又小学校
    大字中之又359:
      latlng: ''
      name:
      - 中之又多目的研修施設
    大字椎木2140-1:
      latlng: ''
      name:
      - 木城町福祉保健センター
    大字椎木2146-1:
      latlng: 32.16289673,131.46762246
      name:
      - 木城町総合交流センター
    大字椎木2147-1:
      latlng: 32.16248011,131.46745859
      name:
      - 木城町体育館
    大字椎木2148-1:
      latlng: 32.16286338,131.46677532
      name:
      - 木城町トレーニングセンター
    大字椎木2190:
      latlng: 32.16237724,131.46212020
      name:
      - 木城町立木城小学校
    大字椎木2210-1:
      latlng: 32.16038312,131.46718644
      name:
      - 木城町立木城中学校
    大字石河内533-2:
      latlng: 32.22149826,131.41811701
      name:
      - 木城町立石河内小学校
    大字高城1227-1:
      latlng: 32.16397171,131.47350246
      name:
      - 木城町役場
  椎葉村:
    大字下福良1183:
      latlng: 32.53753164,131.17254047
      name:
      - 椎葉村立仲塔小学校(休)
    大字下福良1259:
      latlng: ''
      name:
      - 椎葉村立財木分校
    大字下福良1647:
      latlng: 32.50644533,131.18430682
      name:
      - 椎葉村立鹿野遊小学校
    大字下福良1747-13:
      latlng: 32.46851142,131.15983684
      name:
      - 椎葉村立椎葉小学校
    大字下福良1761-1:
      latlng: 32.46777255,131.15892577
      name:
      - 開発センター
    大字下福良54-2:
      latlng: 32.45449018,131.14789304
      name:
      - 椎葉村総合運動公園
    大字不土野1396:
      latlng: ''
      name:
      - 椎葉村立不土野小学校
    大字不土野383:
      latlng: ''
      name:
      - 椎葉村立尾向小学校
    大字不土野627-23:
      latlng: ''
      name:
      - 向山山村広場集会所
    大字大河内1665:
      latlng: ''
      name:
      - 椎葉村立小崎小学校
    大字大河内字栂尾:
      latlng: 32.40344604,131.24720001
      name:
      - 栂尾の館
    大字松尾409-57:
      latlng: ''
      name:
      - 椎葉村立松尾小学校
  綾町:
    大字北俣445-2:
      latlng: 32.00090461,131.25672775
      name:
      - 綾てるはドーム
      - 綾てるは広場
    大字北俣497-1:
      latlng: 32.00153227,131.25447239
      name:
      - 綾町立綾中学校
    大字南俣2811:
      latlng: 32.00092391,131.25188382
      name:
      - 綾町立綾小学校
    大字南俣2866:
      latlng: ''
      name:
      - 錦原運動公園野球場
    大字南俣2921:
      latlng: ''
      name:
      - 綾国際交流広場
    大字南俣543:
      latlng: ''
      name:
      - 綾町武道館
    大字南俣545:
      latlng: ''
      name:
      - 綾町体育館
    大字南俣546:
      latlng: 31.99580494,131.25570598
      name:
      - 綾町公民館
      - 綾町高年者センター
    大字南俣553-2:
      latlng: 31.99515499,131.25572824
      name:
      - 綾町健康センター
  美郷町:
    北郷区宇納間401:
      latlng: 32.56602464,131.39226342
      name:
      - 北郷林業総合センター
      - 北郷総交流センター
    北郷区宇納間439:
      latlng: ''
      name:
      - 北郷総合保健センター
    北郷区宇納間4526:
      latlng: 32.50016050,131.45605110
      name:
      - 美郷町立北郷小学校
    北郷区宇納間798:
      latlng: 32.49911890,131.45461512
      name:
      - 美郷町立北郷中学校
    北郷区黒木537:
      latlng: 32.52516782,131.51505237
      name:
      - 美郷町立黒木小学校
    南郷区上渡川3057:
      latlng: 32.34816784,131.27874557
      name:
      - 旧美郷町立渡川小学校
    南郷区水清谷180:
      latlng: 32.39649504,131.36724310
      name:
      - 旧美郷町立水清谷小学校
    南郷区神門1:
      latlng: 32.38583409,131.33312223
      name:
      - 旧美郷町立神門小学校
    南郷区神門235:
      latlng: ''
      name:
      - 美郷町南郷総合運動公園
    南郷区神門2568ー16:
      latlng: ''
      name:
      - 恋人の丘
    南郷区神門287:
      latlng: 32.38626185,131.33423599
      name:
      - 美郷町役場南郷支所
    南郷区神門777:
      latlng: ''
      name:
      - 美郷町立美郷南学園
    南郷区鬼神野2207:
      latlng: ''
      name:
      - 旧美郷町立鬼神野小学校
    西郷区田代1:
      latlng: 32.44023032,131.42318989
      name:
      - 美郷町役場本所・西郷支所
    西郷区田代12915-3:
      latlng: ''
      name:
      - 坂本地区体育館
    西郷区田代1454-1:
      latlng: 32.43585310,131.42490936
      name:
      - 葉桜ふれあい公園
    西郷区田代1561-1:
      latlng: 32.43003732,131.42991197
      name:
      - 宮崎県林業技術センター
    西郷区田代1838-26:
      latlng: ''
      name:
      - 伝統芸能伝承館
    西郷区田代1870:
      latlng: 32.43739174,131.42250951
      name:
      - 美郷町西郷総合グラウンド
      - 美郷町西郷ニューホープセンター
      - 美郷町西郷農村環境改善センター
      - 美郷町西郷老人福祉館
    西郷区田代474-1:
      latlng: 32.43851120,131.42751457
      name:
      - 美郷町立西郷中学校
    西郷区田代620-2:
      latlng: 32.44160243,131.42502855
      name:
      - 美郷町立田代小学校
    西郷区田代9121:
      latlng: 32.46338075,131.43620132
      name:
      - 和田地区体育館
  西米良村:
    大字村所15:
      latlng: 32.22620970,131.15442598
      name:
      - 西米良村基幹集落センター
      - 西米良村役場
    大字村所2:
      latlng: 32.22991478,131.15158448
      name:
      - 菊池記念館
    大字村所2-265:
      latlng: ''
      name:
      - 村所小学校
    大字村所270-1:
      latlng: ''
      name:
      - 西米良中学校
  西都市:
    大字三宅177-ロ:
      latlng: ''
      name:
      - 西都市立妻南小学校
    大字三宅3013-1:
      latlng: 32.09870997,131.39641711
      name:
      - 学習等供用施設三宅館
    大字三納10027-イ:
      latlng: ''
      name:
      - 吉田自治公民館
    大字三納2072-1:
      latlng: 32.11283589,131.36082439
      name:
      - 学習等供用施設永野館
    大字三納3231-5:
      latlng: 32.11277182,131.34955295
      name:
      - 西都市立三納小学校
    大字三納3252:
      latlng: ''
      name:
      - 西都市立三納中学校
    大字三納3312-1:
      latlng: ''
      name:
      - 三納地区館
    大字上三財453-2:
      latlng: ''
      name:
      - 岩井谷集落研修センター
    大字上三財5446-1:
      latlng: 32.07587225,131.31706491
      name:
      - 上三財保育所
    大字上三財5460-2:
      latlng: 32.07658052,131.31706212
      name:
      - 上三財地区健康増進施設
    大字上揚2-2:
      latlng: 32.27236927,131.24758143
      name:
      - 西都市立銀上小学校
    大字下三財3414-2:
      latlng: 32.06018519,131.35912108
      name:
      - 三財地区館
    大字下三財8242:
      latlng: 32.07241463,131.33898001
      name:
      - 西都市立三財中学校
    大字下三財8385:
      latlng: 32.07105923,131.34271593
      name:
      - 西都市立三財小学校
    大字南方2276:
      latlng: 32.13556743,131.39297426
      name:
      - 西都市立穂北中学校
    大字南方2291:
      latlng: 32.13427866,131.39336873
      name:
      - 西都市立穂北小学校
    大字南方2580-2:
      latlng: 32.13210385,131.39410765
      name:
      - 穂北地区館
    大字南方362:
      latlng: 32.14461346,131.37358376
      name:
      - 杉安保育所
    大字右松2330:
      latlng: 32.10871732,131.39611675
      name:
      - 宮崎県立妻高等学校
    大字右松2534-1:
      latlng: ''
      name:
      - 勤労青少年ホーム
      - 西都市公民館
    大字右松2534.:
      latlng: 32.10704256,131.40164423
      name:
      - 西都市立妻中学校
    大字右松2747:
      latlng: ''
      name:
      - 西都市立妻北小学校
    大字妻1509:
      latlng: 32.10640372,131.40043877
      name:
      - 西都市民体育館
    大字尾八重:
      latlng: 32.24513849,131.32189458
      name:
      - 岩井谷自治公民館
    大字尾八重857-2:
      latlng: ''
      name:
      - 尾八重小学校跡
    大字山田1311-2:
      latlng: 32.04735555,131.35165532
      name:
      - 山田自治公民館
    大字山田3237:
      latlng: 32.04281143,131.35146386
      name:
      - 山田保育所
    大字山田3252:
      latlng: 32.04331417,131.35132496
      name:
      - 都於郡小山田分校
    大字岩爪2422:
      latlng: 32.05387192,131.38318418
      name:
      - 西都市立都於郡中学校
    大字平郡3677:
      latlng: ''
      name:
      - 平野自治公民館
    大字平郡543-1:
      latlng: 32.08873017,131.37570216
      name:
      - 学習等供用施設宮の下館
    大字清水141-1:
      latlng: 32.09397148,131.38765953
      name:
      - 学習等供用施設清水館
    大字穂北4495:
      latlng: 32.14214197,131.39740981
      name:
      - 囲自治公民館
    大字穂北5253:
      latlng: 32.13705684,131.43978690
      name:
      - 西都市立茶臼原小学校
    大字穂北827-1:
      latlng: 32.14386101,131.38703833
      name:
      - 学習等供用施設串木館
    大字茶臼原706:
      latlng: 32.13992872,131.42389395
      name:
      - 茶臼原地区体育館
    大字茶臼原736-1:
      latlng: ''
      name:
      - 中茶自治公民館
    大字荒武3877-1:
      latlng: ''
      name:
      - 都於郡地区南体育館
    大字調殿880:
      latlng: 32.11603906,131.40974338
      name:
      - 宮崎県立西都商高等学校
    大字銀鏡466:
      latlng: 32.26141201,131.25258693
      name:
      - 西都市立銀鏡中学校
    大字銀鏡702:
      latlng: 32.26546720,131.25202575
      name:
      - 銀鏡地区自治公民館
    大字鹿野田1452-1:
      latlng: ''
      name:
      - 学習等供用施設馬継谷館
    大字鹿野田1570:
      latlng: 32.07546746,131.38851041
      name:
      - 都於郡地区体育館
    大字鹿野田5068-1:
      latlng: 32.05567452,131.38245637
      name:
      - 都於郡地区館
    大字鹿野田6111:
      latlng: 32.05747434,131.38037583
      name:
      - 西都市立都於郡小学校
    大字黒生野261-1:
      latlng: 32.07204590,131.41010909
      name:
      - 学習等供用施設黒生野館
    大字黒生野329:
      latlng: 32.07145420,131.40574555
      name:
      - 黒生野保育所
    小野崎2丁目49:
      latlng: 32.10340131,131.40593296
      name:
      - 西都市民会館
    聖陵町2丁目6:
      latlng: ''
      name:
      - コミュニティセンター
    西都市役所庁舎南隣り:
      latlng: ''
      name:
      - 西都市役所南庁舎
  諸塚村:
    七ツ山2549:
      latlng: 32.56712144,131.28111842
      name:
      - 諸塚村立七ツ山小学校僻地集会室
    七ツ山4459-2:
      latlng: ''
      name:
      - 宮の元体育館
    七ツ山6988:
      latlng: 32.58779806,131.32338588
      name:
      - 立岩地区社会教育施設小学校
    家代2683:
      latlng: 32.51239190,131.33041548
      name:
      - 諸塚村役場
    家代3066:
      latlng: 32.51716105,131.33608415
      name:
      - 諸塚村中央公民館
      - 諸塚村老人福祉館
    家代3094:
      latlng: 32.51894694,131.33356765
      name:
      - 諸塚村民体育館
    家代3292:
      latlng: 32.52146633,131.34032246
      name:
      - 諸塚村立諸塚中学校体育館
    家代6159:
      latlng: 32.50228506,131.37312054
      name:
      - 諸塚村立荒谷小学校体育館
  都城市:
    上東町11街区20号:
      latlng: ''
      name:
      - 都城市立東小学校
    上東町31-25:
      latlng: 31.72319593,131.08198906
      name:
      - 宮崎県立都城商業高校
    上水流町117番地:
      latlng: ''
      name:
      - 志和池市民広場
    上水流町1666番地:
      latlng: 31.81057517,131.09810170
      name:
      - 都城市立志和池小学校
    上水流町4323番地:
      latlng: 31.80811963,131.09427436
      name:
      - 志和池地区体育館
    上水流町4323番地1:
      latlng: 31.80985006,131.09446871
      name:
      - 都城市立志和池中学校
    上長飯町53号1番:
      latlng: 31.71500256,131.09150820
      name:
      - 都城市立上長飯小学校
    下川東2丁目3295:
      latlng: ''
      name:
      - 都城市立川東小学校
    下川東3丁目3235:
      latlng: 31.74464050,131.06613697
      name:
      - 都城市水道局
    下長飯町1989番地:
      latlng: 31.71201883,131.06771819
      name:
      - 勤労青少年体育センター
      - 姫城公園運動広場
    久保原町2街区6号:
      latlng: ''
      name:
      - 都城市立五十市中学校
      - 五十市地区体育館
    久保原町34街区27号:
      latlng: ''
      name:
      - 都城市立明和小学校
    乙房町1707番地:
      latlng: 31.76684941,131.05904898
      name:
      - 都城市立乙房小学校
    五十町2242番地:
      latlng: 31.71331501,131.03776855
      name:
      - 都城市立五十市小学校
    五十町2400:
      latlng: 31.71582572,131.03564381
      name:
      - 宮崎県立都城工業高校
    今町8923番地:
      latlng: 31.69255905,131.03633309
      name:
      - 都城市立今町小学校
    八幡町12街区4号:
      latlng: ''
      name:
      - 都城市立明道小学校
    千町4962番地:
      latlng: 31.73774457,131.08381347
      name:
      - 都城市立祝吉中学校
    南横市町3800番地:
      latlng: 31.74154775,131.03437655
      name:
      - 都城市立西小学校
    南横市町3925番地3:
      latlng: 31.74225045,131.03373494
      name:
      - 横市地区体育館
    吉之元町4518番地:
      latlng: 31.82633693,130.91519266
      name:
      - 都城市立吉之元小学校
    夏尾町6644番地:
      latlng: 31.84442126,130.97570122
      name:
      - 都城市立夏尾小学校
    夏尾町6673番地4:
      latlng: ''
      name:
      - 都城市立夏尾中学校
    大王町19街区1号:
      latlng: ''
      name:
      - 都城市立小松原中学校
    大王町20街区1号:
      latlng: ''
      name:
      - 都城市立大王小学校
    太郎坊町1979:
      latlng: 31.77560546,131.09359524
      name:
      - 都城市立沖水小学校
    妻ヶ丘町13街区3号:
      latlng: ''
      name:
      - 都城市立妻ヶ丘中学校
    妻ヶ丘町27-15:
      latlng: 31.72955621,131.07626425
      name:
      - 宮崎県立都城泉ヶ丘高校
    妻ヶ丘町42街区:
      latlng: ''
      name:
      - 都城市運動公園体育館
      - 都城市運動公園庭球場
      - 都城市運動公園武道館
      - 都城市運動公園野球場
      - 都城市運動公園陸上競技場
    姫城町25街区17号:
      latlng: ''
      name:
      - 都城市立南小学校
    姫城町25街区71号:
      latlng: ''
      name:
      - 都城市立姫城中学校
    安久町2648番地2:
      latlng: 31.69457949,131.09355593
      name:
      - 都城市立安久小学校
    山之口町富吉1659-1:
      latlng: ''
      name:
      - 都城市立富吉小学校
    山之口町山之口3842:
      latlng: 31.79977759,131.16118965
      name:
      - 都城市立麓小学校
    山之口町花木1536:
      latlng: 31.77706841,131.15290752
      name:
      - 都城市立山之口中学校
    山之口町花木1934-1:
      latlng: 31.77983207,131.15320188
      name:
      - 山之口地区公民館
    山之口町花木2580:
      latlng: 31.78181533,131.15648489
      name:
      - 都城市立山之口小学校
    山田町中霧島3470-1:
      latlng: ''
      name:
      - 都城市立中霧島小学校
    山田町山田2189-1:
      latlng: 31.80812293,131.03509861
      name:
      - 都城市立山田中学校
    山田町山田3931:
      latlng: 31.81564463,131.03772020
      name:
      - 都城市立山田小学校
    山田町山田9350:
      latlng: 31.83009666,131.05894574
      name:
      - 都城市立木之川内小学校
    庄内町12680番地:
      latlng: 31.77366662,131.01837468
      name:
      - 都城市立庄内小学校
    庄内町12688番地:
      latlng: 31.77332502,131.01930520
      name:
      - 庄内地区体育館
    庄内町8618番地:
      latlng: 31.76975597,131.02234680
      name:
      - 庄内地区市民広場
    庄内町8976番地:
      latlng: 31.77555841,131.02556857
      name:
      - 都城市立庄内中学校
    御池町5844番地291:
      latlng: 31.86467082,130.94660500
      name:
      - 都城市立御池小学校
    早水町3867番地:
      latlng: 31.73929196,131.09327394
      name:
      - 早水体育文化センター
    梅北町2912番地1:
      latlng: ''
      name:
      - 都城市立中郷中学校
    梅北町2994番地3:
      latlng: 31.68377447,131.07344981
      name:
      - 中郷地区体育館
    梅北町4687番地:
      latlng: 31.67546106,131.05910984
      name:
      - 都城市立梅北小学校
    祝吉1丁目5-1:
      latlng: 31.74045533,131.08104698
      name:
      - 宮崎県立都城農業高校
    祝吉3丁目14-1:
      latlng: ''
      name:
      - 都城市立祝吉小学校
    美川町2927番地:
      latlng: 31.80734558,130.95908712
      name:
      - 都城市立西岳中学校
    美川町2928番地:
      latlng: 31.80788160,130.95785382
      name:
      - 都城市立西岳小学校
    菓子野町9555番地:
      latlng: 31.77854768,131.04289127
      name:
      - 都城市立菓子野小学校
    蓑原町1624番地:
      latlng: ''
      name:
      - 横市市民広場
    蓑原町3037番地:
      latlng: ''
      name:
      - 鷹尾地区市民広場
    都北町5615番地:
      latlng: 31.76398690,131.09160130
      name:
      - 都城市立沖水中学校
    都原町3405:
      latlng: 31.73264063,131.04358387
      name:
      - 宮崎県立都城西高校
    都原町7707番地:
      latlng: 31.73674820,131.03538488
      name:
      - 都城市立西中学校
    野々美谷町2941番地:
      latlng: 31.79333373,131.07333761
      name:
      - 都城市立丸野小学校
    高城町穂満坊2492:
      latlng: 31.81303110,131.13143599
      name:
      - 高城総合体育館
    高城町穂満坊303-2:
      latlng: 31.80032961,131.12963387
      name:
      - 高城老人福祉館
    高崎町前田758:
      latlng: 31.90790692,131.04097199
      name:
      - 都城市立麓小学校
    高崎町大牟田1150-1:
      latlng: 31.87163431,131.06871844
      name:
      - 高崎総合支所
    高崎町大牟田1155-1:
      latlng: ''
      name:
      - 高崎町総合運動公園駐車場
    高崎町大牟田1179-1:
      latlng: 31.87313407,131.06621303
      name:
      - 都城市立高崎小学校
    高崎町大牟田1319:
      latlng: 31.88036947,131.06791548
      name:
      - 高崎町総合運動公園陸上競技場
    高崎町大牟田1332-9:
      latlng: ''
      name:
      - 高崎町総合運動公園多目的広場
    高崎町大牟田1904-1:
      latlng: 31.87069574,131.07628458
      name:
      - 都城市立高崎中学校
    高崎町江平2338-1:
      latlng: 31.88802216,131.09554343
      name:
      - 都城市立江平小学校
    高崎町笛水948-1:
      latlng: 31.93135500,131.11740632
      name:
      - 都城市立笛水中学校
      - 都城市立笛水小学校
    高崎町縄瀬1411:
      latlng: 31.84919026,131.10381692
      name:
      - 都城市立縄瀬小学校
    高野町2916番地:
      latlng: ''
      name:
      - 西岳地区市民広場
      - 西岳地区体育館
    高野町3101-3:
      latlng: ''
      name:
      - 西岳地区公民館
  都農町:
    大字川北1100:
      latlng: ''
      name:
      - 都農町立都農南小学校
    大字川北11925:
      latlng: ''
      name:
      - 藤見運動公園
    大字川北14120:
      latlng: 32.26400244,131.56523841
      name:
      - 都農町立都農中学校
    大字川北14162:
      latlng: 32.26409683,131.56284145
      name:
      - 都農町立都農小学校
    大字川北18655:
      latlng: 32.29198062,131.57467069
      name:
      - 都農町立都農東小学校
    大字川北20500:
      latlng: 32.28962990,131.55021148
      name:
      - 都農町立都農東小内野々分校
    大字川北4661:
      latlng: 32.25192351,131.55988126
      name:
      - 宮崎県立都農高等学校
    大字川北4733-2:
      latlng: ''
      name:
      - 新町街区公園
    大字川北4874-2:
      latlng: 32.25643394,131.55968935
      name:
      - 塩月記念館
      - 都農町公民館
      - 都農町役場
    大字川北4890:
      latlng: 32.25530635,131.56053377
      name:
      - 中央街区公園
    大字川北4910-3:
      latlng: ''
      name:
      - 都農町民体育館
    大字川北4918-1:
      latlng: 32.25628397,131.55999211
      name:
      - 中町街区公園
  門川町:
    加草4-98:
      latlng: 32.48715543,131.66547872
      name:
      - 門川町立草川小学校体育館
    南町6-1:
      latlng: 32.46375977,131.64994144
      name:
      - クリエイティブセンター体育室
    大字川内2671-3:
      latlng: 32.48951551,131.57227858
      name:
      - 西門川地区活性化センター
    川内4404:
      latlng: 32.49148493,131.57734480
      name:
      - 門川町立西門川中学校体育館
    平城西14-2:
      latlng: 32.47657485,131.64327218
      name:
      - 平城保育所
    庵川1942:
      latlng: 32.48573940,131.67567245
      name:
      - 心の杜温泉センター
    庵川西6-60:
      latlng: 32.48267293,131.67381429
      name:
      - 総合福祉センター
    東栄町1-1-2:
      latlng: 32.47450868,131.65063832
      name:
      - 中央保育所
    西栄町2-3-1:
      latlng: 32.47898314,131.64929109
      name:
      - 門川町立門川中学校体育館
    門川尾末1502-2:
      latlng: 32.47216175,131.65163552
      name:
      - 門川町立門川小学校体育館
    門川尾末1616-1:
      latlng: ''
      name:
      - 中央公民館体育館
    門川尾末2680:
      latlng: 32.47030326,131.64160025
      name:
      - 宮崎県立門川高等学校
    門川尾末6270:
      latlng: 32.47233333,131.63213709
      name:
      - 門川町立五十鈴小学校体育館
    門川尾末8600-64:
      latlng: 32.47326452,131.65403531
      name:
      - 門川保育所
  高千穂町:
    大字三田井122:
      latlng: 32.71163697,131.31067202
      name:
      - 高千穂町立高千穂小学校
    大字三田井1498:
      latlng: 32.71480044,131.30279206
      name:
      - 高千穂町自然休養村管理センター
      - 武道館
    大字三田井723-1:
      latlng: 32.70899004,131.31323299
      name:
      - 高千穂町中央体育館
    大字上岩戸532:
      latlng: 32.76185231,131.38525620
      name:
      - 高千穂町立上岩戸小学校
    大字上野228-4:
      latlng: ''
      name:
      - 高千穂町立上野小中学校
    大字上野4961:
      latlng: ''
      name:
      - 高千穂町立上野体育館
    大字上野4963:
      latlng: 32.75591822,131.29870061
      name:
      - 高千穂町立上野公民館(出張所)
    大字五ヶ所697-2:
      latlng: ''
      name:
      - 高千穂町立五ヶ所小学校
    大字向山1232:
      latlng: 32.69567444,131.31308889
      name:
      - 高千穂町立向山北小学校
    大字向山4815:
      latlng: 32.66809277,131.30957093
      name:
      - 高千穂町立向山中学校・向山南小学校
    大字岩戸1065-1:
      latlng: 32.73419711,131.34895191
      name:
      - 高千穂町天岩戸出張所
    大字岩戸1082:
      latlng: 32.73506659,131.35098505
      name:
      - 高千穂町立岩戸小学校
    大字岩戸4518-2:
      latlng: 32.73814143,131.35239877
      name:
      - 高千穂町立岩戸中学校
    大字押方1291-1:
      latlng: ''
      name:
      - 高千穂町立押方体育館
    大字押方561-1:
      latlng: 32.71023077,131.27743881
      name:
      - 高千穂町立押方小学校
    大字河内36:
      latlng: 32.77643448,131.25476174
      name:
      - 高千穂町立田原小学校
    大字田原1413:
      latlng: ''
      name:
      - 高千穂町田原出張所
    大字田原1576:
      latlng: 32.77117112,131.25599790
      name:
      - 高千穂町立田原中学校
  高原町:
    大字広原4981-2:
      latlng: 31.93521773,130.99305417
      name:
      - 宮崎県立高原高等学校
    大字西麓391-2:
      latlng: 31.92798790,131.00543973
      name:
      - 町民体育館
    大字西麓392:
      latlng: 31.92822122,131.00580360
      name:
      - 中央公民館
    大字西麓709-9:
      latlng: ''
      name:
      - 高原町総合運動公園
    大字西麓899:
      latlng: 31.92841291,131.00787294
      name:
      - 高原町役場
    広原1472:
      latlng: 31.96103494,130.98800936
      name:
      - 高原町立広原小学校
    後川内2651:
      latlng: 31.92474265,131.07102436
      name:
      - 高原町立後川内中学校
    後川内2666:
      latlng: 31.92460093,131.06972450
      name:
      - 高原町立後川内小学校
    蒲牟田5543-1:
      latlng: 31.90423960,130.98014446
      name:
      - 高原町立狭野小学校
    西麓340:
      latlng: 31.92786848,131.00648690
      name:
      - 高原町立高原小学校
    西麓709-144:
      latlng: 31.93382913,131.00426190
      name:
      - 高原町立高原中学校
  高鍋町:
    大字上江1951:
      latlng: 32.13863050,131.50307022
      name:
      - 高鍋町立高鍋西小学校(体育館)
    大字上江4526:
      latlng: 32.15475655,131.50064497
      name:
      - 東児湯消防組合
    大字上江7790:
      latlng: 32.12776757,131.49971805
      name:
      - 高鍋町スポーツセンター
    大字上江8113:
      latlng: 32.13135901,131.50525079
      name:
      - 高鍋町中央公民館
    大字上江8339:
      latlng: 32.13066184,131.50484251
      name:
      - 高鍋町立体育館
    大字上江8437:
      latlng: 32.12798985,131.50333994
      name:
      - 高鍋町役場
      - 高鍋町防災センター
    大字北高鍋300:
      latlng: 32.12587623,131.50641471
      name:
      - 高鍋町総合福祉センター
    大字北高鍋3321:
      latlng: 32.12661249,131.51782484
      name:
      - 高鍋町立高鍋東中学校(体育館)
    大字北高鍋3660-1:
      latlng: 32.13469216,131.51573876
      name:
      - 高鍋町勤労者体育センター
    大字北高鍋4543:
      latlng: ''
      name:
      - 高鍋東小学校(体育館)
    大字北高鍋5139:
      latlng: 32.13033967,131.50593687
      name:
      - 健康づくりセンター
    大字持田1524-1:
      latlng: 32.14157191,131.50607269
      name:
      - 高鍋町立高鍋西中学校(体育館)
    大字持田3177:
      latlng: 32.13820028,131.52938764
      name:
      - 持田地区高齢者福祉センター
    大字蚊口浦字蚊口33-3:
      latlng: ''
      name:
      - 蚊口学習等供用施設
