大阪:
  交野市:
    倉治1丁目15番1号:
      latlng: 34.79404595,135.69364314
      name:
      - 交野市立倉治小学校
    向井田2丁目5番1号:
      latlng: 34.78500794,135.68785206
      name:
      - 交野市立総合体育施設
    天野が原町5丁目65番1号:
      latlng: 34.77610868,135.67889203
      name:
      - 交野市立第4中学校
    妙見坂7丁目20番1号:
      latlng: 34.76169077,135.67681475
      name:
      - 交野市立妙見坂小学校
    幾野4丁目1番1号:
      latlng: ''
      name:
      - 交野市立第2中学校
    星田3丁目:
      latlng: 34.76552349,135.66859380
      name:
      - 星田公園
    星田3丁目33番4号:
      latlng: ''
      name:
      - 交野市立星田小学校
    星田4丁目18番1号:
      latlng: 34.76480685,135.66477416
      name:
      - 交野市立旭 小学校
    星田8丁目67番1号:
      latlng: 34.76104069,135.66914326
      name:
      - 交野市立第3中学校
    星田北1~2丁目、藤が尾1~2丁目:
      latlng: 34.77612742,135.67389810
      name:
      - 天野川緑地
    星田北2丁目45番1号:
      latlng: 34.77283941,135.67325657
      name:
      - 交野市立藤が尾小学校
    星田西3丁目28番1号:
      latlng: 34.75292204,135.66093306
      name:
      - 交野市星田西体育施設
    森北1丁目25番1号:
      latlng: 34.77836141,135.68609681
      name:
      - 交野市立岩船小学校
    神宮寺2丁目:
      latlng: 34.79130194,135.70156463
      name:
      - 倉治公園
    私市9丁目5番10号:
      latlng: 34.76485459,135.68842747
      name:
      - 交野市立私市小学校
    私部1丁目54番1号:
      latlng: 34.78748818,135.68644661
      name:
      - 交野市立交野小学校
    私部2丁目29番1号:
      latlng: 34.78507712,135.67810861
      name:
      - 交野武道館
    私部南3丁目:
      latlng: 34.78156105,135.68551070
      name:
      - 私部公園
    私部南3丁目1番1号:
      latlng: 34.78276086,135.68393304
      name:
      - 交野市立第1中学校
    郡津1丁目43番1号:
      latlng: 34.79120140,135.67590325
      name:
      - 交野市立長宝寺小学校
    郡津4丁目13番1号:
      latlng: 34.79259287,135.67400344
      name:
      - 交野市立郡津小学校
  八尾市:
    上之島町北3-22-1:
      latlng: 34.63919291,135.62329995
      name:
      - 八尾市立上之島小学校
    上之島町南6-5-1:
      latlng: ''
      name:
      - 八尾市立上之島中学校
    上尾町3-22-2:
      latlng: ''
      name:
      - 上尾公園
    中田4-118:
      latlng: ''
      name:
      - 中田第1公園
    中田5-84:
      latlng: ''
      name:
      - 中田第2公園
    久宝園3-128:
      latlng: ''
      name:
      - 久宝園公園
    久宝寺2-2-33:
      latlng: 34.62869053,135.59030855
      name:
      - 八尾市立久宝寺小学校
    久宝寺2-4-33:
      latlng: 34.63011259,135.59009188
      name:
      - 八尾市立久宝寺中学校
    久宝寺4-86:
      latlng: ''
      name:
      - 久宝寺第2公園
    亀井町1-4-1:
      latlng: 34.61666658,135.57929315
      name:
      - 八尾市立亀井小学校
    亀井町3-27:
      latlng: ''
      name:
      - 亀井公園
    光南町2-54:
      latlng: ''
      name:
      - 光南公園
    光町2-5:
      latlng: ''
      name:
      - 光町公園
    八尾木4-11:
      latlng: 34.61165404,135.61469295
      name:
      - 曙川コミュニティセンター
    八尾木北4-68:
      latlng: ''
      name:
      - 八尾木北第1公園
    八尾木北6-96:
      latlng: ''
      name:
      - 八尾木北第2公園
    八尾木東2-28:
      latlng: ''
      name:
      - 八尾市立曙川小学校
    刑部3-29-1:
      latlng: ''
      name:
      - 八尾市立刑部小学校
    北久宝寺2-1-1:
      latlng: 34.63052636,135.58716712
      name:
      - 久宝寺コミュニティセンター
    北本町2-216:
      latlng: ''
      name:
      - 北本町第1公園
    千塚2-96:
      latlng: 34.63286334,135.63897366
      name:
      - 大阪府立八尾支援学校東校
    千塚3-180-2:
      latlng: 34.63154129,135.64131791
      name:
      - 高安コミュニティセンター
    南亀井町4-1-48:
      latlng: 34.61360025,135.57919325
      name:
      - 八尾市立亀井中学校
    南太子堂3-1-70:
      latlng: 34.61127571,135.58853970
      name:
      - 八尾市立龍華中学校
    南太子堂3-78-1:
      latlng: ''
      name:
      - 南太子堂公園
    南小阪合町1-61:
      latlng: ''
      name:
      - 南小阪合公園
    南木の本2-13-35:
      latlng: ''
      name:
      - 南木の本公園
    南本町4-19:
      latlng: 34.62174721,135.60599070
      name:
      - 南本町第2公園
    南本町8-66-1:
      latlng: ''
      name:
      - 南本町第1公園
    南植松町5-285:
      latlng: ''
      name:
      - 南植松公園
    垣内5-126:
      latlng: ''
      name:
      - 垣内公園
    大字八尾木167:
      latlng: 34.61029039,135.61937868
      name:
      - 八尾市立曙川南中学校
    天王寺屋4-257:
      latlng: ''
      name:
      - 天王寺屋公園
    太子堂4-18:
      latlng: 34.61536407,135.58520930
      name:
      - 太子堂公園
    太田3-172:
      latlng: 34.59272491,135.58804307
      name:
      - 大正コミュニティセンター
    太田3-183:
      latlng: 34.59179168,135.58793477
      name:
      - 八尾市立大正小学校
    太田6-119:
      latlng: ''
      name:
      - 太田第1公園
    太田7-55-4:
      latlng: ''
      name:
      - 太田第3公園
    安中町8-15-12:
      latlng: 34.61463962,135.60488541
      name:
      - 安中老人福祉センター
    安中町8-5-30:
      latlng: 34.61538398,135.60469652
      name:
      - 安中人権ふれあいセンター
    安中町9-102:
      latlng: ''
      name:
      - 安中第2公園
    小阪合町3-93-2:
      latlng: ''
      name:
      - 小阪合公園
    山城町3-1-46:
      latlng: 34.63517340,135.60096862
      name:
      - 八尾市立用和小学校
    山本町1-8-11:
      latlng: 34.62803298,135.62101147
      name:
      - 山本コミュニティセンター
    山本町北1-1-44:
      latlng: ''
      name:
      - 大阪府立山本高等学校
    山本町北2-6-39:
      latlng: 34.63631534,135.61833933
      name:
      - 八尾市立山本小学校
    山本町北4-24-1:
      latlng: ''
      name:
      - 山本町北第1公園
    山本町北7-2:
      latlng: 34.64546703,135.61579770
      name:
      - 山本町北第2公園
    山本町南3-26:
      latlng: 34.62611097,135.62106984
      name:
      - 山本町南公園
    山本町南7-1-9:
      latlng: ''
      name:
      - 八尾市立南山本小学校
    山本町南8-18-1:
      latlng: 34.62023098,135.61817022
      name:
      - 八尾市立曙川中学校
    山本町南8-228:
      latlng: ''
      name:
      - 山本町南第2公園
    幸町1-1-3:
      latlng: ''
      name:
      - 幸第2公園
    幸町6-2-1:
      latlng: ''
      name:
      - 幸第1公園
    弓削町3-42:
      latlng: ''
      name:
      - 弓削公園
    志紀町西1-8-2:
      latlng: ''
      name:
      - 志紀コミュニティセンター
    志紀町西2-2:
      latlng: 34.60040784,135.60661619
      name:
      - 八尾市立志紀中学校
    志紀町西3-16:
      latlng: ''
      name:
      - 志紀町西公園
    恩智中町4-232:
      latlng: 34.60978507,135.63275244
      name:
      - 南高安コミュニティセンター
    恩智中町5-139:
      latlng: ''
      name:
      - 恩智城跡公園
    恩智北町3-13:
      latlng: 34.61307085,135.63227741
      name:
      - 八尾市立南高安中学校
    恩智北町4-650:
      latlng: 34.61042946,135.63328293
      name:
      - 八尾市立南高安小学校
    教興寺1-204:
      latlng: ''
      name:
      - 教興寺第2公園
    教興寺5-180:
      latlng: ''
      name:
      - 教興寺第1公園
    新家町2-74:
      latlng: ''
      name:
      - 新家公園
    明美町1-2:
      latlng: 34.62203876,135.60237156
      name:
      - 明美第2公園
    明美町2-44-8:
      latlng: ''
      name:
      - 明美公園
    春日町4-4:
      latlng: 34.61764728,135.59054489
      name:
      - 春日公園
    曙川東8-136:
      latlng: 34.60094696,135.62120375
      name:
      - 八尾市立曙川東小学校
    服部川6-200:
      latlng: 34.62878046,135.63979864
      name:
      - 八尾市立中高安小学校
    木の本1-64:
      latlng: 34.60408493,135.59353947
      name:
      - 木の本公園
    本町1-1-65:
      latlng: ''
      name:
      - 八尾市立八尾小学校
    本町2-4-10:
      latlng: 34.62583271,135.59905787
      name:
      - 社会福祉会館
    本町3-206-2:
      latlng: ''
      name:
      - 本町第2公園
    東太子1-6-12:
      latlng: 34.61580856,135.58929227
      name:
      - 八尾市立龍華小学校
    東山本新町8-21:
      latlng: 34.62396137,135.63046625
      name:
      - 東山本新町第2公園
    東山本町4-70-2:
      latlng: ''
      name:
      - 東山本公園
    東山本町9-3-33:
      latlng: 34.63201880,135.62835241
      name:
      - 八尾市立東山本小学校
    東町3-8:
      latlng: 34.63092729,135.63016893
      name:
      - 八尾市立東中学校
    栄町2-163:
      latlng: ''
      name:
      - 安中第1公園
    桂町2-37:
      latlng: 34.64682779,135.60649291
      name:
      - 桂人権ふれあいセンター
    桂町3-11:
      latlng: 34.64584188,135.61038982
      name:
      - 桂老人福祉センター
    桂町3-49:
      latlng: ''
      name:
      - 桂公園
    桂町4-47:
      latlng: ''
      name:
      - 八尾市立桂中学校
    桂町4-57:
      latlng: ''
      name:
      - 八尾市立桂小学校
    桜ヶ丘1-33:
      latlng: ''
      name:
      - 桜ヶ丘公園
    植松町5-8-32:
      latlng: 34.61475320,135.59239760
      name:
      - 龍華コミュニティセンター
    水越2-117:
      latlng: 34.63419928,135.63746267
      name:
      - 八尾市立高安中学校
    水越2-98:
      latlng: 34.63408542,135.63831537
      name:
      - 八尾市立北高安小学校
    水越8-67、68:
      latlng: ''
      name:
      - 水越公園
    永畑町1-2-27:
      latlng: 34.61263691,135.59856379
      name:
      - 八尾市立永畑小学校
    沼3-119:
      latlng: ''
      name:
      - 沼公園
    清水町2-2-5:
      latlng: 34.62313585,135.60194102
      name:
      - 八尾市立成法中学校
    渋川町4-73-2:
      latlng: ''
      name:
      - 渋川公園
    田井中3-101:
      latlng: 34.60226040,135.60567733
      name:
      - 八尾市立志紀小学校
    田井中4-229:
      latlng: ''
      name:
      - 田井中公園
    神宮寺3丁目107番地:
      latlng: 34.60076926,135.62802811
      name:
      - 大阪府立八尾翠翔高等学校
    福万寺町:
      latlng: 34.64491356,135.62138246
      name:
      - 恩智川治水緑地(福万寺町市民運動広場)
    福万寺町2-1:
      latlng: 34.64431172,135.62093895
      name:
      - 八尾市立北山本小学校
    竹渕4-152:
      latlng: 34.62010200,135.56339175
      name:
      - 竹渕第1公園
    竹渕東1-212:
      latlng: 34.61787185,135.57175771
      name:
      - 竹渕コミュニティセンター
    竹渕東4-1:
      latlng: 34.61684694,135.57050230
      name:
      - 八尾市立竹渕小学校
    緑ヶ丘1-17:
      latlng: 34.63657342,135.60803466
      name:
      - 八尾市立八尾中学校
    緑ヶ丘1-2:
      latlng: 34.63730944,135.60781244
      name:
      - 緑ヶ丘コミュニティセンター
    美園町2-51-1:
      latlng: 34.63863955,135.59487741
      name:
      - 八尾市立美園小学校
    美園町2-98-1:
      latlng: ''
      name:
      - 美園公園
    老原2-63:
      latlng: ''
      name:
      - 老原第2公園
    老原7-43:
      latlng: ''
      name:
      - 老原第1公園
    若林町3-126-2:
      latlng: ''
      name:
      - 若林第1公園
    若林町3-28:
      latlng: 34.59285256,135.58284353
      name:
      - 若林第2公園
    萱振町2-38-1:
      latlng: ''
      name:
      - 萱振公園
    萱振町7-42:
      latlng: 34.64265876,135.60414875
      name:
      - 大阪府立八尾北高等学校
    西久宝寺323:
      latlng: 34.63004289,135.57824570
      name:
      - 久宝寺緑地
    西山本町3-5-25:
      latlng: 34.63242123,135.61369814
      name:
      - 八尾市立西山本小学校
    西山本町5-67-3:
      latlng: ''
      name:
      - 西山本公園
    西弓削1:
      latlng: 34.59590669,135.60824173
      name:
      - 西弓削公園
    西木の本2-141:
      latlng: 34.60017402,135.58382656
      name:
      - 八尾市立大正北小学校
    西木の本3-83:
      latlng: 34.60120721,135.58244610
      name:
      - 八尾市立大正中学校
    跡部本町3-99:
      latlng: ''
      name:
      - 跡部本町公園
    長池町2:
      latlng: 34.63861405,135.61115737
      name:
      - 長池公園
    長池町2-52-2:
      latlng: ''
      name:
      - 八尾市立長池小学校
    陽光園2-7-33:
      latlng: 34.61863629,135.59986908
      name:
      - 八尾市立安中小学校
    青山町4-211:
      latlng: ''
      name:
      - 青山第2公園
    青山町5-214:
      latlng: ''
      name:
      - 青山第1公園
    高安町北4-15:
      latlng: 34.62210045,135.63011076
      name:
      - 八尾市立高安西小学校
    高安町南3-70:
      latlng: ''
      name:
      - 高安町南公園
    高町1-74:
      latlng: ''
      name:
      - 大阪府立八尾高等学校
    高美町2-1-22:
      latlng: 34.62260274,135.60874045
      name:
      - 八尾市立高美中学校
    高美町3-1-26:
      latlng: 34.62090015,135.60899880
      name:
      - 八尾市立高美小学校
    高美町6-151:
      latlng: ''
      name:
      - 八尾市立高美南小学校
  千早赤阪村:
    中津原479-4:
      latlng: 34.43563714,135.62446416
      name:
      - 中津原老人憩の家
    二河原辺128:
      latlng: 34.45687385,135.62960558
      name:
      - 二河原辺集会所
    千早140:
      latlng: ''
      name:
      - 多聞尚学館
    千早230-1:
      latlng: 34.41763620,135.64492305
      name:
      - 千早老人憩の家
    吉年56-1:
      latlng: 34.44775250,135.61506254
      name:
      - 吉年老人憩の家
    小吹68-780:
      latlng: 34.43947541,135.60765748
      name:
      - 千早赤阪村立千早小吹台小学校
    小吹68-830:
      latlng: 34.44038087,135.60729642
      name:
      - 小吹台老人憩の家
    小吹844:
      latlng: 34.43875066,135.61771490
      name:
      - 小吹老人憩の家
    川野辺302-2:
      latlng: ''
      name:
      - 川野辺老人憩の家
    東阪199-1:
      latlng: 34.44524184,135.62363132
      name:
      - 下東阪老人憩の家
    東阪255-1:
      latlng: 34.44994673,135.61674573
      name:
      - 千早赤阪村B&G海洋センター
    東阪388:
      latlng: 34.44207546,135.62336733
      name:
      - 旧千早赤阪村立千早小学校
    東阪567-2:
      latlng: 34.43637609,135.63430214
      name:
      - 上東阪老人憩の家
    桐山499:
      latlng: 34.45807643,135.62398108
      name:
      - 桐山老人憩の家
    森屋370-甲:
      latlng: ''
      name:
      - 森屋公民館
    森屋416-2:
      latlng: 34.46723089,135.62491134
      name:
      - 森屋南老人憩の家
    森屋962:
      latlng: 34.47069706,135.61990060
      name:
      - 旧千早赤阪村自然休養村管理センター
    水分103-1:
      latlng: 34.46385358,135.62935547
      name:
      - 水分老人憩いの家
    水分263:
      latlng: 34.46376744,135.62589467
      name:
      - くすのきホール
    水分517:
      latlng: 34.46325368,135.63138864
      name:
      - 北水分老人憩の家
    水分56:
      latlng: 34.46668373,135.62428363
      name:
      - 千早赤阪村立赤阪小学校
    水分963:
      latlng: ''
      name:
      - 千早赤阪村立保健センター
  吹田市:
    中の島町3番51号:
      latlng: 34.75185011,135.52320655
      name:
      - 吹田市立第三中学校
    中の島町6番:
      latlng: 34.75140287,135.52040684
      name:
      - 中の島公園
    五月が丘南5番1号:
      latlng: 34.78421288,135.52605035
      name:
      - 吹田市立佐井寺中学校
    五月が丘西4番1号:
      latlng: 34.78633202,135.52265064
      name:
      - 吹田市立東佐井寺小学校
      - 吹田市立東佐井寺幼稚園
    五月が丘西5番1号:
      latlng: 34.78604595,135.52291728
      name:
      - 東佐井寺地区公民館
    佐井寺3丁目3番1号:
      latlng: 34.78617919,135.51782607
      name:
      - 吹田市立佐井寺小学校
    佐井寺南が丘14番:
      latlng: 34.77926611,135.51862885
      name:
      - 佐井寺南が丘公園
    佐井寺南が丘1番1号:
      latlng: 34.78185470,135.51854550
      name:
      - 佐井寺地区公民館
    佐竹台2丁目5番1号:
      latlng: 34.79127024,135.51475962
      name:
      - 佐竹台市民ホール
    佐竹台3丁目4番:
      latlng: 34.78965652,135.51415691
      name:
      - 佐竹公園
    佐竹台4丁目10番:
      latlng: 34.78701242,135.51703169
      name:
      - ねむのき公園
    佐竹台4丁目12番1号:
      latlng: 34.78749844,135.51513463
      name:
      - 吹田市立佐竹台小学校
    佐竹台5丁目12番1号:
      latlng: 34.78946773,135.51982864
      name:
      - 吹田市立佐竹台幼稚園
    元町30番35号:
      latlng: 34.75970745,135.52315087
      name:
      - 吹田市立吹田第一小学校
    元町30番44号:
      latlng: 34.76014628,135.52287589
      name:
      - 吹田市立吹田第一幼稚園
    内本町2丁目2番12号:
      latlng: 34.75840490,135.52576174
      name:
      - 内本町コミュニティセンター
    内本町3丁目19番21号:
      latlng: 34.75506917,135.52430083
      name:
      - 吹一地区公民館
    出口町19番2号:
      latlng: 34.76432616,135.51477940
      name:
      - 吹田市立保健センター
    出口町31番2号:
      latlng: 34.76519551,135.51512102
      name:
      - 吹田市立片山市民体育館
      - 片山公園
    千里万博公園1番1号:
      latlng: 34.80457729,135.53194681
      name:
      - 万博記念公園
    千里万博公園4番3号:
      latlng: 34.80851035,135.54007932
      name:
      - 資源リサイクルセンター(くるくるプラザ)
    千里丘上14番37号:
      latlng: 34.79523427,135.55120362
      name:
      - 千里丘市民センター
    千里丘下19番1号:
      latlng: 34.79373996,135.55007597
      name:
      - 吹田市立山田第二小学校
    千里丘下23番19号:
      latlng: 34.79499804,135.54862336
      name:
      - 山二地区公民館
    千里丘西9番1号:
      latlng: 34.79408971,135.54334605
      name:
      - 吹田市立南山田小学校
      - 吹田市立南山田幼稚園
    千里山東2丁目19番23号:
      latlng: ''
      name:
      - 千二地区公民館
    千里山松が丘25番1号:
      latlng: 34.77970202,135.50916583
      name:
      - 吹田市立千里第二小学校
      - 吹田市立千里第二幼稚園
    千里山松が丘26番23号:
      latlng: 34.77971035,135.50881308
      name:
      - シルバー・ワーク・プラザ
    千里山西1丁目12番1号:
      latlng: 34.77211394,135.50432192
      name:
      - 千三地区公民館
    千里山西2丁目13番1号:
      latlng: 34.77298044,135.49967787
      name:
      - 吹田市立千里第三小学校
    千里山西2丁目2番1号:
      latlng: 34.77273328,135.50207767
      name:
      - 吹田市立第一中学校
    千里山西6丁目30番41号:
      latlng: 34.78424866,135.50431617
      name:
      - 千里新田地区公民館
    南吹田5丁目12番1号:
      latlng: 34.75248566,135.50371119
      name:
      - 吹田市立吹田南小学校
    南吹田5丁目12番2号:
      latlng: 34.75212183,135.50434447
      name:
      - 吹田市立吹田南幼稚園
    南吹田5丁目8番24号:
      latlng: 34.74995544,135.50526664
      name:
      - 南吹田地区公民館
    南清和園町40番1号:
      latlng: 34.75329973,135.51554895
      name:
      - 吹六地区公民館
    南清和園町43番1号:
      latlng: 34.75285808,135.51438518
      name:
      - 吹田市立吹田第六小学校
    南金田1丁目12番:
      latlng: 34.75399112,135.50743860
      name:
      - 南吹田公園
    原町2丁目14番27号:
      latlng: 34.77382798,135.52471722
      name:
      - 千一地区集会所
    原町4丁目24番14号:
      latlng: 34.77778869,135.52830851
      name:
      - 大阪府立吹田高等学校体育館
    古江台1丁目1番1号:
      latlng: 34.80827106,135.50612111
      name:
      - 吹田市立古江台中学校
    古江台2丁目10番21号:
      latlng: 34.81657573,135.50885124
      name:
      - 古江台市民ホール
    古江台2丁目11番4号:
      latlng: 34.81624798,135.50732913
      name:
      - 吹田市立古江台幼稚園
    古江台3丁目8番1号:
      latlng: 34.81954762,135.50840952
      name:
      - 吹田市立北千里小学校跡地
    古江台4丁目2番D7号:
      latlng: 34.81901158,135.51018441
      name:
      - 北千里地区公民館
    古江台5丁目4番:
      latlng: 34.81359555,135.51350094
      name:
      - 古江公園
    古江台5丁目6番1号:
      latlng: 34.81568416,135.50940678
      name:
      - 吹田市立古江台小学校
    吹東町3番6号:
      latlng: 34.76641247,135.53582451
      name:
      - 吹田東地区公民館
    垂水町1丁目53番7号:
      latlng: 34.76497303,135.49950858
      name:
      - 豊一市民センター
    垂水町3丁目15番35号:
      latlng: 34.76193459,135.50499146
      name:
      - 豊一地区公民館
    垂水町3丁目32番50号:
      latlng: 34.75841832,135.50443046
      name:
      - 吹田市立豊津中学校
    寿町2丁目19番20号:
      latlng: 34.75323040,135.51999018
      name:
      - 勤労青少年ホーム
    山手町1丁目8番15号:
      latlng: 34.76643696,135.51183243
      name:
      - 山手地区公民館
    山手町2丁目15番43号:
      latlng: 34.76714520,135.51126303
      name:
      - 吹田市立山手小学校
    山田北1丁目1番:
      latlng: 34.80801291,135.52082825
      name:
      - 北山田地区集会所
    山田北1番1号:
      latlng: 34.80801291,135.52082825
      name:
      - 吹田市立北山田小学校
    山田北2丁目1番:
      latlng: 34.80895169,135.52040604
      name:
      - 吹田市立武道館(洗心館)
    山田南45番13号:
      latlng: 34.78804036,135.53604111
      name:
      - 山五地区公民館
    山田市場15番1号:
      latlng: 34.79237320,135.53869920
      name:
      - 吹田市立山田中学校
    山田市場18番6号:
      latlng: 34.79312868,135.53982411
      name:
      - 南山田地区公民館
    山田東1丁目28番9号:
      latlng: 34.79736143,135.53294963
      name:
      - 山田ふれあい文化センター
    山田東2丁目33番1号:
      latlng: 34.79928062,135.52887495
      name:
      - 山一地区公民館
    山田東2丁目33番2号:
      latlng: 34.80002776,135.52856941
      name:
      - 吹田市立山田第一小学校
    山田東2丁目33番3号:
      latlng: 34.80021940,135.52815278
      name:
      - 吹田市立山田第一幼稚園
    山田東3丁目28番1号:
      latlng: 34.80181645,135.52871103
      name:
      - 大阪府立山田高等学校体育館
    山田東4丁目33番1号:
      latlng: 34.80303298,135.52826383
      name:
      - 吹田市立山田東中学校
    山田東4丁目43番20号:
      latlng: 34.80500216,135.52411137
      name:
      - 北山田地区公民館
    山田西1丁目26番20号:
      latlng: 34.78987892,135.52899449
      name:
      - 亥の子谷コミュニティセンター
    山田西1丁目26番2号:
      latlng: 34.79103712,135.52916391
      name:
      - 山三地区公民館
    山田西1丁目4番1号:
      latlng: 34.79314801,135.53131927
      name:
      - 吹田市立山田第三小学校
      - 吹田市立山田第三幼稚園
    山田西1丁目6番1号:
      latlng: 34.79175099,135.53439956
      name:
      - 吹田市立山田第五小学校
    山田西2丁目10番1号:
      latlng: 34.79521992,135.52549753
      name:
      - 吹田市立西山田小学校
      - 西山田地区集会所
    山田西2丁目11番1号:
      latlng: 34.79635866,135.52352824
      name:
      - 吹田市立西山田中学校
    山田西2丁目17番1号:
      latlng: 34.79936946,135.52480308
      name:
      - 吹田市立山田スポーツグラウンド
    山田西2丁目5番1号:
      latlng: 34.79482556,135.52878059
      name:
      - 西山田地区公民館
    岸部中1丁目16番1号:
      latlng: 34.77483079,135.53213872
      name:
      - 青少年クリエイティブセンター
    岸部中1丁目22番2号:
      latlng: 34.77453640,135.53304141
      name:
      - 交流活動館
    岸部中2丁目19番1号:
      latlng: 34.77743612,135.53594945
      name:
      - 吹田市立岸部第一小学校
      - 吹田市立岸部第一幼稚園
    岸部中3丁目20番1号:
      latlng: 34.77935810,135.53572169
      name:
      - 岸一地区公民館
    岸部北1丁目21番1号:
      latlng: 34.78026614,135.52663921
      name:
      - 吹田市立第二中学校
    岸部北4丁目12番1号:
      latlng: 34.78244647,135.52898898
      name:
      - 吹田市立岸部第二小学校
      - 岸二地区集会所
    岸部北4丁目15番20号:
      latlng: 34.78216319,135.52996111
      name:
      - 岸二地区公民館
    岸部北4丁目および五月が丘東地内:
      latlng: 34.78350547,135.52939506
      name:
      - 紫金山公園
    岸部南1丁目4番8:
      latlng: 34.77581993,135.54488469
      name:
      - 岸部市民センター
    幸町20番1号:
      latlng: 34.76705128,135.53616613
      name:
      - 吹田市立吹田東小学校
    幸町20番2号:
      latlng: 34.76869551,135.53543286
      name:
      - 吹田東地区集会所
    幸町21番1号:
      latlng: 34.76870108,135.53603558
      name:
      - 吹田市立第五中学校
    新芦屋上32番1号:
      latlng: 34.80350559,135.54994521
      name:
      - 東山田地区公民館
    春日4丁目10番1号:
      latlng: 34.78471801,135.50046927
      name:
      - 吹田市立千里新田小学校
      - 吹田市立千里新田幼稚園
    昭和町12番1号:
      latlng: 34.76244054,135.52722542
      name:
      - 勤労者会館
    朝日が丘町15番1号:
      latlng: 34.76897846,135.51916226
      name:
      - 片山地区公民館
    朝日が丘町16番1号:
      latlng: 34.77036717,135.51875672
      name:
      - 吹田市立片山小学校
      - 吹田市立片山幼稚園
    桃山台1丁目5番1号:
      latlng: 34.79186725,135.50338001
      name:
      - 吹田市立桃山台小学校
    桃山台2丁目10番:
      latlng: 34.78945644,135.50613816
      name:
      - 桃山公園
    桃山台2丁目5番5号:
      latlng: 34.79317819,135.50141071
      name:
      - 桃山台市民ホール
    桃山台4丁目2番1号:
      latlng: 34.78772322,135.49961095
      name:
      - 吹田市立南千里中学校
    桃山台5丁目5番1号:
      latlng: 34.79009791,135.49580011
      name:
      - 吹田市立桃山台スポーツグラウンド
    江坂町1丁目15番42号:
      latlng: 34.76156232,135.49976694
      name:
      - 吹田市立豊津第一小学校
      - 吹田市立豊津第一幼稚園
    江坂町1丁目19番:
      latlng: 34.75913482,135.49966422
      name:
      - 江坂公園
    江坂町2丁目5番1号:
      latlng: 34.76254823,135.49495903
      name:
      - 吹田市立豊津第二小学校
    江坂町3丁目13番1号:
      latlng: 34.76593119,135.49558669
      name:
      - 吹田市立江坂大池小学校
      - 吹田市立江坂大池幼稚園
    江坂町3丁目63番6号:
      latlng: 34.76769482,135.49214251
      name:
      - 江坂大池地区公民館
    泉町2丁目11番45号:
      latlng: 34.76190979,135.51523494
      name:
      - 吹二地区公民館
    泉町2丁目29番1号:
      latlng: 34.75978783,135.51520998
      name:
      - 文化会館(メイシアター)
    泉町3丁目15番18号:
      latlng: 34.75856843,135.51077710
      name:
      - 吹田市立吹田第二小学校
      - 吹二地区集会所
    津雲台1丁目1番D2:
      latlng: 34.79322551,135.51002389
      name:
      - 南千里地区公民館
      - 千里市民センター
    津雲台1丁目3番:
      latlng: 34.79591687,135.50912115
      name:
      - 千里南公園
    津雲台3丁目13番:
      latlng: 34.80137184,135.51049039
      name:
      - 津雲公園
    津雲台4丁目1番20号:
      latlng: 34.80063301,135.50813504
      name:
      - 津雲台市民ホール
    津雲台4丁目7番1号:
      latlng: 34.80289111,135.50967377
      name:
      - 吹田市立津雲台小学校
    片山町4丁目32番13号:
      latlng: ''
      name:
      - 吹田市立千里第一小学校
    目俵町1番11号:
      latlng: 34.76626794,135.53147217
      name:
      - 吹田市立目俵市民体育館
    穂波町16番1号:
      latlng: 34.75608259,135.51006332
      name:
      - 吹田市立第六中学校
    竹見台1丁目3番1号:
      latlng: 34.79636398,135.50352436
      name:
      - 吹田市立竹見台中学校
    竹見台3丁目3番1号:
      latlng: 34.79575291,135.50172730
      name:
      - 吹田市立千里たけみ小学校
    竹見台3丁目5番3号:
      latlng: 34.79511686,135.50065240
      name:
      - 竹見台市民ホール
    竹見台4丁目3番:
      latlng: 34.79616954,135.50187450
      name:
      - 竹見公園
    竹谷町35番1号:
      latlng: 34.77880231,135.52107863
      name:
      - 吹田市立片山中学校
    竹谷町37番1号:
      latlng: 34.77906897,135.52230907
      name:
      - 吹田市立総合運動場
    藤が丘町4番4号:
      latlng: 34.76880077,135.52285635
      name:
      - 千一地区公民館
    藤白台2丁目9番1号-114:
      latlng: ''
      name:
      - 藤白台市民ホール
    藤白台3丁目3番1号:
      latlng: 34.81913385,135.51518957
      name:
      - 吹田市立藤白台小学校
    藤白台3丁目4番:
      latlng: 34.81524542,135.51750891
      name:
      - 藤白公園
    藤白台5丁目1番:
      latlng: 34.82467754,135.51001210
      name:
      - 千里北公園
    藤白台5丁目20番1号:
      latlng: 34.82742164,135.50990929
      name:
      - 自然体験交流センター
    藤白台5丁目5番1号:
      latlng: 34.82749940,135.50745113
      name:
      - 吹田市立北千里市民体育館
    藤白台5丁目6番1号:
      latlng: 34.82852427,135.50611232
      name:
      - 大阪府立北千里高等学校体育館
    豊津町47番1号:
      latlng: 34.75862637,135.48966790
      name:
      - 豊二地区公民館
    豊津町6番1号:
      latlng: 34.76055400,135.49409247
      name:
      - 吹田市立豊津西中学校
    青山台2丁目1番20号:
      latlng: 34.82183899,135.50542080
      name:
      - 青山台市民ホール
    青山台2丁目5番1号:
      latlng: 34.82229726,135.50383479
      name:
      - 吹田市立青山台小学校
    青山台4丁目2番1号:
      latlng: 34.82223617,135.50809283
      name:
      - 吹田市立青山台中学校
    青山台4丁目4番:
      latlng: 34.82369153,135.50484859
      name:
      - 青山公園
    青葉丘南15番10号:
      latlng: 34.80540258,135.54914246
      name:
      - 吹田市立東山田小学校
      - 吹田市立東山田幼稚園
    青葉丘南15番1号:
      latlng: 34.80323608,135.54793987
      name:
      - 吹田市立千里丘中学校
    青葉丘南16番1号:
      latlng: 34.80374432,135.54711494
      name:
      - 大阪府立吹田東高等学校体育館
    高城町18番39号:
      latlng: 34.76264615,135.53078616
      name:
      - 吹田市立吹田第三小学校
      - 吹田市立吹田第三幼稚園
    高城町19番7号:
      latlng: 34.76177404,135.53105559
      name:
      - 吹三地区公民館
    高野台1丁目4番:
      latlng: 34.79395049,135.51497068
      name:
      - 高野公園
    高野台1丁目6番1号:
      latlng: 34.79523926,135.51663441
      name:
      - 高野台市民ホール
    高野台2丁目16番1号:
      latlng: 34.79590583,135.51513175
      name:
      - 吹田市立高野台小学校
    高野台2丁目17番1号:
      latlng: 34.79915269,135.51447619
      name:
      - 大阪府立千里高等学校体育館
    高野台4丁目5番1号:
      latlng: 34.79198687,135.51884536
      name:
      - 吹田市立高野台中学校
  和泉市:
    いぶき野三丁目3番1号:
      latlng: 34.46685661,135.45280485
      name:
      - 和泉市立いぶき野小学校
    いぶき野三丁目4番1号:
      latlng: 34.46613728,135.45545739
      name:
      - 和泉市立北池田中学校
    はつが野一丁目50番1号:
      latlng: 34.44294564,135.46317090
      name:
      - 和泉市立青葉はつが野小学校
    万町930番地:
      latlng: 34.45751888,135.45773508
      name:
      - 和泉市立石尾中学校
    久井町430番地:
      latlng: 34.42025931,135.45847720
      name:
      - 和泉市立南松尾小学校
    仏並町198番地:
      latlng: 34.42643112,135.48787159
      name:
      - 和泉市立槙尾中学校
    伯太町一丁目2番1号:
      latlng: 34.49246981,135.42934273
      name:
      - 和泉市立和泉中学校
    伯太町二丁目24番22号:
      latlng: 34.49201721,135.43713368
      name:
      - 和泉市立伯太小学校
    光明台一丁目28番1号:
      latlng: 34.45718027,135.48732134
      name:
      - 和泉市立光明台中学校
    光明台一丁目35番1号:
      latlng: 34.45710247,135.48203571
      name:
      - 和泉市立光明台北小学校
    光明台三丁目8番1号:
      latlng: 34.45262243,135.48923511
      name:
      - 和泉市立光明台南小学校
    北田中町183番地:
      latlng: 34.42882808,135.49521816
      name:
      - 和泉市立横山小学校
    和気町四丁目9番1号:
      latlng: 34.47561631,135.42900687
      name:
      - 和泉市立和気小学校
    唐国町三丁目3番19号:
      latlng: 34.45865752,135.44646661
      name:
      - 和泉市立北松尾小学校
    富秋町二丁目2番89号:
      latlng: 34.50631272,135.43598633
      name:
      - 和泉市立富秋中学校
    寺門町一丁目14番35号:
      latlng: 34.47421377,135.43315929
      name:
      - 和泉市立郷荘中学校
    尾井町二丁目8番17号:
      latlng: 34.50641004,135.44396616
      name:
      - 和泉市立信太小学校
    幸二丁目3番1号:
      latlng: 34.49966628,135.43634197
      name:
      - 和泉市立幸小学校
    府中町二丁目5番20号:
      latlng: 34.48323753,135.42487938
      name:
      - 和泉市立国府小学校
    春木町615番地の4:
      latlng: 34.43122185,135.45027774
      name:
      - 和泉市立南松尾中学校
    池上町三丁目14番45号:
      latlng: 34.50208813,135.43033137
      name:
      - 和泉市立池上小学校
    池田下町1670番地:
      latlng: 34.47130618,135.46140954
      name:
      - 和泉市立北池田小学校
    父鬼町1506番地:
      latlng: 34.39573417,135.46738983
      name:
      - 和泉市立南横山小学校
    納花町181番地:
      latlng: ''
      name:
      - 和泉市立南池田小学校
    緑ヶ丘三丁目4番1号:
      latlng: 34.44619523,135.45961284
      name:
      - 和泉市立緑ヶ丘小学校
    芦部町224番地の3:
      latlng: 34.48109916,135.44154178
      name:
      - 和泉市立芦部小学校
    葛の葉町387-2:
      latlng: ''
      name:
      - 大阪府立信太高等学校(体育館)
    鍛治屋町226番地:
      latlng: 34.44804785,135.46697050
      name:
      - 和泉市立南池田中学校
    鶴山台一丁目1番1号:
      latlng: 34.50609626,135.44845464
      name:
      - 和泉市立信太中学校
    鶴山台一丁目9番1号:
      latlng: 34.50750172,135.45159600
      name:
      - 和泉市立鶴山台北小学校
    鶴山台四丁目1番1号:
      latlng: 34.49945260,135.44874639
      name:
      - 和泉市立鶴山台南小学校
    黒鳥町一丁目6番5号:
      latlng: 34.48965361,135.43710594
      name:
      - 和泉市立黒鳥小学校
  四條畷市:
    中野3丁目5番25号:
      latlng: 34.74100380,135.64394315
      name:
      - 四條畷市市民総合センター
    中野新町11番31号:
      latlng: ''
      name:
      - 四條畷市立福祉コミュニティセンター
    中野新町11番38号:
      latlng: 34.73842071,135.63943527
      name:
      - 四條畷市立四條畷南小学校
    二丁通町18番1号:
      latlng: 34.73577920,135.62785026
      name:
      - 四條畷市立くすのき小学校
    南野5丁目5番1号:
      latlng: 34.73684596,135.64529868
      name:
      - 四條畷市立四條畷南中学校
    南野6丁目1番25号:
      latlng: 34.73727650,135.64917889
      name:
      - 四條畷市立四條畷東小学校
    大字下田原448番地:
      latlng: 34.73681039,135.69175832
      name:
      - 飯盛霊園組合
    大字中野872番地:
      latlng: 34.73962620,135.64535139
      name:
      - 四條畷市立四條畷小学校
    大字清瀧1139番地の70:
      latlng: ''
      name:
      - 大阪電気通信大学
    大字砂82番地:
      latlng: 34.74465051,135.63505495
      name:
      - 四條畷市立岡部小学校
    大字蔀屋285番地の21:
      latlng: 34.74089258,135.63339686
      name:
      - 四條畷市立四條畷西中学校
    大字逢阪485番地:
      latlng: 34.73101618,135.66993005
      name:
      - 大阪府立緑の文化園
    岡山東5丁目2番10号:
      latlng: 34.74368690,135.65262844
      name:
      - 四條畷市立四條畷中学校
    岡山東5丁目2番40号:
      latlng: 34.74429239,135.65333670
      name:
      - 四條畷市立忍ヶ丘小学校
    田原台4丁目2番1号:
      latlng: 34.72710589,135.69351663
      name:
      - 四條畷市立田原小学校
    田原台8丁目地内:
      latlng: 34.71704806,135.68996944
      name:
      - 北谷公園
    雁屋北町1番1号:
      latlng: 34.73534602,135.63583566
      name:
      - 大阪府立四條畷高等学校
  堺市:
    中区八田北町580番地の11:
      latlng: 34.52660015,135.48054035
      name:
      - 堺市立八田荘中学校
    中区八田寺町231番地:
      latlng: 34.52761948,135.48023758
      name:
      - 堺市立八田荘小学校
    中区八田寺町320:
      latlng: 34.51976480,135.49339485
      name:
      - 堺市原池公園体育館
    中区土塔町139番地:
      latlng: 34.53858512,135.50844598
      name:
      - 堺市立東百舌鳥小学校
    中区土塔町2377-5:
      latlng: 34.53554099,135.51170409
      name:
      - 大阪府立東百舌鳥高等学校
    中区土師町3丁35番1号:
      latlng: 34.53853784,135.49923571
      name:
      - 堺市立土師小学校
    中区宮園町4番1号:
      latlng: 34.52548641,135.49483354
      name:
      - 堺市立宮園小学校
    中区平井346番地:
      latlng: 34.51749283,135.49790004
      name:
      - 堺市立平井中学校
    中区平井999番地:
      latlng: 34.52105355,135.49603627
      name:
      - 堺市立久世小学校
    中区新家町260番地:
      latlng: ''
      name:
      - 堺市立東百舌鳥中学校
    中区毛穴町268番地の2:
      latlng: 34.52688337,135.47611296
      name:
      - 堺市立八田荘西小学校
    中区深井中町1409番地:
      latlng: 34.53481319,135.49191699
      name:
      - 堺市立深井小学校
    中区深井北町220番地の1:
      latlng: 34.54015431,135.49527492
      name:
      - 堺市立深井中央中学校
    中区深井北町926番地:
      latlng: 34.53965703,135.48390652
      name:
      - 堺市立深井西小学校
    中区深井水池町3214番地:
      latlng: 34.53069970,135.50150231
      name:
      - 堺市立東深井小学校
    中区深井沢町2470番地の1:
      latlng: 34.52751946,135.50102463
      name:
      - 堺市立深井中学校
    中区深井清水町1426番地:
      latlng: 34.53388551,135.49168091
      name:
      - 堺市教育文化センター 中文化会館
    中区深阪11番地:
      latlng: 34.50931048,135.50741598
      name:
      - 堺市立深阪小学校
    中区田園570番地:
      latlng: 34.51054370,135.51146284
      name:
      - 堺市立西陶器小学校
    中区福田727番地:
      latlng: 34.52447552,135.51847870
      name:
      - 堺市立福田小学校
    中区陶器北184番地:
      latlng: 34.51696521,135.51615124
      name:
      - 堺市立泉ヶ丘東中学校
    中区陶器北674番地:
      latlng: 34.51797357,135.52525877
      name:
      - 堺市立東陶器小学校
    北区中村町250番地:
      latlng: 34.56502993,135.53654838
      name:
      - 堺市立北八下小学校
    北区中村町977番地の20:
      latlng: 34.56041098,135.53206278
      name:
      - 堺市立八下中学校
    北区中百舌鳥町6丁1033番地の2:
      latlng: 34.55065893,135.50706251
      name:
      - 堺市立中百舌鳥小学校
    北区中百舌鳥町6丁1034番地の11:
      latlng: 34.54912025,135.50965397
      name:
      - 堺市立中百舌鳥中学校
    北区北花田町2丁203番地:
      latlng: 34.58085563,135.51940507
      name:
      - 堺市立五箇荘東小学校
    北区大豆塚町1丁60番地:
      latlng: 34.58061659,135.50437866
      name:
      - 堺市立東浅香山小学校
    北区新堀町1丁85番地の2:
      latlng: 34.57740868,135.50938106
      name:
      - 堺市立五箇荘中学校
    北区新堀町2丁58番地:
      latlng: 34.57701434,135.51376401
      name:
      - 堺市立五箇荘小学校
    北区新金岡町1丁4番1号:
      latlng: 34.56937910,135.51151719
      name:
      - 堺市立新金岡小学校
    北区新金岡町1丁5番1号:
      latlng: 34.57122610,135.51093386
      name:
      - 堺市立金岡北中学校
    北区新金岡町3丁7番1号:
      latlng: 34.57305658,135.52149675
      name:
      - 堺市立光竜寺小学校
    北区新金岡町4丁1番9号:
      latlng: 34.56832929,135.51649732
      name:
      - 堺市立新金岡東小学校
    北区新金岡町4丁8番1号:
      latlng: 34.56862378,135.52239955
      name:
      - 堺市立大泉小学校
    北区新金岡町4丁9番1号:
      latlng: 34.56657403,135.52283012
      name:
      - 堺市立大泉中学校
    北区東三国ヶ丘町2丁2番1号:
      latlng: 34.57105094,135.49752121
      name:
      - 堺市立東三国丘小学校
    北区東浅香山町3丁31番4号:
      latlng: 34.58579657,135.50930029
      name:
      - 堺市立新浅香山小学校
    北区百舌鳥梅町2丁498番地:
      latlng: 34.55125868,135.49517192
      name:
      - 堺市立百舌鳥小学校
    北区百舌鳥西之町1丁75番地:
      latlng: 34.55000875,135.49156950
      name:
      - 堺市立陵南中学校
    北区百舌鳥西之町1丁82番地:
      latlng: 34.55056145,135.49021128
      name:
      - 堺市立西百舌鳥小学校
    北区金岡町1182番地の1:
      latlng: 34.55560847,135.51156475
      name:
      - 堺市立金岡南小学校
    北区金岡町1254番地:
      latlng: 34.55880539,135.51480882
      name:
      - 堺市立金岡小学校
    北区金岡町2469番地:
      latlng: ''
      name:
      - 堺市立金岡南中学校
    北区長曽根町1179番地の18:
      latlng: 34.57083719,135.50655927
      name:
      - 堺市金岡公園体育館
    北区長曽根町1179番地の5:
      latlng: 34.57415620,135.50224014
      name:
      - 堺市立長尾中学校
    南区三原台1丁12番1号:
      latlng: 34.49972290,135.52300083
      name:
      - 堺市立三原台中学校
    南区三原台3丁2番1号:
      latlng: 34.50120602,135.51980943
      name:
      - 堺市立三原台小学校
    南区上61番地:
      latlng: ''
      name:
      - 大阪府立堺上高等学校
    南区原山台4丁2番1号:
      latlng: 34.48222194,135.49431744
      name:
      - 堺市立原山台中学校
    南区原山台4丁3番1号:
      latlng: 34.47981389,135.49446468
      name:
      - 堺市立原山台小学校
    南区原山台5丁4番1号:
      latlng: 34.48389122,135.49735603
      name:
      - 堺市立原山台東小学校
    南区城山台1丁20番1号:
      latlng: 34.46842347,135.48764608
      name:
      - 堺市立城山台小学校
    南区城山台4丁1番1号:
      latlng: 34.46329349,135.48740178
      name:
      - 大阪府立成美高等学校
    南区宮山台1丁1番1号:
      latlng: 34.49990047,135.50373308
      name:
      - 堺市立宮山台中学校
    南区宮山台2丁2番1号:
      latlng: 34.50449712,135.49852792
      name:
      - 堺市立宮山台小学校
    南区庭代台2丁19番1号:
      latlng: 34.46890687,135.50028097
      name:
      - 堺市立庭代台中学校
    南区庭代台3丁12番1号:
      latlng: 34.47442290,135.49971427
      name:
      - 堺市立庭代台小学校
    南区御池台2丁3番1号:
      latlng: 34.46551559,135.50318356
      name:
      - 堺市立御池台小学校
    南区新檜尾台3丁7番1号:
      latlng: 34.47954429,135.47635522
      name:
      - 堺市立新檜尾台小学校
    南区晴美台1丁1番2号:
      latlng: 34.49927868,135.53403874
      name:
      - 大阪府立堺東高等学校
    南区晴美台3丁3番1号:
      latlng: 34.49096572,135.53148072
      name:
      - 堺市立はるみ小学校
    南区晴美台3丁8番1号:
      latlng: 34.48650231,135.52813940
      name:
      - 堺市立晴美台中学校
    南区桃山台2丁1番2号:
      latlng: 34.48582425,135.48930117
      name:
      - 堺市立栂文化会館
    南区桃山台2丁6番1号:
      latlng: 34.48934049,135.48764294
      name:
      - 堺市立桃山台小学校
    南区桃山台3丁7番1号:
      latlng: 34.49703953,135.48174893
      name:
      - 堺市立福泉南中学校
    南区桃山台4丁16番:
      latlng: 34.49568972,135.48467924
      name:
      - 大阪府立堺西高等学校
    南区桃山台4丁17番1号:
      latlng: 34.49693956,135.48332379
      name:
      - 堺市立福泉中央小学校
    南区槇塚台3丁39番1号:
      latlng: 34.48256388,135.52759227
      name:
      - 堺市立槇塚台小学校
    南区片蔵1425番地:
      latlng: 34.47964740,135.51206589
      name:
      - 堺市立上神谷小学校
    南区竹城台1丁10番1号:
      latlng: 34.50361953,135.51096296
      name:
      - 堺市立竹城台東小学校
    南区竹城台3丁2番1号:
      latlng: 34.49593150,135.50376089
      name:
      - 堺市立竹城台小学校
    南区若松台1丁3番1号:
      latlng: 34.49183201,135.50684400
      name:
      - 堺市立若松台小学校
    南区若松台3丁2番2号:
      latlng: 34.49040715,135.50139449
      name:
      - 大阪府立泉北高等学校
    南区若松台3丁34番1号:
      latlng: 34.48658825,135.51307128
      name:
      - 堺市立若松台中学校
    南区茶山台2丁5番1号:
      latlng: 34.49120163,135.51716255
      name:
      - 堺市立茶山台小学校
    南区赤坂台2丁1番1号:
      latlng: 34.48422710,135.47788276
      name:
      - 堺市立赤坂台中学校
    南区赤坂台2丁2番1号:
      latlng: 34.48654903,135.47608287
      name:
      - 堺市立赤坂台小学校
    南区高倉台1丁2番1号:
      latlng: 34.49589831,135.51928453
      name:
      - 堺市立高倉台西小学校
    南区高倉台3丁5番1号:
      latlng: 34.49341536,135.52592563
      name:
      - 堺市立高倉台小学校
    南区鴨谷台1丁47番1号:
      latlng: 34.47260072,135.48319641
      name:
      - 堺市立美木多中学校
    南区鴨谷台1丁48番1号:
      latlng: 34.47429498,135.48377410
      name:
      - 堺市立美木多小学校
    南区鴨谷台2丁4番1号:
      latlng: 34.47424770,135.47853847
      name:
      - 堺市立鴨谷体育館
    堺区三宝町5丁286番地:
      latlng: 34.59395935,135.47178138
      name:
      - 堺市立三宝小学校
    堺区九間町東3丁1番17号:
      latlng: 34.58444377,135.48293609
      name:
      - 堺市立錦小学校
    堺区今池町5丁3番8号:
      latlng: 34.58414113,135.49469337
      name:
      - 堺市立浅香山中学校
    堺区今池町5丁4番43号:
      latlng: 34.58531601,135.49463223
      name:
      - 堺市立浅香山小学校
    堺区北三国ヶ丘町5丁1番1号:
      latlng: 34.57475323,135.49246324
      name:
      - 堺市立三国丘小学校
    堺区南三国ヶ丘町2丁2番36号:
      latlng: 34.57357274,135.48762481
      name:
      - 大阪府立三国丘高等学校
    堺区南安井町4丁1番5号:
      latlng: 34.57062565,135.47789796
      name:
      - 堺市立安井小学校
    堺区向陵東町1丁10番1号:
      latlng: ''
      name:
      - 堺市立堺高校
    堺区向陵西町3丁6番15号:
      latlng: 34.57109532,135.49382987
      name:
      - 堺市立三国丘中学校
    堺区大仙中町11番1号:
      latlng: 34.56192384,135.47886480
      name:
      - 堺市立旭中学校
    堺区大仙中町16番1号:
      latlng: 34.56070454,135.47930091
      name:
      - 堺市立大仙小学校
    堺区大仙西町2丁79番地:
      latlng: 34.56558159,135.46993491
      name:
      - 堺市立陵西中学校
    堺区大仙西町4丁129番地:
      latlng: 34.56492893,135.47197643
      name:
      - 堺市立大仙西小学校
    堺区大浜北町5丁7番1号:
      latlng: 34.58154351,135.45922419
      name:
      - 堺市立大浜体育館
    堺区大浜南町2丁4番1号:
      latlng: 34.57446931,135.46152695
      name:
      - 堺市立大浜中学校
    堺区寺地町西4丁1番1号:
      latlng: 34.57639975,135.46548490
      name:
      - 堺市立英彰小学校
    堺区少林寺町東4丁1番1号:
      latlng: 34.57110325,135.47150959
      name:
      - 堺市立少林寺小学校
    堺区市之町西3丁1番14号:
      latlng: 34.57986899,135.47087330
      name:
      - 堺市立市小学校
    堺区東湊町2丁119番地:
      latlng: 34.56800625,135.46653788
      name:
      - 堺市立旧湊小学校
    堺区榎元町2丁3番11号:
      latlng: 34.57100909,135.48510288
      name:
      - 堺市立榎小学校
    堺区櫛屋町東3丁2番1号:
      latlng: 34.57912478,135.47883376
      name:
      - 堺市立殿馬場中学校
    堺区熊野町東5丁1番49号:
      latlng: 34.57655006,135.47916158
      name:
      - 堺市立熊野小学校
    堺区田出井町2丁1番:
      latlng: 34.57863063,135.49636556
      name:
      - 堺市立勤労者総合福祉センター
    堺区石津町2丁6番1号:
      latlng: 34.55472441,135.46667999
      name:
      - 堺市立神石小学校
    堺区神南辺町1丁1番地:
      latlng: 34.58438530,135.47484512
      name:
      - 堺市立月州中学校
    堺区神明町西2丁1番1号:
      latlng: 34.58521584,135.47855312
      name:
      - 堺市立錦西小学校
    堺区西湊町6丁6番1号:
      latlng: 34.56598415,135.46138283
      name:
      - 堺市立新湊小学校
    堺区車之町東3丁2番1号:
      latlng: 34.57993861,135.48004198
      name:
      - 大阪府立泉陽高等学校
    堺区錦綾町1丁6番19号:
      latlng: 34.58575478,135.48565527
      name:
      - 堺市立錦綾小学校
    堺区香ヶ丘町1丁11番1号:
      latlng: ''
      name:
      - 関西大学堺キャンパス
    東区丈六224番地:
      latlng: 34.52697848,135.54037391
      name:
      - 堺市立登美丘東小学校
    東区北野田897番地の2:
      latlng: 34.52407067,135.55125349
      name:
      - 堺市立野田小学校
    東区南野田101番地の1:
      latlng: 34.52154316,135.55072858
      name:
      - 堺市立野田中学校
    東区大美野135番地:
      latlng: 34.52653386,135.52891108
      name:
      - 堺市立登美丘西小学校
    東区引野町1丁110番地:
      latlng: 34.55045929,135.52286385
      name:
      - 堺市立八下西小学校
    東区日置荘北町3丁11番28号:
      latlng: 34.54111590,135.53566292
      name:
      - 堺市立日置荘中学校
    東区日置荘西町2丁46番1号:
      latlng: 34.54196302,135.53403805
      name:
      - 堺市立日置荘小学校
    東区日置荘西町6丁9番1号:
      latlng: 34.53828550,135.52460564
      name:
      - 堺市立日置荘西小学校
    東区白鷺町2丁8番1号:
      latlng: 34.54550412,135.51522854
      name:
      - 堺市立白鷺小学校
    東区草尾596番地:
      latlng: 34.51812374,135.53611893
      name:
      - 堺市立登美丘南小学校
    東区菩提町2丁58番地:
      latlng: 34.55056489,135.53305182
      name:
      - 堺市立南八下中学校
    東区菩提町5丁228番地:
      latlng: 34.54744859,135.53788758
      name:
      - 堺市立南八下小学校
    東区西野51番地:
      latlng: 34.51891541,135.53988244
      name:
      - 大阪府立登美丘高等学校
    東区野尻町221番地の4:
      latlng: 34.54028810,135.52313628
      name:
      - 堺市立初芝体育館
    東区高松408番地:
      latlng: 34.52589231,135.53175806
      name:
      - 堺市立登美丘中学校
    美原区さつき野東1丁目6番1号:
      latlng: 34.53213973,135.58153667
      name:
      - 堺市立さつき野小学校
    美原区さつき野西2丁目6番1号:
      latlng: 34.53217027,135.58011458
      name:
      - 堺市立さつき野中学校
    美原区多治井878番地1:
      latlng: 34.54283276,135.56703504
      name:
      - 堺市立美原体育館
    美原区大保19番地:
      latlng: 34.54928751,135.56098546
      name:
      - 堺市立美原北小学校
    美原区大饗102番地2:
      latlng: 34.54302414,135.54722850
      name:
      - 堺市立美原西中学校
    美原区大饗117番地1:
      latlng: 34.54352685,135.54550365
      name:
      - 堺市立八上小学校
    美原区太井548番地:
      latlng: 34.53828306,135.55313639
      name:
      - 堺市立美原西小学校
    美原区小平尾390番地:
      latlng: 34.53912478,135.56300214
      name:
      - 堺市立美原中学校
    美原区平尾360番地:
      latlng: 34.53325605,135.56660191
      name:
      - 堺市立平尾小学校
    美原区菅生587番地:
      latlng: 34.52324334,135.57039060
      name:
      - 堺市立みはら大地幼稚園
    美原区阿弥93番地:
      latlng: 34.53550841,135.55640559
      name:
      - 堺市立黒山小学校
    西区上127番地の1:
      latlng: ''
      name:
      - 堺市立福泉上小学校
    西区上野芝向ヶ丘町5丁25番1号:
      latlng: 34.54125680,135.48118730
      name:
      - 堺市立上野芝中学校
    西区上野芝向ヶ丘町6丁7番1号:
      latlng: 34.53981247,135.47828758
      name:
      - 堺市立向丘小学校
    西区原田150番地:
      latlng: 34.51782570,135.45885353
      name:
      - 大阪府立鳳高等学校
    西区堀上緑町1丁6番1号:
      latlng: 34.53468526,135.47669336
      name:
      - 堺市立平岡小学校
    西区太平寺323番地:
      latlng: 34.50471086,135.48014065
      name:
      - 大阪府立福泉高等学校
    西区家原寺町1丁18番1号:
      latlng: 34.53682938,135.47249093
      name:
      - 堺市家原大池体育館
    西区家原寺町1丁7番1号:
      latlng: 34.53702387,135.47614060
      name:
      - 堺市立家原寺小学校
    西区山田2丁55番地:
      latlng: 34.50957951,135.46434203
      name:
      - 堺市立福泉中学校
    西区津久野町3丁14番11号:
      latlng: 34.54508116,135.47079651
      name:
      - 堺市立津久野小学校
    西区浜寺南町1丁55番地:
      latlng: 34.53614011,135.44925410
      name:
      - 堺市立浜寺南中学校
    西区浜寺昭和町2丁282番地:
      latlng: 34.54245882,135.44856794
      name:
      - 堺市立浜寺昭和小学校
    西区浜寺石津町中2丁3番28号:
      latlng: 34.55972919,135.45499473
      name:
      - 堺市立浜寺石津小学校
    西区浜寺船尾町東1丁101番地:
      latlng: 34.55085804,135.45872243
      name:
      - 堺市立浜寺東小学校
    西区浜寺船尾町西5丁60番地:
      latlng: 34.54351443,135.45805876
      name:
      - 堺市立浜寺中学校
    西区浜寺諏訪森町東2丁163番地:
      latlng: 34.54970527,135.45153976
      name:
      - 堺市立浜寺小学校
    西区神野町2丁16番1号:
      latlng: 34.54194827,135.47464899
      name:
      - 堺市立津久野中学校
    西区神野町2丁25番1号:
      latlng: 34.54465908,135.47577940
      name:
      - 堺市立上野芝小学校
    西区草部946番地の1:
      latlng: 34.51886197,135.47293835
      name:
      - 堺市立福泉東小学校
    西区菱木2丁2186番地の1:
      latlng: ''
      name:
      - 堺市立福泉小学校
    西区金岡町2651番地:
      latlng: ''
      name:
      - 大阪府立金岡高等学校
    西区鳳中町2丁22番地:
      latlng: 34.53440437,135.45860609
      name:
      - 堺市立鳳小学校
    西区鳳南町1丁7番地:
      latlng: 34.52795231,135.45758961
      name:
      - 堺市立鳳南小学校
    西区鳳西町1丁159番地の1:
      latlng: ''
      name:
      - 堺市立鳳中学校
  大東市:
    三箇1丁目322番1号:
      latlng: ''
      name:
      - 大東市立三箇小学校
    三箇4丁目1番3号:
      latlng: ''
      name:
      - 三箇自治会館
    中垣内2丁目2番15号:
      latlng: 34.70577451,135.64719646
      name:
      - 中垣内公民館
    中垣内4丁目4番:
      latlng: 34.70665213,135.64305792
      name:
      - 中垣内浜公園
    中垣内三丁目1番1号:
      latlng: 34.70791593,135.64619372
      name:
      - 大阪産業大学総合体育館
    北新町3番101号:
      latlng: ''
      name:
      - 大東市立まなび北新
    北条1丁目16番16号:
      latlng: 34.72233365,135.63900236
      name:
      - 大東市立北条西小学校
    北条2丁目19番:
      latlng: 34.72465007,135.64039385
      name:
      - 北条公園
    北条2丁目19番30号:
      latlng: 34.72464729,135.63997445
      name:
      - 大東市立北条中学校
    北条3丁目10番5号:
      latlng: 34.73027725,135.64440726
      name:
      - 大東市立北条人権文化センター
    北条3丁目15番15号:
      latlng: 34.73013839,135.64583491
      name:
      - 大東市立北条老人憩の家
    北条6丁目11番1号:
      latlng: 34.72421962,135.64524344
      name:
      - 大東市立北条小学校
    北条6丁目5番31号:
      latlng: 34.72561665,135.64273807
      name:
      - 北条中央公民館
    大字龍間1333:
      latlng: ''
      name:
      - 龍間公会堂
    大東町9番1号:
      latlng: 34.71361214,135.61980705
      name:
      - 大東市立氷野小学校
    大野1丁目3番2号:
      latlng: 34.70548523,135.61781575
      name:
      - 大野公民館
    太子田1丁目12番38号:
      latlng: 34.70875146,135.61154399
      name:
      - 大東市立南郷小学校
    学園町6番45号:
      latlng: 34.73126876,135.64082421
      name:
      - 四條畷学園小学校体育館
      - 私立四條畷学園高等学校(体育館・運動場)
    寺川1丁目2番1号:
      latlng: 34.70872409,135.64063865
      name:
      - 大阪府立野崎高等学校体育館
    寺川2丁目7番1号:
      latlng: 34.70891581,135.64569096
      name:
      - 大東市立四条中学校
    御供田2丁目20番:
      latlng: 34.70537986,135.63010634
      name:
      - 御供田公園
    御供田2丁目20番1号:
      latlng: 34.70603534,135.62984246
      name:
      - 御供田公民館
    新田中町6番:
      latlng: 34.71035389,135.60240038
      name:
      - 新田中央公園
    新田本町17番6号:
      latlng: 34.70732928,135.60524462
      name:
      - 新田公民館
    新町13番13号:
      latlng: 34.70429100,135.62371526
      name:
      - 大東市立総合福祉センター
    曙町4番6号:
      latlng: 34.71092362,135.62485388
      name:
      - 大東市立市民会館
    朋来1丁目30番1号:
      latlng: 34.69945251,135.61435786
      name:
      - 大東市立大東中学校
    末広町16番1号:
      latlng: 34.70442148,135.61931008
      name:
      - 大東市立住道南小学校
    末広町17番1号:
      latlng: 34.70497143,135.61953505
      name:
      - 大東市立住道中学校
    末広町・新町:
      latlng: ''
      name:
      - 末広公園
    氷野1丁目9番6号:
      latlng: 34.71179014,135.62062646
      name:
      - 氷野公民館
    氷野4丁目4番:
      latlng: 34.71408420,135.61130779
      name:
      - 南郷公園
    泉町1丁目3番1号:
      latlng: 34.70771575,135.63296437
      name:
      - 大東市立泉小学校
    泉町1丁目3番2号:
      latlng: 34.70753521,135.63222555
      name:
      - 泉町公民館
    浜町2番12号:
      latlng: 34.70856274,135.62244582
      name:
      - 大東市立住道北小学校
    深北4丁目284:
      latlng: ''
      name:
      - 深北緑地
    深野1丁目・緑が丘1丁目:
      latlng: 34.71435161,135.62545155
      name:
      - 大東中央公園(整備中)
    深野3丁目28番3号:
      latlng: 34.71938670,135.63413897
      name:
      - 大東市立深野北小学校
    深野3丁目28番4号:
      latlng: 34.72024772,135.63443059
      name:
      - 大東市立深野児童センター
    深野4丁目12番1号:
      latlng: 34.71732854,135.63014493
      name:
      - 大阪府立緑風冠高等学校体育館
    深野4丁目15番1号:
      latlng: 34.71745635,135.63349463
      name:
      - 大東市立深野小学校
    深野北1丁目15番1号:
      latlng: 34.72095039,135.63285294
      name:
      - 大東市立深野中学校
    灰塚1丁目3番1号:
      latlng: 34.70526017,135.61129132
      name:
      - 大東市立灰塚小学校
    西楠の里町14番1号:
      latlng: 34.72686916,135.63231118
      name:
      - 大東市立四条北小学校
    諸福1丁目12番12号:
      latlng: 34.70490176,135.60497248
      name:
      - 大東市立諸福児童センター
      - 大東市立諸福老人福祉センター
    諸福1丁目2番2号:
      latlng: 34.70541563,135.60684173
      name:
      - 大東市立諸福小学校
    諸福1丁目3番:
      latlng: 34.70419354,135.60686676
      name:
      - 東諸福公園
    諸福1丁目7番10号:
      latlng: 34.70286034,135.60621963
      name:
      - 東諸福公民館
    諸福5丁目11番1号:
      latlng: 34.70386010,135.59957579
      name:
      - 大東市立諸福中学校
    諸福七丁目2番23号:
      latlng: 34.70390173,135.59759264
      name:
      - 太成学院大学高等学校体育館
    谷川2丁目6番1号:
      latlng: 34.71209577,135.62838966
      name:
      - 大東市立谷川中学校
    谷川2丁目9番:
      latlng: 34.71107925,135.63139775
      name:
      - 大東公園
    赤井2丁目14番4号:
      latlng: 34.70719616,135.61808790
      name:
      - 赤井公民館
    赤井3丁目15番3号:
      latlng: 34.70756275,135.61522703
      name:
      - 大東市立南郷中学校
    野崎1丁目24番1号:
      latlng: 34.71752031,135.63934967
      name:
      - 大東市立野崎人権文化センター
    野崎1丁目8番28号:
      latlng: 34.71823690,135.64015514
      name:
      - 大東市立野崎老人憩の家
    野崎3丁目6番1号:
      latlng: 34.71655657,135.64205501
      name:
      - (旧)大東市立四条小学校
    野崎4丁目6番1号:
      latlng: 34.71382908,135.64063019
      name:
      - 大東市立四条小学校
  大阪市:
    中央区上本町西2丁目5:
      latlng: 34.67409817,135.51894757
      name:
      - 空堀・桃谷公園
    中央区上本町西3-2-30:
      latlng: 34.67215116,135.51904759
      name:
      - 上町中学校
    中央区上本町西4丁目1:
      latlng: 34.67071521,135.51966978
      name:
      - 東平北公園
    中央区上本町西5丁目1:
      latlng: 34.66868765,135.51911152
      name:
      - 東平南公園
    中央区上町1-19-31:
      latlng: 34.67727011,135.52229170
      name:
      - 聾学校
    中央区上町1丁目19:
      latlng: 34.67741177,135.52311662
      name:
      - 広小路公園
    中央区上町1丁目2:
      latlng: 34.67705628,135.52583304
      name:
      - 寺山公園
    中央区久太郎町1-7-12:
      latlng: 34.68043617,135.50802338
      name:
      - 東商業高等学校
    中央区今橋1-5-7:
      latlng: 34.69045724,135.50839813
      name:
      - 開平小学校
    中央区内久宝町3丁目1:
      latlng: ''
      name:
      - 銅座公園
    中央区北久宝町3丁目1:
      latlng: ''
      name:
      - 久宝公園
    中央区南船場3-2-19:
      latlng: 34.67692535,135.50249891
      name:
      - 南幼稚園
    中央区南船場3丁目2番19号:
      latlng: 34.67692535,135.50249891
      name:
      - 大阪市立南幼稚園
    中央区大手前2-1-11:
      latlng: 34.68724399,135.51900572
      name:
      - 大阪府立大手前高等学校
    中央区大手前4-1-5:
      latlng: 34.68285000,135.51806975
      name:
      - 東中学校
    中央区大阪城公園:
      latlng: ''
      name:
      - 大阪城公園
    中央区島之内1-10-23:
      latlng: 34.67392304,135.50889844
      name:
      - 南中学校
    中央区島之内2丁目5:
      latlng: 34.67063731,135.50961510
      name:
      - 道仁公園
    中央区日本橋2丁目12:
      latlng: 34.66414633,135.50719600
      name:
      - 黒門公園
    中央区本町橋5:
      latlng: 34.68267486,135.51039259
      name:
      - 東横堀公園
    中央区東心斎橋1-14-29:
      latlng: 34.67339800,135.50376555
      name:
      - 南小学校
    中央区森ノ宮中央1丁目13:
      latlng: 34.68061985,135.53265460
      name:
      - 森之宮公園
    中央区森ノ宮中央1丁目20:
      latlng: 34.67922000,135.53205188
      name:
      - 城南公園
    中央区玉造2-3-43:
      latlng: 34.67862838,135.52960212
      name:
      - 玉造小学校
    中央区玉造2丁目20:
      latlng: 34.67720074,135.52866333
      name:
      - 玉造公園
    中央区玉造2丁目24:
      latlng: 34.67876445,135.52722456
      name:
      - 越中公園
    中央区瓦屋町2-8-4:
      latlng: 34.67110674,135.51275093
      name:
      - 中央小学校
    中央区瓦屋町2丁目9:
      latlng: 34.67009297,135.51299259
      name:
      - 瓦屋町公園
    中央区石町1丁目3:
      latlng: 34.68909923,135.51515875
      name:
      - 北大江公園
    中央区粉川町6:
      latlng: 34.67821430,135.51338965
      name:
      - 南大江公園
    中央区糸屋町2-3-14:
      latlng: 34.68549125,135.51237571
      name:
      - 中大江小学校
    中央区糸屋町2丁目2:
      latlng: 34.68525519,135.51355618
      name:
      - 中大江公園
    中央区西心斎橋2丁目11:
      latlng: 34.67200084,135.49785497
      name:
      - 御津公園
    中央区谷町6-17-32:
      latlng: 34.67452026,135.51287864
      name:
      - 南高等学校
    中央区谷町6丁目5:
      latlng: 34.67473694,135.51543120
      name:
      - 桃園公園
    中央区農人橋1-3-3:
      latlng: 34.68030299,135.51483672
      name:
      - 南大江小学校
    中央区農人橋1丁目2:
      latlng: 34.68022523,135.51559499
      name:
      - 谷四錦郷公園
    中央区釣鐘町1-1-5:
      latlng: 34.68819381,135.51633924
      name:
      - 中央高等学校
    中央区難波千日前5:
      latlng: 34.66391576,135.50462678
      name:
      - 難波千日前公園
    中央区高津1丁目1:
      latlng: 34.66872091,135.51391476
      name:
      - 高津公園
    中央区高津3-4-21:
      latlng: 34.66564898,135.51065122
      name:
      - 高津小学校
    住之江区中加賀屋1丁目5:
      latlng: 34.61986782,135.48166891
      name:
      - 中加賀屋公園
    住之江区中加賀屋3丁目17:
      latlng: 34.61591822,135.47834431
      name:
      - 加賀屋公園
    住之江区住之江1-4-29:
      latlng: 34.60432236,135.48824359
      name:
      - 安立小学校
    住之江区住之江3丁目17:
      latlng: 34.59772303,135.48487736
      name:
      - 安住公園
    住之江区北加賀屋1丁目2:
      latlng: 34.62386179,135.48128552
      name:
      - 加賀屋北公園
    住之江区北加賀屋1丁目5:
      latlng: 34.62190367,135.48046342
      name:
      - 北加賀屋東公園
    住之江区北加賀屋2-5-26:
      latlng: 34.62247581,135.47952461
      name:
      - 加賀屋小学校
    住之江区北加賀屋5丁目3:
      latlng: 34.62305623,135.47552497
      name:
      - 北加賀屋公園
    住之江区北島2-9-22:
      latlng: 34.60285859,135.47754188
      name:
      - 敷津浦小学校
    住之江区北島3丁目17:
      latlng: 34.60065881,135.47911675
      name:
      - 北島公園
    住之江区南加賀屋3丁目1:
      latlng: 34.60637207,135.47529480
      name:
      - 南加賀屋公園
    住之江区南加賀屋4丁目6:
      latlng: 34.60321965,135.47363114
      name:
      - 南加賀屋西公園
    住之江区南港中2-7-18:
      latlng: 34.62765702,135.42755416
      name:
      - 南港緑小学校
    住之江区南港中2丁目6:
      latlng: ''
      name:
      - 南港緑公園
    住之江区南港中3-5-14:
      latlng: 34.62875683,135.42556543
      name:
      - 南港南中学校
    住之江区南港中3-7-13:
      latlng: 34.62702370,135.42573489
      name:
      - 南港渚小学校
    住之江区南港中3丁目1:
      latlng: 34.62982058,135.42535987
      name:
      - 南港公園
    住之江区南港中3丁目6:
      latlng: ''
      name:
      - 南港海のまち公園
    住之江区南港中4-3-39:
      latlng: 34.63557818,135.42342103
      name:
      - 南港北中学校
    住之江区南港中4-4-22:
      latlng: 34.63371451,135.42342940
      name:
      - 南港光小学校
    住之江区南港中4丁目5:
      latlng: 34.63388954,135.42485427
      name:
      - 南港太陽のまち公園
    住之江区南港中5-2-48:
      latlng: 34.63530034,135.42086849
      name:
      - 南港桜小学校
    住之江区南港中5丁目4:
      latlng: ''
      name:
      - 南港花のまち公園
    住之江区南港東2-5-72:
      latlng: 34.61338691,135.44155875
      name:
      - 大阪府立港南造形高等学校
    住之江区南港東8丁目5:
      latlng: ''
      name:
      - 南港中央公園
    住之江区安立1丁目10:
      latlng: 34.60727205,135.49002392
      name:
      - 安立北公園
    住之江区安立2丁目11:
      latlng: 34.60424459,135.48858522
      name:
      - 霞松原公園
    住之江区安立3丁目8:
      latlng: 34.60152821,135.48769925
      name:
      - 安立南公園
    住之江区平林北1丁目2:
      latlng: 34.62213919,135.45706279
      name:
      - 平林北公園
    住之江区平林北2丁目2番16号:
      latlng: 34.61736765,135.46118751
      name:
      - 大阪木材土地(株)
    住之江区平林南2-6-48:
      latlng: 34.60903787,135.45597422
      name:
      - 平林小学校
    住之江区平林南2丁目12:
      latlng: 34.61250942,135.44715271
      name:
      - 平林西公園
    住之江区平林南2丁目6:
      latlng: 34.60854070,135.45580758
      name:
      - 平林南公園
    住之江区御崎1丁目8:
      latlng: 34.61131324,135.48246068
      name:
      - 御崎北公園
    住之江区御崎2-2-32:
      latlng: 34.61315464,135.47803329
      name:
      - 真住中学校
    住之江区御崎3丁目3:
      latlng: 34.61051054,135.48086641
      name:
      - 御崎東公園
    住之江区御崎4-6-43:
      latlng: 34.60993836,135.47924713
      name:
      - 住之江小学校
    住之江区御崎5-7-18:
      latlng: 34.60808580,135.48047760
      name:
      - 清江小学校
    住之江区御崎5丁目1:
      latlng: 34.60872464,135.48267460
      name:
      - 御崎中公園
    住之江区御崎7-12-55:
      latlng: 34.60423345,135.48001939
      name:
      - 住吉商業高等学校
    住之江区御崎7丁目15:
      latlng: 34.60298082,135.48082767
      name:
      - 敷津浦東公園
    住之江区御崎7丁目3:
      latlng: 34.60560275,135.48118314
      name:
      - 御崎南公園
    住之江区御崎8-1-6:
      latlng: 34.60584716,135.47934165
      name:
      - 住之江中学校
    住之江区新北島2丁目3:
      latlng: 34.60367233,135.47098971
      name:
      - 新北島南公園
    住之江区新北島3丁目5:
      latlng: 34.60689969,135.46992028
      name:
      - 新北島東公園
    住之江区新北島3丁目7:
      latlng: 34.60744118,135.46670666
      name:
      - 新北島中公園
    住之江区新北島5丁目3:
      latlng: 34.60724112,135.46407911
      name:
      - 新北島会館南公園
    住之江区新北島6-2-56:
      latlng: 34.60577182,135.46341530
      name:
      - 新北島小学校
    住之江区新北島7丁目3:
      latlng: 34.60914079,135.46035717
      name:
      - 新北島西公園
    住之江区新北島8-2-46:
      latlng: 34.60724651,135.45921008
      name:
      - 新北島中学校
    住之江区新北島8丁目1:
      latlng: 34.60766038,135.45980447
      name:
      - 大和川北公園
    住之江区東加賀屋1-6-25:
      latlng: 34.62010673,135.48472972
      name:
      - 加賀屋東小学校
    住之江区東加賀屋1丁目14:
      latlng: 34.62012060,135.48351595
      name:
      - 東加賀屋1公園
    住之江区東加賀屋2丁目14:
      latlng: 34.61751810,135.48248832
      name:
      - 東加賀屋公園
    住之江区柴谷2丁目7:
      latlng: 34.61772052,135.46610095
      name:
      - 柴谷公園
    住之江区浜口西2丁目6:
      latlng: 34.61079388,135.48404110
      name:
      - 浜口西公園
    住之江区浜口西3丁目4:
      latlng: 34.60832748,135.48409947
      name:
      - 浜口公園
    住之江区粉浜1-5-48:
      latlng: 34.62313144,135.49061797
      name:
      - 北粉浜小学校
    住之江区粉浜1丁目27:
      latlng: 34.61877083,135.49101526
      name:
      - 粉浜中公園
    住之江区粉浜1丁目5:
      latlng: 34.62241764,135.49083464
      name:
      - 粉浜東公園
    住之江区粉浜2-6-6:
      latlng: 34.61827088,135.49036255
      name:
      - 粉浜小学校
    住之江区粉浜3丁目2:
      latlng: 34.61617665,135.48929881
      name:
      - 粉浜南公園
    住之江区粉浜西1-5-11:
      latlng: 34.62195377,135.48753497
      name:
      - 住吉第一中学校
    住之江区粉浜西1丁目4:
      latlng: 34.62243984,135.48876261
      name:
      - 粉浜北公園
    住之江区粉浜西2丁目6:
      latlng: 34.61896801,135.48839051
      name:
      - 粉浜公園
    住之江区緑木2丁目1:
      latlng: 34.61559318,135.47310315
      name:
      - 緑木公園
    住之江区西住之江1丁目3:
      latlng: 34.60683876,135.48580211
      name:
      - 西住之江公園
      - 浜口東公園
    住之江区西住之江2丁目15:
      latlng: 34.60228090,135.48489951
      name:
      - 西住之江中公園
    住之江区西住之江3丁目13:
      latlng: 34.59975337,135.48304695
      name:
      - 西住之江南公園
    住之江区西加賀屋2-9-20:
      latlng: 34.61885952,135.47689438
      name:
      - 加賀屋中学校
    住之江区西加賀屋3丁目8:
      latlng: 34.61615705,135.47641393
      name:
      - 西加賀屋公園
    住之江区西加賀屋4-1-4:
      latlng: 34.61486557,135.47870819
      name:
      - 住吉川小学校
    住吉区万代3丁目7:
      latlng: 34.61921249,135.50213637
      name:
      - 万代池公園
    住吉区万代東1丁目1:
      latlng: 34.62192606,135.50730801
      name:
      - 万代東公園
    住吉区万台東3丁目1:
      latlng: ''
      name:
      - 万領中央公園
    住吉区万台東4丁目2:
      latlng: ''
      name:
      - 南万領公園
    住吉区住吉1丁目7:
      latlng: 34.61402138,135.49681757
      name:
      - 住吉一二三公園
    住吉区千躰1-5-22:
      latlng: 34.60733039,135.49979518
      name:
      - 三稜中学校
    住吉区南住吉3-5-1:
      latlng: 34.60461956,135.50281994
      name:
      - 南住吉小学校
    住吉区南住吉3丁目15:
      latlng: 34.60456401,135.50132842
      name:
      - 沢之町公園
    住吉区墨江2-3-46:
      latlng: 34.60819142,135.49591499
      name:
      - 墨江小学校
    住吉区墨江4-15-34:
      latlng: 34.60611108,135.49452072
      name:
      - 墨江丘中学校
    住吉区大領3-3-5:
      latlng: 34.61568505,135.50753590
      name:
      - 大領小学校
    住吉区大領4-3-25:
      latlng: 34.61348528,135.50741373
      name:
      - 大領中学校
    住吉区山之内1-10-12:
      latlng: 34.60067275,135.50287557
      name:
      - 大阪府立視覚支援学校
    住吉区山之内1丁目1:
      latlng: 34.60060609,135.50483649
      name:
      - 山之内北公園
    住吉区山之内2-17-39:
      latlng: 34.59654818,135.50022869
      name:
      - 山之内小学校
    住吉区山之内2丁目13番57号:
      latlng: 34.59801192,135.50055363
      name:
      - 浪速中学・高等学校
    住吉区山之内3丁目17:
      latlng: 34.59303189,135.50047596
      name:
      - 山之内中央公園
    住吉区山之内5丁目2:
      latlng: 34.58761024,135.50182318
      name:
      - 山之内公園
    住吉区帝塚山中3丁目10番51号:
      latlng: 34.62092898,135.49888667
      name:
      - 帝塚山学院高等学校
    住吉区帝塚山東5-3-21:
      latlng: 34.61501849,135.49866459
      name:
      - 大阪市立市民交流センター
    住吉区帝塚山東5丁目3:
      latlng: 34.61512959,135.49827573
      name:
      - 神ノ木公園
    住吉区帝塚山西3-5-6:
      latlng: 34.61938471,135.49640084
      name:
      - 住吉中学校
    住吉区帝塚山西4-1-35:
      latlng: 34.61826261,135.49669805
      name:
      - 住吉小学校
    住吉区庭井2-18-81:
      latlng: 34.59535394,135.51730767
      name:
      - 大阪府立阪南高等学校
    住吉区庭井2丁目18:
      latlng: 34.59476234,135.51750489
      name:
      - 庭井公園
    住吉区庭井2丁目19:
      latlng: 34.59401241,135.51596338
      name:
      - 苅田南公園
    住吉区我孫子4-11-48:
      latlng: 34.59801470,135.50826400
      name:
      - 依羅小学校
    住吉区我孫子5丁目2:
      latlng: 34.59890905,135.50733351
      name:
      - 我孫子公園
    住吉区我孫子東1-4-32:
      latlng: 34.60464733,135.51207736
      name:
      - 我孫子中学校
    住吉区杉本2丁目6:
      latlng: 34.59494281,135.50707529
      name:
      - 杉本町公園
    住吉区東粉浜2-3-26:
      latlng: 34.61934025,135.49427604
      name:
      - 東粉浜小学校
    住吉区浅香1-8-55:
      latlng: 34.59320968,135.51106662
      name:
      - 我孫子南中学校
    住吉区浅香1丁目6:
      latlng: 34.59107655,135.50764755
      name:
      - 浅香中央公園
    住吉区浅香2丁目1:
      latlng: 34.59099878,135.50700594
      name:
      - 浅香町公園
    住吉区清水丘2-9-41:
      latlng: 34.60194761,135.49254599
      name:
      - 清水丘小学校
    住吉区清水丘2丁目2:
      latlng: 34.60270310,135.49404028
      name:
      - 遠沢公園
    住吉区清水丘2丁目22:
      latlng: 34.60251700,135.49132666
      name:
      - 清水丘公園
    住吉区清水丘3丁目8:
      latlng: 34.59750362,135.48961302
      name:
      - 清水丘ふれあい公園
    住吉区苅田1-11-39:
      latlng: 34.60389187,135.52086266
      name:
      - 苅田北小学校
    住吉区苅田1-16-2:
      latlng: 34.60312807,135.51909340
      name:
      - 東我孫子中学校
    住吉区苅田10-1-35:
      latlng: 34.59458177,135.51381912
      name:
      - 苅田南小学校
    住吉区苅田2丁目11:
      latlng: 34.60390297,135.51522153
      name:
      - 苅田北公園
    住吉区苅田3-5-34:
      latlng: 34.60197263,135.51617149
      name:
      - 苅田小学校
    住吉区苅田3丁目:
      latlng: 34.60244705,135.51582565
      name:
      - 苅田どんぐり公園
    住吉区苅田6丁目16:
      latlng: 34.59944792,135.51760475
      name:
      - 苅田中公園
    住吉区遠里小野2-11-4:
      latlng: 34.59750086,135.49691510
      name:
      - 大和川中学校
    住吉区遠里小野5丁目19:
      latlng: 34.59884793,135.49306544
      name:
      - 遠里小野公園
    住吉区遠里小野6-6-27:
      latlng: 34.59761195,135.49490418
      name:
      - 遠里小野小学校
    住吉区遠里小野7丁目5:
      latlng: 34.59702867,135.49204613
      name:
      - おりおの南公園
    住吉区長居1丁目4番15号:
      latlng: 34.61536840,135.51212156
      name:
      - 大阪学芸高等学校
    住吉区長居東3-3-40:
      latlng: 34.60870799,135.51393264
      name:
      - 長居小学校
    住吉区長居東3-8-32:
      latlng: 34.60766088,135.51714068
      name:
      - 長居幼稚園
    住吉区長居西1丁目14:
      latlng: 34.61229651,135.50918025
      name:
      - 西長居公園
    北区与力町5:
      latlng: 34.70105891,135.51450293
      name:
      - 与力町公園
    北区中之島1丁目1:
      latlng: 34.69259863,135.50741759
      name:
      - 中之島公園
    北区中之島5-3-96:
      latlng: 34.69105113,135.48884967
      name:
      - もと扇町高等学校
    北区中崎町1-6-8:
      latlng: ''
      name:
      - 済美福祉センター、済美中崎町コミュニティホール
    北区中津2丁目1:
      latlng: 34.71363460,135.49787329
      name:
      - 中津東公園
    北区中津2丁目8:
      latlng: 34.71510102,135.49630116
      name:
      - 中津公園
    北区中津3-34-18:
      latlng: 34.71357895,135.49398753
      name:
      - 中津小学校
    北区中津3丁目4:
      latlng: 34.71055988,135.49307381
      name:
      - 中津中央公園
    北区中津5丁目3:
      latlng: 34.70617151,135.49147684
      name:
      - 中津南公園
    北区中津6-7-34:
      latlng: 34.70843226,135.48846594
      name:
      - 中津南小学校
    北区国分寺1丁目5:
      latlng: 34.71042454,135.51487481
      name:
      - 国分寺公園
    北区大淀中1丁目9:
      latlng: 34.70496882,135.48852157
      name:
      - 大淀中公園
    北区大淀中2-1-11:
      latlng: 34.70349674,135.48670509
      name:
      - 大淀中学校
    北区大淀中4-10-33:
      latlng: 34.70353831,135.48271098
      name:
      - 大淀小学校
    北区大淀中5丁目8:
      latlng: 34.70288281,135.48121112
      name:
      - 大淀中5公園
    北区大淀北1丁目4:
      latlng: 34.70859608,135.48661332
      name:
      - 大淀北公園
    北区大淀北2丁目1:
      latlng: 34.70532970,135.48010562
      name:
      - 大淀西公園
    北区大淀南1丁目8:
      latlng: 34.70351898,135.48787444
      name:
      - 大淀南公園
    北区大淀南3丁目3:
      latlng: 34.70131083,135.48353041
      name:
      - 浦江公園
    北区天満1-24-15:
      latlng: 34.69631512,135.51896384
      name:
      - 滝川小学校
    北区天満4丁目7:
      latlng: 34.69394586,135.51455035
      name:
      - 滝川公園
    北区天満橋1-1-58:
      latlng: 34.69858990,135.52068865
      name:
      - 北稜中学校
    北区天満橋1丁目7:
      latlng: 34.70048130,135.51857764
      name:
      - 東天満公園
    北区天神橋1丁目3ほか:
      latlng: 34.69272929,135.51230610
      name:
      - 南天満公園
    北区扇町1丁目1:
      latlng: 34.70361404,135.50933935
      name:
      - 扇町公園
    北区扇町2-7:
      latlng: 34.70431110,135.50688674
      name:
      - 扇町小学校
    北区曽根崎2-15-14:
      latlng: 34.70158901,135.50068454
      name:
      - もと大阪北小学校
    北区本庄東2丁目6:
      latlng: 34.71363503,135.50818913
      name:
      - 本庄川崎公園
    北区本庄東3-4-8:
      latlng: 34.71603478,135.50896677
      name:
      - 豊崎中学校
    北区本庄東3丁目4:
      latlng: 34.71611257,135.50949728
      name:
      - 本庄小公園
    北区本庄西1丁目4:
      latlng: 34.71189074,135.50653375
      name:
      - 本庄南公園
    北区本庄西2-1-16:
      latlng: 34.71274061,135.50603933
      name:
      - 豊崎本庄小学校
    北区本庄西3丁目11:
      latlng: 34.71556518,135.50411718
      name:
      - 本庄公園
    北区東天満2-10-7:
      latlng: 34.69783981,135.51295036
      name:
      - 堀川小学校
    北区松ヶ枝町1-38:
      latlng: 34.69906200,135.51774164
      name:
      - 扇町総合高等学校
    北区浪速町14-6:
      latlng: ''
      name:
      - もと北天満小学校
    北区浮田2丁目5:
      latlng: 34.70973547,135.50737542
      name:
      - 浮田公園
    北区神山町12-9:
      latlng: 34.70321123,135.50666180
      name:
      - 天満中学校
    北区茶屋町1-40:
      latlng: 34.70561348,135.49984560
      name:
      - もと梅田東小学校
    北区菅原11番2号:
      latlng: 34.69388466,135.50997847
      name:
      - 大阪市立菅南幼稚園内運動場
    北区菅原町11-2:
      latlng: 34.69388466,135.50997847
      name:
      - 菅南幼稚園内運動場
    北区菅栄町4:
      latlng: 34.70865805,135.51451101
      name:
      - 菅北公園
    北区菅栄町9-5:
      latlng: 34.70853027,135.51375274
      name:
      - 菅北小学校
    北区西天満3-12-21:
      latlng: 34.69660648,135.50722028
      name:
      - 西天満小学校
    北区西天満5丁目7:
      latlng: 34.69857848,135.50773963
      name:
      - 西天満公園
    北区豊崎3丁目7:
      latlng: 34.71049619,135.49946215
      name:
      - 豊崎南公園
    北区豊崎4-5-9:
      latlng: 34.71238487,135.50038701
      name:
      - 豊崎小学校
    北区豊崎4丁目7:
      latlng: 34.71289041,135.50161190
      name:
      - 豊崎東公園
    北区豊崎5丁目5:
      latlng: 34.71173490,135.49886493
      name:
      - 豊崎西公園
    北区豊崎6丁目13:
      latlng: 34.71651496,135.50203676
      name:
      - 豊崎北公園
    北区豊崎7丁目1:
      latlng: 34.71334858,135.49908987
      name:
      - 豊崎中公園
    北区野崎町2:
      latlng: 34.70146422,135.50702015
      name:
      - 野崎公園
    北区長柄中2-3-30:
      latlng: 34.71366033,135.51577741
      name:
      - 豊崎東小学校
    北区長柄東1丁目3:
      latlng: 34.71112729,135.51631357
      name:
      - 鶴満寺公園
    北区長柄東1丁目6:
      latlng: 34.71205230,135.51941885
      name:
      - 長柄東公園
    北区長柄東1丁目、2丁目:
      latlng: 34.71082735,135.51741627
      name:
      - 毛馬公園
    北区長柄東2-2-30:
      latlng: 34.71345208,135.51742451
      name:
      - 新豊崎中学校
    北区長柄西1丁目7:
      latlng: 34.71478235,135.51380253
      name:
      - 長柄西公園
    北区長柄西2-6-20:
      latlng: 34.71702931,135.51356359
      name:
      - 豊仁小学校
    北区長柄西2丁目7:
      latlng: 34.71734873,135.51378022
      name:
      - 長柄公園
    北区黒崎町5:
      latlng: 34.70731914,135.50878372
      name:
      - 黒崎町公園
    城東区中央1丁目3:
      latlng: 34.70083709,135.54189797
      name:
      - 蒲生中公園
    城東区中央2丁目2:
      latlng: 34.70368398,135.54142020
      name:
      - 成育南公園
    城東区中央3-9-24:
      latlng: 34.70540332,135.54513644
      name:
      - 蒲生中学校
    城東区中央3丁目8:
      latlng: 34.70360073,135.54532258
      name:
      - 蒲生公園
    城東区中浜1丁目6:
      latlng: 34.68701647,135.54218419
      name:
      - 中浜公園
    城東区中浜2-12-35:
      latlng: 34.68560553,135.54363961
      name:
      - 中浜小学校
    城東区中浜2丁目9:
      latlng: 34.68439454,135.54238141
      name:
      - 中浜中央公園
    城東区中浜3丁目1:
      latlng: 34.68486669,135.54050381
      name:
      - 白山公園
    城東区今福南2-1-53:
      latlng: 34.69628777,135.55134432
      name:
      - 今福小学校
    城東区今福南2丁目17:
      latlng: 34.69822369,135.55276916
      name:
      - 今福南中央公園
    城東区今福南2丁目4:
      latlng: 34.69632946,135.55339412
      name:
      - 今福南古堤公園
    城東区今福南4丁目13:
      latlng: 34.69921530,135.55604105
      name:
      - 南今福北公園
    城東区今福南4丁目4:
      latlng: 34.69815432,135.55697430
      name:
      - 南今福公園
    城東区今福東1-3-26:
      latlng: 34.70072623,135.55526888
      name:
      - 鯰江東小学校
    城東区今福東1丁目4:
      latlng: 34.70095400,135.55620767
      name:
      - 鯰江東公園
    城東区今福東2丁目11:
      latlng: 34.70326489,135.55847964
      name:
      - 東今福公園
    城東区今福西1丁目15:
      latlng: 34.69922351,135.54907228
      name:
      - 西今福公園
    城東区今福西2丁目8:
      latlng: 34.69934576,135.55150815
      name:
      - 中今福公園
    城東区今福西3-9-27:
      latlng: 34.70159823,135.54816678
      name:
      - 鯰江小学校
    城東区今福西4-7-20:
      latlng: 34.70222880,135.55305241
      name:
      - 鯰江中学校
    城東区今福西5丁目13:
      latlng: 34.70478401,135.54895830
      name:
      - 鯰江北公園
    城東区今福西6丁目5:
      latlng: 34.70400637,135.55191637
      name:
      - 鯰江公園
    城東区今福西6丁目7:
      latlng: 34.70281483,135.55187196
      name:
      - 鯰江南公園
    城東区古市1-18-4:
      latlng: 34.70707836,135.55791572
      name:
      - 菫中学校
    城東区古市1-20-26:
      latlng: 34.70878930,135.55892948
      name:
      - 大阪産業大学附属高等学校
    城東区古市2-6-46:
      latlng: 34.71071964,135.55880723
      name:
      - すみれ小学校
    城東区古市2丁目6:
      latlng: 34.70993361,135.55822119
      name:
      - 古市中公園
    城東区古市2丁目7番30号:
      latlng: 34.71118624,135.55775176
      name:
      - 大阪信愛女学院高等学校
    城東区古市3丁目14:
      latlng: 34.71488583,135.55675175
      name:
      - 古市北公園
    城東区古市3丁目19:
      latlng: 34.71298330,135.55924880
      name:
      - 古市西北公園
    城東区天王田4:
      latlng: 34.69054121,135.55246649
      name:
      - 天王田・楠根公園
    城東区成育1-5-19:
      latlng: 34.70639485,135.54357822
      name:
      - 成育小学校
    城東区成育1丁目1:
      latlng: 34.70538381,135.54176455
      name:
      - 成育西公園
    城東区成育3丁目18:
      latlng: 34.70929456,135.54365312
      name:
      - 成育公園
    城東区放出西2-2-18:
      latlng: 34.69472690,135.55556337
      name:
      - 放出小学校
    城東区放出西2丁目15:
      latlng: 34.69257162,135.55750765
      name:
      - 西放出公園
    城東区放出西3-12-10:
      latlng: 34.69082182,135.55742433
      name:
      - 放出中学校
    城東区放出西3丁目20:
      latlng: 34.69161620,135.55899917
      name:
      - 放出西三公園
    城東区新喜多1丁目9:
      latlng: 34.69711525,135.53897886
      name:
      - 新喜多公園
    城東区新喜多2-4-35:
      latlng: 34.69714587,135.54303957
      name:
      - 聖賢小学校
    城東区新喜多東1丁目5:
      latlng: 34.69473233,135.54807244
      name:
      - 布屋公園
    城東区新喜多東1丁目8:
      latlng: 34.69555725,135.54868071
      name:
      - 新喜多東中央公園
    城東区新喜多東2丁目6:
      latlng: 34.69190216,135.55220261
      name:
      - 新喜多東公園
    城東区東中浜5-4-5:
      latlng: 34.68440296,135.54926684
      name:
      - 東中浜小学校
    城東区東中浜5丁目3:
      latlng: 34.68490012,135.54912797
      name:
      - 東中浜公園
    城東区東中浜6丁目、東中浜9丁目:
      latlng: 34.68241876,135.54950318
      name:
      - 千間川みどり公園
    城東区東中浜7丁目1:
      latlng: 34.68765264,135.55197767
      name:
      - 天王田公園
    城東区森之宮1-6-64:
      latlng: 34.68350014,135.53742912
      name:
      - 森之宮小学校
    城東区永田1丁目4:
      latlng: 34.68864705,135.55702439
      name:
      - 専永公園
    城東区永田2-15-5:
      latlng: 34.68686672,135.55838816
      name:
      - 諏訪小学校
    城東区永田2丁目12:
      latlng: 34.68664173,135.55736882
      name:
      - 左専道公園
    城東区永田3-3-58:
      latlng: 34.68187556,135.55562179
      name:
      - 城東中学校
    城東区永田4丁目14:
      latlng: 34.68133953,135.55700221
      name:
      - 永田公園
    城東区蒲生3丁目2:
      latlng: 34.69832072,135.54234518
      name:
      - 蒲生南公園
    城東区諏訪3-11-41:
      latlng: 34.68140627,135.56133791
      name:
      - 大阪府立成城高等学校
    城東区野江1丁目15:
      latlng: 34.70255353,135.54057309
      name:
      - 野江公園
    城東区野江1丁目9番9号:
      latlng: 34.70129530,135.53829556
      name:
      - 開明高等学校
    城東区野江2丁目15:
      latlng: 34.70351451,135.53959262
      name:
      - 榎並公園
    城東区野江4-1-28:
      latlng: 34.70936948,135.53919242
      name:
      - 榎並小学校
    城東区関目1丁目7:
      latlng: 34.70860025,135.54774165
      name:
      - 西関目公園
    城東区関目2丁目4:
      latlng: 34.70716711,135.55053587
      name:
      - 南関目公園
    城東区関目4-12-15:
      latlng: 34.71061957,135.55346328
      name:
      - 関目東小学校
    城東区関目4丁目3:
      latlng: 34.71028622,135.55041635
      name:
      - 関目中央公園
    城東区関目5丁目9:
      latlng: 34.71343306,135.54729988
      name:
      - 関目駅前小公園
    城東区関目6-5-5:
      latlng: 34.71466631,135.55049121
      name:
      - 関目小学校
    城東区関目6丁目3:
      latlng: 34.71309982,135.55076346
      name:
      - 北関目公園
    城東区鴫野東1丁目5:
      latlng: 34.69479338,135.54471166
      name:
      - 鴫野北公園
    城東区鴫野東3-16-41:
      latlng: 34.69100775,135.54807803
      name:
      - 城東小学校
    城東区鴫野東3丁目23:
      latlng: 34.68914408,135.54826691
      name:
      - 鴫野東公園
    城東区鴫野西2丁目1:
      latlng: 34.69187416,135.53609308
      name:
      - 鴫野の森公園
    城東区鴫野西3-3-64:
      latlng: 34.69435728,135.54166474
      name:
      - 城陽中学校
    城東区鴫野西4-11-48:
      latlng: 34.69141317,135.54129257
      name:
      - 鴫野小学校
    城東区鴫野西4丁目11:
      latlng: 34.69141317,135.54129257
      name:
      - 鴫野公園
    城東区鴫野西4丁目18:
      latlng: 34.68960505,135.54163978
      name:
      - 鴫野西公園
    大正区三軒家東1丁目1:
      latlng: 34.66690669,135.48000108
      name:
      - 大正橋公園
    大正区三軒家東2-12-63:
      latlng: 34.66031860,135.47975132
      name:
      - 三軒家東小学校
    大正区三軒家東2丁目12:
      latlng: 34.65990476,135.47939025
      name:
      - 三軒家公園
    大正区三軒家東4-4-30:
      latlng: 34.66202668,135.47761534
      name:
      - 大正東中学校
    大正区三軒家西1-20-26:
      latlng: 34.66484021,135.47698196
      name:
      - 三軒家西小学校
    大正区三軒家西1丁目3:
      latlng: 34.66663167,135.47749575
      name:
      - 岩崎橋公園
    大正区北村2丁目16:
      latlng: 34.65125553,135.46658337
      name:
      - 北村公園
    大正区北村3-1-1:
      latlng: 34.65009740,135.46899708
      name:
      - 大正北中学校
    大正区千島1-16-16:
      latlng: 34.65379710,135.47456590
      name:
      - 泉尾東小学校
    大正区千島1丁目16:
      latlng: 34.65414984,135.47462144
      name:
      - 南泉尾公園
    大正区千島2丁目:
      latlng: 34.65052438,135.47396574
      name:
      - 千島公園
    大正区千島3丁目8:
      latlng: 34.65140563,135.47033303
      name:
      - 千林橋公園
    大正区南恩加島1丁目10、平尾1丁目11:
      latlng: 34.63712681,135.47568295
      name:
      - 平尾玄開公園
    大正区南恩加島1丁目13:
      latlng: 34.63427707,135.47205837
      name:
      - 南恩加島公園
    大正区南恩加島3-6-11:
      latlng: 34.63660173,135.46949467
      name:
      - 南恩加島小学校
    大正区南恩加島6-14-37:
      latlng: 34.63647107,135.46513675
      name:
      - 大正西中学校
    大正区南恩加島6丁目14:
      latlng: 34.63620996,135.46423129
      name:
      - 南恩加島西公園
    大正区小林東2-4-45:
      latlng: 34.64650627,135.47416338
      name:
      - 小林小学校
    大正区小林東2丁目:
      latlng: 34.64508702,135.47506780
      name:
      - 小林公園
    大正区小林東3-23-5:
      latlng: 34.64409260,135.47172480
      name:
      - 大正中央中学校
    大正区小林西2丁目16:
      latlng: 34.64301207,135.46789463
      name:
      - 小林南公園
    大正区平尾2-21-28:
      latlng: 34.64084858,135.47401912
      name:
      - 平尾小学校
    大正区平尾2丁目22:
      latlng: 34.64049305,135.47325809
      name:
      - 平尾公園
    大正区泉尾1丁目29:
      latlng: 34.66066846,135.47459065
      name:
      - 泉尾上公園
    大正区泉尾2-21-24:
      latlng: 34.66050452,135.47094376
      name:
      - 泉尾北小学校
    大正区泉尾3-19-50:
      latlng: 34.65854085,135.46995781
      name:
      - 大阪府立泉尾高等学校
    大正区泉尾3-23-34:
      latlng: 34.65960460,135.46976056
      name:
      - 中泉尾小学校
    大正区泉尾4丁目21:
      latlng: 34.65689104,135.46939681
      name:
      - 泉尾公園
    大正区泉尾5-17-31:
      latlng: 34.65379697,135.46887752
      name:
      - 北恩加島小学校
    大正区泉尾5-6-7:
      latlng: 34.65401092,135.47181337
      name:
      - 泉尾工業高等学校
    大正区泉尾7-11-20:
      latlng: ''
      name:
      - 大阪府立大正高等学校
    大正区泉尾7丁目17:
      latlng: 34.65483285,135.46555556
      name:
      - 泉尾浜公園
    大正区鶴町1丁目19:
      latlng: 34.63582641,135.45496547
      name:
      - 鶴町南公園
    大正区鶴町2-20-26:
      latlng: 34.63822608,135.45291002
      name:
      - 鶴浜小学校
    大正区鶴町2-6-24:
      latlng: 34.63945659,135.45643746
      name:
      - 鶴町小学校
    大正区鶴町2丁目7:
      latlng: 34.63877887,135.45571532
      name:
      - 鶴町中央公園
    大正区鶴町4丁目4:
      latlng: 34.64421155,135.45467912
      name:
      - 鶴町北公園
    天王寺区上本町3丁目4:
      latlng: 34.67181234,135.52133628
      name:
      - 空清町公園
    天王寺区上本町7丁目2:
      latlng: 34.66308823,135.51789227
      name:
      - 上七公園
    天王寺区上本町8丁目8:
      latlng: 34.65914144,135.51740349
      name:
      - 上八公園
    天王寺区上汐3丁目5:
      latlng: 34.66395758,135.51715344
      name:
      - 上汐北公園
    天王寺区上汐4-1-25:
      latlng: 34.66323543,135.51714234
      name:
      - 生魂小学校
    天王寺区上汐4丁目2:
      latlng: 34.66215777,135.51685071
      name:
      - 上汐公園
    天王寺区下寺町2丁目6:
      latlng: 34.65508905,135.51051532
      name:
      - 大岸公園
    天王寺区北河堀町6-20:
      latlng: 34.64988136,135.51780640
      name:
      - 天王寺中学校
    天王寺区南河堀町丁目(高架下):
      latlng: ''
      name:
      - 南河堀公園
    天王寺区味原町8-19:
      latlng: 34.66726290,135.52772463
      name:
      - 味原小学校
    天王寺区四天王寺1-9-18:
      latlng: 34.65647226,135.51466213
      name:
      - 大江小学校
    天王寺区国分町14:
      latlng: 34.65129792,135.52456684
      name:
      - 国分公園
    天王寺区城南寺町1-31:
      latlng: 34.67147907,135.52347220
      name:
      - 高津中学校
    天王寺区堀越町2:
      latlng: 34.65030908,135.51635653
      name:
      - 庚申堂公園
    天王寺区堂ヶ芝1-2-23:
      latlng: 34.66171072,135.52821077
      name:
      - 桃陽小学校
    天王寺区堂ヶ芝2丁目17:
      latlng: 34.65894431,135.52450006
      name:
      - 五条小公園
    天王寺区大道1-4-49:
      latlng: 34.65248105,135.51593708
      name:
      - 天王寺小学校
    天王寺区大道3丁目7:
      latlng: 34.65005913,135.51956456
      name:
      - 稲生公園
    天王寺区大道4丁目6:
      latlng: 34.64899816,135.52165605
      name:
      - 大道北公園
    天王寺区大道5丁目9:
      latlng: 34.64710948,135.52205327
      name:
      - 大道南公園
    天王寺区寺田町1-6-37:
      latlng: 34.65183951,135.52205596
      name:
      - 聖和小学校
    天王寺区寺田町1丁目5:
      latlng: 34.65277273,135.52085328
      name:
      - 寺田町公園
    天王寺区小宮町6-28:
      latlng: 34.66059963,135.51961993
      name:
      - 夕陽丘中学校
    天王寺区小宮町9-28:
      latlng: 34.65888871,135.51939220
      name:
      - 五条小学校
    天王寺区小橋町3:
      latlng: 34.66674071,135.52600536
      name:
      - 小橋公園
    天王寺区東高津町2:
      latlng: 34.66831829,135.52300284
      name:
      - 東高津公園
    天王寺区清水谷町16:
      latlng: 34.67306501,135.52336942
      name:
      - 清水谷公園
    天王寺区烏ヶ辻2-9-37:
      latlng: 34.65648902,135.52434455
      name:
      - 天王寺商業高等学校
    天王寺区烏ヶ辻2丁目5:
      latlng: 34.65770832,135.52331130
      name:
      - 五条公園
    天王寺区玉造本町14:
      latlng: 34.67167077,135.52789401
      name:
      - 宰相山公園
      - 宰相山西公園
    天王寺区玉造本町14-41:
      latlng: 34.67209572,135.52772180
      name:
      - 真田山小学校
    天王寺区生玉町13:
      latlng: 34.66496853,135.51285936
      name:
      - 生玉公園
    天王寺区真田山町5:
      latlng: 34.66988763,135.52856896
      name:
      - 真田山公園
    天王寺区石ヶ辻町11:
      latlng: 34.66337437,135.52243352
      name:
      - 石ヶ辻公園
    天王寺区茶臼山町:
      latlng: 34.65044981,135.50995937
      name:
      - 天王寺公園
    天王寺区逢阪1丁目3:
      latlng: 34.65426137,135.51089030
      name:
      - 逢阪公園
    平野区加美北4丁目2:
      latlng: 34.64001088,135.56009436
      name:
      - 加美北公園
    平野区加美北5丁目9:
      latlng: 34.63710012,135.56200258
      name:
      - 加美長沢西公園
    平野区加美北6丁目13:
      latlng: 34.63468640,135.55679755
      name:
      - 加美柿花公園
    平野区加美北6丁目14:
      latlng: 34.63380872,135.55695311
      name:
      - 加美正北ふれあい公園
    平野区加美北7-4-10:
      latlng: 34.63648627,135.56017498
      name:
      - 加美北小学校
    平野区加美北8丁目3:
      latlng: 34.63634193,135.56479401
      name:
      - 加美長沢公園
    平野区加美南1-10-15:
      latlng: 34.62361008,135.57000494
      name:
      - 加美南中学校
    平野区加美南1-9-17:
      latlng: 34.62431835,135.57027712
      name:
      - 加美南部小学校
    平野区加美南1丁目11:
      latlng: 34.62333513,135.57094097
      name:
      - 鞍作公園
    平野区加美東1丁目6:
      latlng: 34.63195355,135.56650229
      name:
      - 加美神明公園
    平野区加美東2丁目9:
      latlng: 34.63114259,135.56941037
      name:
      - 加美東北公園
    平野区加美東5-9-25:
      latlng: 34.62717084,135.57160193
      name:
      - 加美東小学校
    平野区加美東5丁目7:
      latlng: 34.62799850,135.57020481
      name:
      - 加美東公園
    平野区加美正覚寺3-13-35:
      latlng: 34.63099804,135.56320539
      name:
      - 加美小学校
    平野区加美正覚寺3-13-46:
      latlng: 34.63096191,135.56220270
      name:
      - 加美中学校
    平野区加美正覚寺3丁目1:
      latlng: 34.63280059,135.56163327
      name:
      - 加美正覚寺公園
    平野区加美正覚寺4丁目4:
      latlng: 34.62964261,135.56209441
      name:
      - 正覚寺中公園
    平野区加美西1丁目4:
      latlng: 34.62635682,135.56022522
      name:
      - たちばな公園
    平野区加美西2丁目5:
      latlng: 34.62475984,135.56374716
      name:
      - 加美西公園
    平野区喜連1-7-4:
      latlng: 34.61438293,135.55040976
      name:
      - 喜連北小学校
    平野区喜連1丁目8:
      latlng: 34.61343305,135.55166801
      name:
      - 喜連北第一公園
    平野区喜連6丁目7:
      latlng: 34.61358872,135.55828963
      name:
      - 喜連中公園
    平野区喜連7-6-4:
      latlng: 34.61152779,135.55598990
      name:
      - 喜連小学校
    平野区喜連東2-2-17:
      latlng: 34.61366655,135.56119770
      name:
      - 喜連東小学校
    平野区喜連東2丁目1:
      latlng: 34.61279994,135.55922568
      name:
      - 喜連八坂公園
    平野区喜連東3丁目6:
      latlng: 34.61081407,135.56051729
      name:
      - 喜連東公園
    平野区喜連西2丁目1:
      latlng: 34.61340508,135.54137170
      name:
      - 喜連西中央公園
    平野区喜連西3-17-61:
      latlng: 34.61251913,135.54502696
      name:
      - 喜連西小学校
    平野区喜連西3丁目17:
      latlng: 34.61220528,135.54520196
      name:
      - 喜連西公園
    平野区喜連西5丁目1:
      latlng: 34.61540497,135.54690727
      name:
      - 喜連北第二公園
    平野区喜連西6-2-11:
      latlng: 34.61147487,135.54857668
      name:
      - 喜連中学校
    平野区平野北1丁目1:
      latlng: 34.63365584,135.55067034
      name:
      - 平野北公園
    平野区平野南1丁目2:
      latlng: 34.62037409,135.55806724
      name:
      - 平野野堂公園
    平野区平野南2-3-8:
      latlng: 34.61818544,135.55807841
      name:
      - 平野南小学校
    平野区平野南3丁目11:
      latlng: 34.61884376,135.56088924
      name:
      - 平野南公園
    平野区平野宮町1-8-55:
      latlng: 34.62801483,135.55310359
      name:
      - 平野北中学校
    平野区平野宮町1-9-29:
      latlng: 34.62730938,135.55425351
      name:
      - 平野小学校
    平野区平野宮町1丁目3:
      latlng: 34.62849810,135.55202867
      name:
      - 元六公園
    平野区平野宮町1丁目7:
      latlng: 34.62953135,135.55382849
      name:
      - 杭全公園
    平野区平野市町1丁目8:
      latlng: 34.62776494,135.55743099
      name:
      - 坂上公園
    平野区平野市町3丁目10:
      latlng: 34.62565963,135.55836985
      name:
      - 京町公園
    平野区平野東2丁目11:
      latlng: 34.62251832,135.55898932
      name:
      - 平野公園
    平野区平野西3-4-7:
      latlng: 34.62017666,135.54590444
      name:
      - 摂陽中学校
    平野区平野西3丁目5:
      latlng: 34.61925453,135.54585169
      name:
      - 平野西公園
    平野区流町2-1-24:
      latlng: 34.61824641,135.55084572
      name:
      - 大阪教育大学附属平野中学校・高等学校
    平野区瓜破1-8-33:
      latlng: 34.60489231,135.55115999
      name:
      - 瓜破北小学校
    平野区瓜破2-5-31:
      latlng: 34.60678936,135.55320419
      name:
      - 瓜破中学校
    平野区瓜破5-3-11:
      latlng: 34.60266481,135.55280991
      name:
      - 瓜破小学校
    平野区瓜破5丁目1:
      latlng: 34.60281203,135.55357928
      name:
      - 瓜破北西公園
    平野区瓜破6丁目3:
      latlng: 34.59949288,135.54936589
      name:
      - 瓜破駒ヶ池公園
    平野区瓜破南1丁目:
      latlng: 34.59661820,135.54805613
      name:
      - 瓜破南大和川公園
    平野区瓜破南2丁目2:
      latlng: 34.59539340,135.55346009
      name:
      - 瓜破南公園
    平野区瓜破東2-5-78:
      latlng: 34.60715335,135.56067016
      name:
      - 瓜破東小学校
    平野区瓜破東2丁目2:
      latlng: 34.60727831,135.55897032
      name:
      - 瓜破東中公園
    平野区瓜破東2丁目5:
      latlng: 34.60759221,135.56123954
      name:
      - 瓜破東北公園
    平野区瓜破東3丁目1:
      latlng: 34.60552846,135.55669280
      name:
      - 瓜破第一公園
    平野区瓜破東4丁目4番164号:
      latlng: 34.60488969,135.55937869
      name:
      - 大阪市設瓜破霊園
    平野区瓜破東6丁目1:
      latlng: 34.60152891,135.55777338
      name:
      - 瓜破下池公園
    平野区瓜破東8丁目12:
      latlng: 34.59826546,135.56214807
      name:
      - 瓜破新池緑地南公園
      - 瓜破新池緑地公園
    平野区瓜破東8丁目6:
      latlng: 34.59993195,135.56226468
      name:
      - 瓜破新池緑地北公園
    平野区瓜破西1丁目8:
      latlng: 34.60848628,135.54675194
      name:
      - 瓜破西北公園
    平野区瓜破西2-1-43:
      latlng: 34.60407283,135.54450228
      name:
      - 瓜破西小学校
    平野区瓜破西2-12-22:
      latlng: 34.60240637,135.54552169
      name:
      - 瓜破西中学校
    平野区瓜破西2丁目9:
      latlng: 34.60315349,135.54479117
      name:
      - 瓜破西ヶ池公園
    平野区背戸口1-16-26:
      latlng: 34.62373178,135.54263241
      name:
      - 平野中学校
    平野区背戸口1-5-22:
      latlng: 34.62426781,135.54174358
      name:
      - 新平野西小学校
    平野区背戸口4-1-31:
      latlng: 34.62530947,135.54749861
      name:
      - 平野西小学校
    平野区背戸口5丁目2:
      latlng: 34.62261252,135.54676263
      name:
      - 背戸口公園
    平野区西脇2丁目2:
      latlng: 34.62803971,135.54626531
      name:
      - 西脇公園
    平野区長吉六反1丁目14:
      latlng: 34.60800369,135.58189872
      name:
      - 六反赤坂公園
    平野区長吉六反3-2-17:
      latlng: 34.60457622,135.57874356
      name:
      - 長吉南小学校
    平野区長吉六反3丁目17:
      latlng: 34.60551507,135.58181825
      name:
      - 六反南公園
    平野区長吉六反3丁目4:
      latlng: 34.60486231,135.57911574
      name:
      - 六反西公園
    平野区長吉六反4-9-61:
      latlng: 34.60887868,135.58556503
      name:
      - 長吉六反中学校
    平野区長吉六反4丁目7:
      latlng: 34.60776491,135.58584559
      name:
      - 六反東公園
    平野区長吉六反5-3-41:
      latlng: 34.60673170,135.58627614
      name:
      - 長吉六反小学校
    平野区長吉出戸1丁目11:
      latlng: 34.61465817,135.56448903
      name:
      - 長吉出戸公園
    平野区長吉出戸3-1-43:
      latlng: 34.61223355,135.57028022
      name:
      - 長吉出戸小学校
    平野区長吉出戸5丁目3:
      latlng: 34.60951995,135.57003033
      name:
      - 出戸池公園
    平野区長吉出戸5丁目4:
      latlng: 34.61078371,135.57083577
      name:
      - 長吉公園
    平野区長吉出戸8-13-41:
      latlng: 34.60828687,135.57627423
      name:
      - 長吉東小学校
    平野区長吉出戸8丁目14:
      latlng: 34.60747031,135.57706585
      name:
      - 出戸南公園
    平野区長吉川辺1-4-9:
      latlng: 34.59656856,135.56958909
      name:
      - 川辺小学校
    平野区長吉川辺2丁目1:
      latlng: 34.59765181,135.57143611
      name:
      - 川辺中公園
    平野区長吉川辺2丁目北1:
      latlng: 34.59874890,135.57085557
      name:
      - 川辺北公園
    平野区長吉川辺3丁目11:
      latlng: 34.59608267,135.57791611
      name:
      - 長吉東部南公園
    平野区長吉川辺3丁目2:
      latlng: 34.59916563,135.57594954
      name:
      - 川辺東公園
    平野区長吉川辺4-2-11:
      latlng: 34.58898326,135.57001149
      name:
      - 大阪府立平野高等学校
    平野区長吉川辺4丁目1:
      latlng: 34.59234121,135.56823656
      name:
      - 川辺南公園
    平野区長吉長原1丁目3:
      latlng: 34.60650359,135.56908329
      name:
      - 長吉瓜破3号公園
    平野区長吉長原2-6-55:
      latlng: 34.60588144,135.56930551
      name:
      - 長吉小学校
    平野区長吉長原2丁目14:
      latlng: 34.60494271,135.57222193
      name:
      - なみはや公園
    平野区長吉長原4丁目9:
      latlng: 34.60156805,135.57117213
      name:
      - 長原公園
    平野区長吉長原東1-6-15:
      latlng: 34.60534829,135.57570215
      name:
      - 長吉中学校
    平野区長吉長原東2丁目9:
      latlng: 34.60182646,135.57606889
      name:
      - 長吉東部中央公園
    平野区長吉長原東3-10-9:
      latlng: 34.59957117,135.57741050
      name:
      - 長原小学校
    平野区長吉長原西2丁目4:
      latlng: 34.60524811,135.56613082
      name:
      - 長原西公園
    平野区長吉長原西3-8-21:
      latlng: 34.60089580,135.56579487
      name:
      - 長吉西中学校
    平野区長吉長原西3丁目9:
      latlng: 34.60037922,135.56743918
      name:
      - 長吉西中学前公園
    旭区中宮1-8-14:
      latlng: 34.72279864,135.54168615
      name:
      - 大宮西小学校
    旭区中宮1丁目11:
      latlng: 34.72112107,135.54272778
      name:
      - 中宮1公園
    旭区中宮2丁目18:
      latlng: 34.72400405,135.54141946
      name:
      - 江野公園
    旭区中宮4-7-11:
      latlng: 34.72667320,135.54180545
      name:
      - 大宮中学校
    旭区今市2丁目7:
      latlng: 34.72650120,135.55395997
      name:
      - 今市公園
    旭区千林2丁目9:
      latlng: 34.72500131,135.55126858
      name:
      - 千林公園
    旭区大宮1丁目1:
      latlng: 34.72077390,135.54419712
      name:
      - 大宮南公園
    旭区大宮3丁目1:
      latlng: 34.72556503,135.54490522
      name:
      - 大宮中公園
    旭区大宮4-9-16:
      latlng: 34.72724264,135.54599118
      name:
      - 大宮小学校
    旭区大宮4丁目2:
      latlng: 34.72706209,135.54509960
      name:
      - 大宮ふれあい公園
    旭区大宮5-11-7:
      latlng: 34.73050897,135.54849086
      name:
      - 思斉養護学校
    旭区大宮5-13-40:
      latlng: 34.73234212,135.54992123
      name:
      - 今市中学校
    旭区大宮5-16-1:
      latlng: 34.73083666,135.54612716
      name:
      - 常翔学園高等学校 (体育館)
      - 大阪工業大学 (体育館)
    旭区大宮5丁目(高架下):
      latlng: 34.73226231,135.54766222
      name:
      - 大宮北公園
    旭区太子橋1-12-15:
      latlng: 34.73246719,135.55370423
      name:
      - 太子橋小学校
    旭区太子橋1丁目17:
      latlng: 34.73254214,135.55169329
      name:
      - 太子橋西公園
    旭区太子橋1丁目8:
      latlng: 34.73024516,135.55103787
      name:
      - 太子橋南公園
    旭区太子橋2丁目7:
      latlng: 34.73595573,135.55566783
      name:
      - 太子橋中公園
    旭区太子橋3-1-32:
      latlng: 34.73705571,135.55981466
      name:
      - 大阪府立淀川工科高等学校
    旭区太子橋3丁目3:
      latlng: 34.73841388,135.55925910
      name:
      - 太子橋東公園
    旭区新森1丁目4:
      latlng: 34.71579397,135.55038285
      name:
      - 新森南公園
    旭区新森1丁目7:
      latlng: 34.71610508,135.55233822
      name:
      - 新森南小公園
    旭区新森3丁目12:
      latlng: 34.72009079,135.55426849
      name:
      - 新森北公園
    旭区新森4丁目22:
      latlng: 34.71805494,135.55671277
      name:
      - 新森中央公園
    旭区新森6-3-13:
      latlng: 34.71604134,135.56148185
      name:
      - 新森小路小学校
    旭区新森6-7-25:
      latlng: 34.71825500,135.56140958
      name:
      - 旭東中学校
    旭区新森6丁目8:
      latlng: 34.71797728,135.56355107
      name:
      - 新森東公園
    旭区森小路1丁目12:
      latlng: 34.72142667,135.54914389
      name:
      - 森小路南公園
    旭区森小路1丁目7:
      latlng: 34.72030459,135.55021050
      name:
      - 森小路東公園
    旭区森小路2-10-35:
      latlng: 34.72253770,135.55132977
      name:
      - 古市小学校
    旭区森小路2丁目5:
      latlng: 34.72323203,135.54947991
      name:
      - 森小路公園
    旭区清水2丁目13:
      latlng: 34.72189901,135.55895968
      name:
      - 清水南公園
    旭区清水2丁目6:
      latlng: 34.72102686,135.55777370
      name:
      - 清水小公園
    旭区清水3丁目31:
      latlng: 34.72361273,135.56016230
      name:
      - 清水中公園
    旭区清水3丁目9:
      latlng: 34.72447648,135.55757639
      name:
      - 清水北公園
    旭区清水4丁目12:
      latlng: 34.72195189,135.56475919
      name:
      - 両国町公園
    旭区清水5-1-12:
      latlng: 34.72322114,135.56173163
      name:
      - 清水小学校
    旭区生江1-10-21:
      latlng: 34.72328742,135.53758092
      name:
      - 生江小学校
    旭区生江1丁目2:
      latlng: 34.72207920,135.53542559
      name:
      - 生江西公園
    旭区生江1丁目4:
      latlng: 34.72332628,135.53537278
      name:
      - 生江南公園
    旭区生江2丁目11:
      latlng: 34.72453449,135.53736423
      name:
      - 生江東公園
    旭区生江3丁目29:
      latlng: 34.72875345,135.53813903
      name:
      - 城北公園
    旭区赤川1丁目4:
      latlng: 34.72354845,135.53278409
      name:
      - 赤川南公園
    旭区赤川3-13-47:
      latlng: 34.72775899,135.52961477
      name:
      - 城北小学校
    旭区赤川4丁目21:
      latlng: 34.72942546,135.53049799
      name:
      - 赤川公園
    旭区高殿1丁目:
      latlng: 34.71947672,135.53398971
      name:
      - 西浪橋公園
    旭区高殿1丁目3:
      latlng: 34.71883234,135.53469799
      name:
      - 高殿西公園
    旭区高殿2丁目4:
      latlng: 34.71653538,135.53702289
      name:
      - 高殿南公園
    旭区高殿3-10-30:
      latlng: 34.71390236,135.53937278
      name:
      - 高殿南小学校
    旭区高殿3丁目5:
      latlng: 34.71286358,135.53958392
      name:
      - 高殿南三公園
    旭区高殿4丁目7:
      latlng: 34.71506337,135.54173364
      name:
      - 高殿南四公園
    旭区高殿5-6-41:
      latlng: 34.71835470,135.54208349
      name:
      - 大阪府立旭高等学校
    旭区高殿5-9-31:
      latlng: 34.71847966,135.54008088
      name:
      - 旭陽中学校
    旭区高殿5丁目7:
      latlng: 34.71835468,135.54080860
      name:
      - 旭公園
    旭区高殿6-9-10:
      latlng: 34.71791309,135.54301676
      name:
      - 高殿小学校
    旭区高殿7丁目15:
      latlng: 34.71751876,135.54904958
      name:
      - 高殿7公園
    東住吉区中野1丁目8:
      latlng: 34.62316782,135.53555805
      name:
      - 中野町公園
    東住吉区中野3丁目10:
      latlng: 34.61841835,135.53752189
      name:
      - 南百済公園
    東住吉区中野4-4-25:
      latlng: 34.61997656,135.53949112
      name:
      - 中野中学校
    東住吉区今川1-2-21:
      latlng: 34.63086979,135.53620503
      name:
      - 白鷺中学校
    東住吉区今川1丁目1:
      latlng: 34.63101975,135.53464405
      name:
      - うるし堤公園
    東住吉区今川4-24-4:
      latlng: 34.62714519,135.53559405
      name:
      - 今川小学校
    東住吉区今川4丁目1:
      latlng: 34.62962823,135.53373028
      name:
      - つくし公園
    東住吉区今川4丁目12:
      latlng: 34.62890336,135.53686334
      name:
      - わかば公園
    東住吉区今川4丁目23:
      latlng: 34.62675910,135.53461081
      name:
      - 今川公園
    東住吉区今川6丁目7:
      latlng: 34.62703420,135.54272120
      name:
      - 平野白鷺公園
    東住吉区今林4丁目4:
      latlng: 34.63716647,135.54532352
      name:
      - 今林公園
    東住吉区住道矢田1丁目7:
      latlng: 34.60150067,135.53296445
      name:
      - 矢田公園
    東住吉区住道矢田2-7-43:
      latlng: 34.60291449,135.53770567
      name:
      - 矢田東小学校
    東住吉区住道矢田2丁目11:
      latlng: 34.60323392,135.53870557
      name:
      - 矢田東公園
    東住吉区住道矢田3-9:
      latlng: 34.59958429,135.53648365
      name:
      - 西浦池グランド
    東住吉区住道矢田6丁目8:
      latlng: 34.60673636,135.54147745
      name:
      - 矢田河原田公園
    東住吉区住道矢田9-7-55:
      latlng: 34.60182579,135.54109708
      name:
      - 矢田中学校
    東住吉区公園南矢田2-12-47:
      latlng: 34.60438352,135.52409291
      name:
      - 矢田西中学校
    東住吉区公園南矢田2-15-43:
      latlng: 34.60447798,135.52577331
      name:
      - 矢田西小学校
    東住吉区公園南矢田2丁目2:
      latlng: 34.60475846,135.52306521
      name:
      - 公園南小公園
    東住吉区公園南矢田3丁目17:
      latlng: 34.60024236,135.52562345
      name:
      - 矢田西公園
    東住吉区公園南矢田4-30-3:
      latlng: 34.59882864,135.52624566
      name:
      - 東住吉スポーツセンター
    東住吉区公園南矢田4丁目22:
      latlng: 34.59755655,135.52532911
      name:
      - 枯木町公園
    東住吉区北田辺1丁目8:
      latlng: 34.63620516,135.52420605
      name:
      - 北田辺公園
    東住吉区北田辺3-11-14:
      latlng: 34.63276109,135.52479495
      name:
      - 北田辺小学校
    東住吉区北田辺3丁目6:
      latlng: 34.63391653,135.52529210
      name:
      - 北田辺中公園
    東住吉区北田辺4丁目2:
      latlng: 34.63452758,135.52607813
      name:
      - 北田辺4公園
    東住吉区南田辺1-9-28:
      latlng: 34.62152894,135.52547568
      name:
      - 早川福祉会館
    東住吉区南田辺4-3-4:
      latlng: 34.61765427,135.52221495
      name:
      - 南田辺小学校
    東住吉区南田辺4-7-24:
      latlng: 34.61583778,135.52206500
      name:
      - 田辺中学校
    東住吉区山坂2丁目19:
      latlng: 34.62331760,135.52148713
      name:
      - 山坂公園
    東住吉区杭全4-10-12:
      latlng: 34.63439998,135.53776315
      name:
      - 育和小学校
    東住吉区杭全4丁目3:
      latlng: 34.63377779,135.53517173
      name:
      - 杭全西公園
    東住吉区杭全8丁目5:
      latlng: 34.63359180,135.54136840
      name:
      - 育和公園
    東住吉区東田辺1丁目11:
      latlng: 34.62226226,135.52891423
      name:
      - 東田辺さくら公園
    東住吉区東田辺1丁目16:
      latlng: 34.62165674,135.52761437
      name:
      - 東田辺公園
    東住吉区東田辺2-14-6:
      latlng: 34.62018467,135.52788382
      name:
      - 東田辺小学校
    東住吉区東田辺3丁目4:
      latlng: 34.61867928,135.52877822
      name:
      - 東田辺中央公園
    東住吉区桑津1丁目12:
      latlng: 34.64202401,135.52913047
      name:
      - 桑津北公園
    東住吉区桑津3丁目6:
      latlng: 34.63829666,135.52988880
      name:
      - 桑津公園
    東住吉区桑津4丁目10:
      latlng: 34.63736902,135.53306352
      name:
      - 桑津東公園
    東住吉区桑津5-13-13:
      latlng: 34.63565530,135.53103875
      name:
      - 桑津小学校
    東住吉区桑津5-17-25:
      latlng: 34.63559976,135.53208309
      name:
      - 東住吉中学校
    東住吉区湯里1-15-40:
      latlng: 34.61504644,135.53491943
      name:
      - 南百済小学校
    東住吉区湯里5丁目7:
      latlng: 34.61009699,135.53620280
      name:
      - 湯里の森公園
    東住吉区湯里6-8-3:
      latlng: 34.61041092,135.53970249
      name:
      - 湯里小学校
    東住吉区照ケ丘矢田2丁目14番10号:
      latlng: 34.60796115,135.53779439
      name:
      - 城南学園(総合体育館)
    東住吉区照ヶ丘矢田1丁目16:
      latlng: 34.60811107,135.53468077
      name:
      - 照ヶ丘矢田公園
    東住吉区照ヶ丘矢田2-1-55:
      latlng: 34.60884714,135.53635005
      name:
      - 矢田北小学校
    東住吉区照ヶ丘矢田3丁目11:
      latlng: 34.60381155,135.53476422
      name:
      - 矢田住道公園
    東住吉区田辺2-3-34:
      latlng: 34.62592295,135.52613663
      name:
      - 田辺小学校
    東住吉区田辺6丁目9:
      latlng: 34.62571190,135.52847253
      name:
      - 田辺中公園
    東住吉区矢田1丁目22:
      latlng: 34.60670835,135.52944515
      name:
      - 矢田部公園
    東住吉区矢田2丁目14番19号:
      latlng: 34.60802491,135.53146994
      name:
      - 大阪芸術大学短期大学部
    東住吉区矢田3-4-27:
      latlng: 34.60398364,135.52828422
      name:
      - 矢田南中学校
    東住吉区矢田3丁目5:
      latlng: 34.60437526,135.52834254
      name:
      - 矢田中公園
    東住吉区矢田4丁目10:
      latlng: 34.60309490,135.53101179
      name:
      - 矢田中中央公園
    東住吉区矢田5-1-22:
      latlng: 34.60191166,135.52823151
      name:
      - 矢田小学校
    東住吉区矢田5丁目2:
      latlng: 34.59992022,135.52834823
      name:
      - 矢田教育の森公園
    東住吉区矢田5丁目7:
      latlng: 34.59865927,135.52913986
      name:
      - 大和川東公園
    東住吉区矢田6丁目9:
      latlng: 34.60170617,135.53124515
      name:
      - 矢田6公園
    東住吉区矢田7丁目6:
      latlng: 34.59525689,135.52971769
      name:
      - 枯木南公園
    東住吉区長居公園1丁目:
      latlng: 34.61181873,135.52001528
      name:
      - 長居第2陸上競技場
      - 長居陸上競技場
      - 長居球技場
    東住吉区駒川1丁目20:
      latlng: 34.63416935,135.53044994
      name:
      - 駒川北公園
    東住吉区駒川2丁目3:
      latlng: 34.62937543,135.53068335
      name:
      - 駒川公園
    東住吉区駒川3丁目10:
      latlng: 34.62589247,135.53081397
      name:
      - 田辺公園
    東住吉区鷹合2丁目5:
      latlng: 34.61484639,135.53116977
      name:
      - 酒君塚公園
    東住吉区鷹合3-12-38:
      latlng: 34.61223828,135.52954775
      name:
      - 鷹合小学校
    東住吉区鷹合4丁目5:
      latlng: 34.61117454,135.53083656
      name:
      - 鷹合公園
    東成区中本1丁目1:
      latlng: 34.68276970,135.54041494
      name:
      - 千間川公園
    東成区中本2丁目28:
      latlng: 34.67682314,135.54089827
      name:
      - 北中本公園
    東成区中本4-2-32:
      latlng: 34.67648427,135.53944564
      name:
      - 中本小学校
    東成区中本5丁目2:
      latlng: 34.67692869,135.54145933
      name:
      - 中本くすのき公園
    東成区中道2-9-20:
      latlng: 34.67939504,135.53754025
      name:
      - 北中道小学校
    東成区中道2丁目28:
      latlng: 34.67777579,135.53847628
      name:
      - 北中道公園
    東成区中道4丁目5:
      latlng: 34.67661478,135.53686256
      name:
      - 中道中央公園
    東成区大今里1-35-29:
      latlng: 34.67172652,135.54482570
      name:
      - 今里小学校
    東成区大今里2丁目35:
      latlng: 34.67110722,135.55033348
      name:
      - 大今里ふれあい公園
    東成区大今里3丁目17:
      latlng: 34.66953787,135.54462852
      name:
      - 今里西之口公園
    東成区大今里4-6-19:
      latlng: 34.66958794,135.55011685
      name:
      - 神路小学校
    東成区大今里4丁目16:
      latlng: 34.66867413,135.54849204
      name:
      - 大今里公園
    東成区大今里南1丁目26:
      latlng: 34.66539388,135.54519797
      name:
      - 今里南公園
    東成区大今里南2-13-2:
      latlng: 34.66629658,135.54657560
      name:
      - 片江小学校
    東成区大今里南4丁目15:
      latlng: 34.66558565,135.55270555
      name:
      - 大今里南公園
    東成区大今里西1丁目10:
      latlng: 34.67382904,135.54244814
      name:
      - 南中本公園
    東成区大今里西2丁目6:
      latlng: 34.66998776,135.54035116
      name:
      - 平戸公園
    東成区大今里西3-2-62:
      latlng: 34.66744915,135.54035953
      name:
      - 大成小学校
    東成区東中本2-9-3:
      latlng: 34.67924515,135.54572278
      name:
      - 東中本小学校
    東成区東中本2丁目12:
      latlng: 34.67821196,135.54815588
      name:
      - 神路公園
    東成区東中本3-14-2:
      latlng: ''
      name:
      - 本庄中学校
    東成区東中本3丁目15:
      latlng: 34.67618159,135.54530062
      name:
      - 東中本公園
    東成区東今里1丁目1:
      latlng: 34.68109501,135.55044730
      name:
      - 千間川みどり公園
    東成区東小橋1丁目9:
      latlng: 34.67322900,135.53343514
      name:
      - 東小橋北公園
    東成区東小橋2丁目1:
      latlng: 34.67005710,135.53270746
      name:
      - 東小橋公園
    東成区東小橋3-10-37:
      latlng: 34.66714908,135.53289081
      name:
      - 東小橋小学校
    東成区深江北1丁目10:
      latlng: 34.67589012,135.55631063
      name:
      - 阪陽公園
    東成区深江北2-5-7:
      latlng: ''
      name:
      - 東陽中学校
    東成区深江北2丁目16:
      latlng: 34.67385983,135.55900203
      name:
      - 深江公園
    東成区深江北3丁目16:
      latlng: 34.67540694,135.56196287
      name:
      - 東深江公園
    東成区深江南1-4-6:
      latlng: 34.67236550,135.55571904
      name:
      - 深江小学校
    東成区深江南1丁目7:
      latlng: 34.67128784,135.55572182
      name:
      - 西深江公園
    東成区深江南2丁目9:
      latlng: 34.67062963,135.55882983
      name:
      - 南深江公園
    東成区玉津1-12-43:
      latlng: ''
      name:
      - 玉津中学校
    東成区玉津1-7-39:
      latlng: 34.67247080,135.53794304
      name:
      - 中道小学校
    東成区玉津1丁目11:
