佐賀:
  みやき町:
    原古賀1364-2:
      latlng: 33.35031801,130.43963974
      name:
      - みやき町立中原小学校
    原古賀300:
      latlng: 33.34313536,130.44330947
      name:
      - 県立三養基高等学校
    天建寺2400:
      latlng: 33.29484255,130.44867779
      name:
      - みやき町立三根東小学校
    寄人1385:
      latlng: 33.28671162,130.42020807
      name:
      - みやき町立三根西小学校
    市武1661:
      latlng: 33.29400581,130.43284027
      name:
      - みやき町立三根中学校
    東尾420:
      latlng: 33.32513179,130.45770676
      name:
      - みやき町立北茂安小学校
    東尾4435:
      latlng: 33.33529480,130.45856740
      name:
      - みやき町立北茂安中学校
    東尾6436-4:
      latlng: ''
      name:
      - みやき町北茂安保健センター
    簑原1003-1:
      latlng: 33.34625457,130.44445085
      name:
      - みやき町中原体育館
    簑原1475-第9:
      latlng: 33.34832670,130.44820326
      name:
      - みやき町立中原中学校
  上峰町:
    前牟田429-1:
      latlng: ''
      name:
      - 上峰町前牟田地区学習等供用施設
    坊所235:
      latlng: ''
      name:
      - 上峰町立上峰中学校体育館
    坊所2650-2:
      latlng: 33.32340300,130.42012600
      name:
      - 上峰町体育センター
    坊所319-4:
      latlng: 33.31858126,130.42598982
      name:
      - 上峰町民センター
    坊所651:
      latlng: 33.31834231,130.42315944
      name:
      - 上峰町立上峰小学校体育館
    堤1923-11:
      latlng: ''
      name:
      - 上峰町農村婦人の家
    大字前牟田107番地2:
      latlng: 33.31012905,130.42374035
      name:
      - 上峰町おたっしゃ館
    江迎1174-1:
      latlng: ''
      name:
      - 上峰町農村集落多目的研修集会施設
  伊万里市:
    二里町大里乙1414:
      latlng: 33.26620948,129.85480188
      name:
      - 県立伊万里農林高等学校
    二里町大里乙284-1:
      latlng: 33.25844102,129.85505465
      name:
      - 伊万里市立二里小学校
    二里町大里乙321-3:
      latlng: 33.25672734,129.85469080
      name:
      - 伊万里市二里公民館
    二里町大里甲2153-1:
      latlng: 33.26722360,129.86993670
      name:
      - 伊万里市国見台運動公園
    二里町大里甲2600:
      latlng: 33.27152847,129.86458714
      name:
      - 県立伊万里高等学校
    南波多町井手野2685-1:
      latlng: 33.31280462,129.93077762
      name:
      - 伊万里市南波多公民館
    南波多町井手野2896-1:
      latlng: ''
      name:
      - 伊万里市南波多ミニスポーツ会館
    南波多町井手野2900:
      latlng: 33.31757898,129.92751383
      name:
      - 伊万里市立南波多中学校
    大坪町丙1427:
      latlng: 33.26645511,129.89427881
      name:
      - 県立伊万里特別支援学校
    大坪町甲2501-3:
      latlng: 33.27707575,129.88780427
      name:
      - 伊万里市立大坪小学校
    大坪町甲2863-1:
      latlng: ''
      name:
      - 伊万里市大坪公民館
    大川内町丙2410-1:
      latlng: 33.25963095,129.89518718
      name:
      - 伊万里市大川内公民館
    大川内町乙3280-1:
      latlng: ''
      name:
      - 伊万里市立大川内小学校
    大川町大川野2050-1:
      latlng: 33.30327874,129.97137998
      name:
      - 伊万里市立大川小学校
    大川町大川野3119-1:
      latlng: ''
      name:
      - 伊万里市隣保館
    大川町大川野3340-1:
      latlng: 33.30500913,129.97272421
      name:
      - 伊万里市大川運動広場
      - 伊万里市大川体育館
    大川町大川野3836-1:
      latlng: 33.30519521,129.97020777
      name:
      - 伊万里市大川老人憩の家
    山代町久原2697-2:
      latlng: 33.31092313,129.80977410
      name:
      - 伊万里市山代公民館
    山代町久原2721:
      latlng: 33.31132032,129.81038794
      name:
      - 伊万里市山代老人憩の家
    山代町久原3080-1:
      latlng: 33.31517813,129.80751853
      name:
      - 伊万里市立山代中学校
    山代町久原65:
      latlng: 33.30500164,129.81275743
      name:
      - 伊万里市立山代東小学校
    山代町立岩390-1:
      latlng: ''
      name:
      - 伊万里市浦之崎運動広場
    山代町西分4475-1:
      latlng: 33.32378455,129.78513602
      name:
      - 伊万里市立山代西小学校
    木須町131:
      latlng: 33.28551306,129.87422783
      name:
      - 伊万里市立啓成中学校
    木須町5832-2:
      latlng: 33.29597257,129.85559607
      name:
      - 伊万里市牧島公民館
    東山代町滝川内3132-1:
      latlng: 33.28007894,129.78207996
      name:
      - 伊万里市立滝野小学校
    東山代町里105:
      latlng: 33.28487633,129.83579494
      name:
      - 伊万里市東山代公民館
    東山代町里70-1:
      latlng: 33.28401256,129.83750038
      name:
      - 伊万里市立東山代小学校
    東山代町長浜1750:
      latlng: 33.26652045,129.85067724
      name:
      - 伊万里市立国見中学校
    東山代町長浜2330-5:
      latlng: 33.28649285,129.83939741
      name:
      - 伊万里市東山代運動広場
    松島町350-4:
      latlng: 33.27807796,129.87625269
      name:
      - 伊万里市伊万里公民館
    松島町391-1:
      latlng: 33.27892230,129.87633878
      name:
      - 伊万里市市民センターお祭り広場
    松島町73:
      latlng: 33.27969728,129.87848022
      name:
      - 伊万里市老人福祉センター
    松島町73-1:
      latlng: 33.28002222,129.87809136
      name:
      - 伊万里市生涯学習センター
    松浦町堤川200:
      latlng: ''
      name:
      - 伊万里市立東陵中学校
    松浦町山形5490:
      latlng: 33.26773732,129.94299703
      name:
      - 伊万里市松浦運動広場
    松浦町山形5490-2:
      latlng: 33.26773732,129.94299703
      name:
      - 伊万里市松浦公民館
    松浦町桃川4430-2:
      latlng: 33.26876792,129.94781618
      name:
      - 伊万里市立松浦小学校
    波多津町畑津763:
      latlng: 33.36605032,129.87157134
      name:
      - 伊万里市立波多津小学校
    波多津町筒井11:
      latlng: 33.37921039,129.89139364
      name:
      - 伊万里市立波多津東小学校
    波多津町辻1080:
      latlng: 33.37191081,129.87141827
      name:
      - 伊万里市波多津公民館
    波多津町辻2979:
      latlng: 33.37213859,129.87338195
      name:
      - 伊万里市波多津運動広場
    波多津町辻953:
      latlng: 33.37233855,129.87158490
      name:
      - 伊万里市波多津老人憩の家
    瀬戸町216-1:
      latlng: ''
      name:
      - 伊万里市立牧島小学校
    立花町1542-29:
      latlng: 33.26589352,129.88273013
      name:
      - 伊万里市同和教育研修所
    立花町1891-79:
      latlng: 33.25843615,129.88313292
      name:
      - 伊万里市立花公民館
    立花町1901-1:
      latlng: 33.25933049,129.88439675
      name:
      - 伊万里市立立花小学校
    立花町4063-1:
      latlng: 33.27571185,129.88410195
      name:
      - 伊万里市立伊万里中学校
    脇田町1376:
      latlng: 33.28300808,129.88126320
      name:
      - 県立伊万里商業高等学校
    脇田町1419-1:
      latlng: 33.28273580,129.87879125
      name:
      - 伊万里市立伊万里小学校
    黒川町塩屋504-1:
      latlng: 33.33138327,129.85334081
      name:
      - 伊万里市黒川公民館
    黒川町大黒川1335-1:
      latlng: 33.33362255,129.86261221
      name:
      - 伊万里市立黒川小学校
    黒川町福田66:
      latlng: 33.35189025,129.85557075
      name:
      - 伊万里市立青嶺中学校
  佐賀市:
    三瀬村三瀬2700-1:
      latlng: ''
      name:
      - 佐賀市三瀬勤労福祉センター
    三瀬村三瀬2762-2:
      latlng: 33.43177707,130.27883410
      name:
      - 佐賀市立三瀬公民館
    中の館町1-39:
      latlng: 33.24286400,130.30254645
      name:
      - 佐賀市立赤松小学校
    中の館町4-10:
      latlng: 33.24211412,130.30424077
      name:
      - 佐賀市立赤松公民館
    久保和泉町大字上和泉236:
      latlng: ''
      name:
      - 佐賀市立金泉中学校
    久保和泉町大字川久保135:
      latlng: ''
      name:
      - 佐賀市立久保泉小学校
    久保泉町大字川久保1353:
      latlng: 33.31928833,130.32496991
      name:
      - 佐賀市立久保泉公民館
    久保田町新田1207:
      latlng: 33.23396280,130.23800489
      name:
      - 佐賀市立小中一貫校思斉館(思斉小学校)
    久保田町新田1217:
      latlng: 33.23411000,130.23671889
      name:
      - 佐賀市立小中一貫校思斉館(思斉中学校)
    久保田町新田3323:
      latlng: 33.23271571,130.23671616
      name:
      - 佐賀市久保田老人福祉センター
      - 佐賀市久保田保健センター
      - 佐賀市久保田農村高齢者交流施設
      - 佐賀市久保田農村環境改善センター
    兵庫町大字渕1295:
      latlng: 33.27355095,130.32233286
      name:
      - 佐賀市立兵庫小学校
      - 佐賀市立兵庫公民館
    兵庫町大字藤木1092-1:
      latlng: 33.27361403,130.30242083
      name:
      - 県立致遠館高等学校、
    南佐賀1丁目20-1:
      latlng: 33.23855090,130.31554540
      name:
      - 佐賀市立城南中学校
    南佐賀3-11-15:
      latlng: 33.23601794,130.32066723
      name:
      - 県立佐賀東高等学校
    嘉瀬町大字十五12-1:
      latlng: 33.24096536,130.25780572
      name:
      - 佐賀市立嘉瀬小学校
    嘉瀬町大字扇町2624-21:
      latlng: 33.24408176,130.25834169
      name:
      - 佐賀市立嘉瀬公民館
    城内1-4-25:
      latlng: 33.24713290,130.29833285
      name:
      - 県立佐賀西高等学校
    大和町久池井1777-1:
      latlng: ''
      name:
      - 佐賀市立春日北小学校
    大和町久留間3353:
      latlng: 33.30700204,130.24167973
      name:
      - 県立大和特別支援学校
    大和町尼寺1439:
      latlng: 33.31255212,130.28312670
      name:
      - 佐賀市立春日小学校
    大和町尼寺1698:
      latlng: 33.31420745,130.27744097
      name:
      - 県立高志館高等学校
    大和町尼寺1875:
      latlng: 33.31113545,130.27743829
      name:
      - 佐賀市大和町生涯学習センター
    大和町川上3294:
      latlng: 33.31021025,130.25746750
      name:
      - 佐賀市大和勤労者体育センター
    大和町東山田1807-1:
      latlng: 33.30535778,130.25418453
      name:
      - 佐賀市立川上小学校
    大和町東山田3554-1:
      latlng: 33.31052701,130.26771402
      name:
      - 佐賀市立大和中学校
    天祐1-5-29:
      latlng: 33.25797847,130.28071464
      name:
      - 県立盲学校
    天祐2-6-1:
      latlng: 33.25787843,130.27886200
      name:
      - 県立佐賀北高等学校
    富士町大字古湯2735:
      latlng: 33.37521132,130.20812527
      name:
      - 佐賀市立富士中学校
    川副町大詫間496:
      latlng: 33.17961581,130.34312701
      name:
      - 佐賀市立大託間小学校
    川副町福富1316:
      latlng: 33.21001789,130.33336404
      name:
      - 佐賀市立中川副小学校
    川副町西古賀979:
      latlng: 33.20741782,130.31171033
      name:
      - 佐賀市立西川副小学校
    川副町鹿江620-1:
      latlng: 33.19216139,130.32058215
      name:
      - 佐賀市立川副公民館
    川副町鹿江674:
      latlng: 33.19043102,130.31877681
      name:
      - 佐賀市立南川副小学校
    巨勢町大字牛島242:
      latlng: 33.25812981,130.31657816
      name:
      - 佐賀市立城東中学校
    巨勢町大字高尾108:
      latlng: 33.25681090,130.32796315
      name:
      - 佐賀市立巨勢小学校
    成章町3-16:
      latlng: 33.25655696,130.29658837
      name:
      - 佐賀市立勧興小学校
    成章町3-18:
      latlng: 33.25570707,130.29761885
      name:
      - 佐賀市立勧興公民館
    成章町7-1:
      latlng: 33.25702905,130.29446076
      name:
      - 佐賀市立成章中学校
    新栄東2丁目6-34:
      latlng: 33.25570907,130.27515121
      name:
      - 佐賀市立新栄小学校
    新生町4-21:
      latlng: 33.25346209,130.27665670
      name:
      - 佐賀市立新栄公民館
    日の出1丁目21-10:
      latlng: 33.27741900,130.29497692
      name:
      - 佐賀市文化会館
    昭栄町1-7:
      latlng: 33.24889320,130.28007320
      name:
      - 佐賀市立昭栄中学校
    木原3丁目12-1:
      latlng: 33.24117313,130.32333351
      name:
      - 佐賀市立北川副小学校
    木原3丁目12-8:
      latlng: 33.23932051,130.32330857
      name:
      - 佐賀市立北川副公民館
    本庄町大字本庄1021-1:
      latlng: 33.23598913,130.28527030
      name:
      - 佐賀市立城西中学校
    本庄町大字本庄131-1:
      latlng: 33.23483396,130.29414181
      name:
      - 佐賀市立本庄小学校
    東与賀町下古賀1127-1:
      latlng: 33.20961987,130.28877359
      name:
      - 佐賀市立東与賀中学校
    東与賀町下古賀1193:
      latlng: 33.20821725,130.28851811
      name:
      - 佐賀市東与賀保健福祉センター
    東与賀町田中425:
      latlng: 33.20965868,130.28573500
      name:
      - 佐賀市東与賀農村環境改善センター
    東与賀町田中453:
      latlng: 33.20886990,130.28664327
      name:
      - 佐賀市立東与賀小学校
    東佐賀町12-2:
      latlng: 33.25502985,130.31070935
      name:
      - 佐賀市立循誘公民館
    水ヶ江1丁目2-20:
      latlng: 33.25056614,130.30484608
      name:
      - 佐賀市民会館
    神野東4-12-40:
      latlng: 33.27113068,130.29660194
      name:
      - 県立佐賀商業高等学校
    神野西1丁目4-10:
      latlng: 33.26337831,130.29022210
      name:
      - 佐賀市立神野公民館
    神野西2丁目4-8:
      latlng: 33.26465046,130.29111922
      name:
      - 佐賀市立神野小学校
    緑小路1-1:
      latlng: 33.25786474,130.28562539
      name:
      - 県立佐賀工業高等学校
    若宮3丁目2-1:
      latlng: 33.27581329,130.28661929
      name:
      - 佐賀市立若楠小学校
    若楠2丁目1-1:
      latlng: 33.27709651,130.28642760
      name:
      - 佐賀市立若楠公民館
    蓮池町大字小松1000:
      latlng: 33.25023703,130.36467338
      name:
      - 佐賀市立小中一貫校芙蓉校(芙蓉小学校)
      - 佐賀市立小中一貫校芙蓉校(芙蓉中学校)
    蓮池町大字蓮池6-49:
      latlng: 33.24575120,130.36009084
      name:
      - 佐賀市立蓮池公民館
    西与賀町大字厘外1405:
      latlng: 33.23010609,130.27436297
      name:
      - 佐賀市立西与賀公民館
    西与賀町大字厘外1437:
      latlng: 33.22928672,130.27373249
      name:
      - 佐賀市立西与賀小学校
    諸富町大堂990:
      latlng: 33.23460469,130.35653108
      name:
      - 佐賀市立諸富北小学校
    諸富町徳富2058-3:
      latlng: 33.22433886,130.35537616
      name:
      - 佐賀市立諸富中学校
    諸富町為重920-1:
      latlng: 33.21907821,130.34525471
      name:
      - 佐賀市立諸富南小学校
    諸富町諸富津52:
      latlng: 33.22174467,130.35457892
      name:
      - 佐賀市立諸富文化体育館
    諸富町諸富津7:
      latlng: 33.22464716,130.35253191
      name:
      - 佐賀市立諸富町公民館
    金立町大字千布2144-1:
      latlng: 33.30933605,130.30255858
      name:
      - 佐賀市立金立小学校
    金立町大字千布2333-2:
      latlng: ''
      name:
      - 佐賀市立金立公民館
    金立町金立2339-2:
      latlng: 33.31660484,130.29731703
      name:
      - 県立金立特別支援学校
    鍋島1丁目1-1:
      latlng: 33.27499622,130.27008439
      name:
      - 佐賀市立鍋島公民館
    鍋島1丁目1-2:
      latlng: 33.27426294,130.26976776
      name:
      - 佐賀市立鍋島小学校
    鍋島1丁目19-1:
      latlng: 33.27647376,130.26432917
      name:
      - 佐賀市立鍋島中学校
    鍋島町大字森田27-4:
      latlng: 33.26811344,130.27053455
      name:
      - 佐賀市立開成公民館
    鍋島町大字森田35-1:
      latlng: 33.26952442,130.26977345
      name:
      - 佐賀市立開成小学校
    鍋島町森田321:
      latlng: 33.26745222,130.26339338
      name:
      - 県立ろう学校
    長瀬町1-20:
      latlng: 33.24944608,130.28462284
      name:
      - 佐賀市立日新公民館
    長瀬町9-15:
      latlng: 33.25155970,130.28278683
      name:
      - 佐賀市立日新小学校
    高木瀬東5丁目1-12:
      latlng: 33.28645145,130.28993262
      name:
      - 佐賀市立高木瀬公民館
    高木瀬東5丁目6-12:
      latlng: 33.28603766,130.29225746
      name:
      - 佐賀市立高木瀬小学校
    高木瀬西3丁目1-50:
      latlng: 33.28243773,130.28534142
      name:
      - 佐賀市立城北中学校
    高木町15-30:
      latlng: 33.25681848,130.30804289
      name:
      - 佐賀市立循誘小学校
  吉野ヶ里町:
    三津2757-4:
      latlng: ''
      name:
      - 吉野ヶ里町さざんか武道館
    三津733:
      latlng: ''
      name:
      - 吉野ヶ里町立東脊振小学校
    三津775:
      latlng: 33.35246990,130.39782889
      name:
      - 吉野ヶ里町東脊振健康福祉センター
    三津777-5:
      latlng: ''
      name:
      - 吉野ヶ里町農村環境改善センター
    吉田252-1:
      latlng: 33.32503861,130.39882425
      name:
      - 吉野ヶ里町吉野ヶ里公園駅コミュニティーホール
    吉田303:
      latlng: 33.32041118,130.39902441
      name:
      - 吉野ヶ里町立三田川中学校
    吉田307:
      latlng: 33.32123333,130.39831053
      name:
      - 吉野ヶ里町中央公民館
    吉田63-1:
      latlng: 33.32172217,130.39576341
      name:
      - 吉野ヶ里町立三田川小学校
    石動2709:
      latlng: 33.35011457,130.40077597
      name:
      - 吉野ヶ里町立東脊振中学校
    豆田1790:
      latlng: 33.31430334,130.39907746
      name:
      - 吉野ヶ里町三田川健康福祉センター
  唐津市:
    ニタ子1丁目7-83:
      latlng: ''
      name:
      - 唐津市立西唐津中学校
    七山滝川1252:
      latlng: ''
      name:
      - 唐津市七山公民館(前七山村多目的研修集会施設)
    七山藤川2263番地:
      latlng: 33.44435292,130.11605534
      name:
      - 唐津市立七山小中学校
    中瀬通1-3:
      latlng: 33.47380666,129.94221002
      name:
      - 唐津市立佐志中学校
    久里1820:
      latlng: ''
      name:
      - 唐津市立久里小学校
    元石町235-2:
      latlng: 33.44190002,129.97765262
      name:
      - 県立唐津商業高等学校
    北波多徳須恵303:
      latlng: 33.37861174,129.95381264
      name:
      - 唐津市立北波多中学校
    北波多徳須恵413:
      latlng: 33.37836175,129.95167670
      name:
      - 唐津市北波多社会体育館
    北波多徳須恵416:
      latlng: 33.37779237,129.95110176
      name:
      - 唐津市立北波多小学校
    厳木町厳木727:
      latlng: 33.32301783,130.05738978
      name:
      - 県立厳木高等学校
    厳木町平之705-1:
      latlng: 33.34722329,130.07656537
      name:
      - 旧唐津市立厳木小学校平之分校
    厳木町牧瀬44-1:
      latlng: 33.31452442,130.06992996
      name:
      - 唐津市立厳木小学校
    呼子町加部島3449:
      latlng: ''
      name:
      - 唐津市立旧加部島小学校
    呼子町呼子3000-1:
      latlng: 33.54133172,129.89756069
      name:
      - 唐津市立呼子小学校
    呼子町小川島841:
      latlng: ''
      name:
      - 唐津市立小川小中学校
    呼子町殿ノ浦750-1:
      latlng: ''
      name:
      - 唐津市立呼子中学校
    和多田大土井1-1:
      latlng: 33.43342650,129.99006817
      name:
      - 唐津市文化体育館
      - 唐津市青年の家
    和多田本村8-80:
      latlng: 33.43267299,129.97704709
      name:
      - 唐津市成和小学校
    和多田用尺1-1:
      latlng: 33.44122251,129.98181890
      name:
      - 唐津市立第五中学校
    大良526-1:
      latlng: 33.46176285,129.90632596
      name:
      - 唐津市立大良小中学校
    富士見町12-1:
      latlng: 33.45514535,129.96727829
      name:
      - 唐津市立大志小学校(旧大成小学校体育館)
    山本1916:
      latlng: 33.40061487,129.97156389
      name:
      - 唐津市立鬼塚中学校
    山本788-12:
      latlng: 33.39927367,129.98034385
      name:
      - 県立唐津特別支援学校
    東唐津4丁目4-29:
      latlng: 33.44901359,129.98728210
      name:
      - 唐津市立東唐津小学校
    東町37:
      latlng: 33.44211687,129.98177168
      name:
      - 唐津市立外町小学校
    浜玉町五反田823:
      latlng: 33.44370301,130.06545558
      name:
      - 唐津市立玉島小学校
    浜玉町大江6-1:
      latlng: 33.45032343,130.04588637
      name:
      - 唐津市立浜玉中学校
    浜玉町平原乙97-1:
      latlng: 33.42386040,130.07943308
      name:
      - 唐津市立平原小学校
    浜玉町浜崎451:
      latlng: 33.44386051,130.04085137
      name:
      - 唐津市立浜崎小学校
    浜玉町鳥巣790-3:
      latlng: 33.40037912,130.10720845
      name:
      - 唐津市立平原小学校鳥巣分校
    湊町1291-2:
      latlng: ''
      name:
      - 唐津市立湊小学校
    湊町594:
      latlng: ''
      name:
      - 唐津市立湊中学校
    町田1丁目4-1:
      latlng: 33.44138267,129.96278413
      name:
      - 唐津市立第一中学校
    町田字大山田1992:
      latlng: ''
      name:
      - 県立唐津西高等学校
    相知町佐里1828:
      latlng: 33.33775313,129.98274141
      name:
      - 唐津市佐里地区公民館
    相知町平山上130-1:
      latlng: ''
      name:
      - 唐津市平山地区館
    相知町田頭427-2:
      latlng: 33.33810527,130.04085835
      name:
      - 旧唐津市立田頭小学校(前唐津市立田頭小学校)
    相知町相知1810:
      latlng: 33.34921099,130.01082015
      name:
      - 唐津市立相知小学校
    相知町相知2406-4:
      latlng: 33.34741653,130.00239840
      name:
      - 唐津市相知天徳の丘運動公園社会体育館
    石志中ノ尾3072:
      latlng: ''
      name:
      - 県立唐津工業高等学校
    神田2148-2:
      latlng: 33.44506557,129.96030660
      name:
      - 唐津市立長松小学校
    神田字堤2629-1:
      latlng: ''
      name:
      - 県立唐津南高等学校
    神集島2789-11:
      latlng: ''
      name:
      - 旧唐津市立神集島小学校
    竹木場5576-17:
      latlng: ''
      name:
      - 唐津市立竹木場小学校、唐津市立第四中学校
    肥前町万賀里川233-2:
      latlng: 33.42113837,129.87081578
      name:
      - 唐津市立切木小学校
    肥前町入野丙619-1:
      latlng: ''
      name:
      - 唐津市立入野小学校
    肥前町入野甲1700:
      latlng: ''
      name:
      - 唐津市肥前文化会館
    肥前町入野甲1801-1:
      latlng: ''
      name:
      - 唐津市肥前市民会館
    肥前町入野甲2217-2:
      latlng: ''
      name:
      - 唐津市立肥前中学校
    肥前町切木乙500-1:
      latlng: 33.42859595,129.88345020
      name:
      - 唐津市立切木中学校
    肥前町星賀:
      latlng: 33.45028081,129.79096565
      name:
      - 唐津市星賀わんぱくハウス(前入野小学校星賀分校)
    肥前町納所丁682:
      latlng: ''
      name:
      - 唐津市立納所小学校
    西城内4-43:
      latlng: 33.45264569,129.96830327
      name:
      - 唐津市立大志小学校
    鎮西町加唐島25:
      latlng: 33.58832349,129.86405445
      name:
      - 唐津市立加唐小中学校
    鎮西町名護屋2265:
      latlng: 33.52284998,129.87177413
      name:
      - 唐津市立名護屋中学校
    鎮西町名護屋444:
      latlng: 33.53469310,129.87140189
      name:
      - 唐津市立名護屋小学校
    鎮西町打上2108:
      latlng: 33.50592480,129.91193817
      name:
      - 唐津市立打上中学校
    鎮西町打上2115-2:
      latlng: ''
      name:
      - 唐津市立打上小学校
    鎮西町松島3531-1:
      latlng: ''
      name:
      - 唐津市立加唐小学校松島分校
    鎮西町赤木3192-1:
      latlng: 33.52792507,129.91018761
      name:
      - 旧唐津市立打上小学校赤木分校(前唐津市立打上小学校赤木分
    鎮西町馬渡島41:
      latlng: 33.57027090,129.76712977
      name:
      - 唐津市立馬渡小中学校
    鏡1136:
      latlng: 33.42523107,130.00685550
      name:
      - 唐津市立鏡中学校
    鏡3164-1:
      latlng: ''
      name:
      - 県立唐津東高等学校、
  基山町:
    けやき台2-2:
      latlng: 33.43053974,130.52920558
      name:
      - 基山町立若基小学校
    宮浦41:
      latlng: 33.42121396,130.52625739
      name:
      - 基山町立基山小学校
    宮浦666:
      latlng: 33.42787660,130.52409285
      name:
      - 基山町総合体育館
      - 基山町民会館
    宮浦941:
      latlng: 33.42170285,130.52476869
      name:
      - 基山町立基山中学校
  多久市:
    北多久町大字小侍1100-1:
      latlng: 33.29179040,130.09618055
      name:
      - 多久市立緑が丘小学校
    北多久町大字小侍1119-9:
      latlng: ''
      name:
      - 多久市体育センター
    北多久町大字小侍45-3:
      latlng: 33.28745162,130.10747984
      name:
      - 多久市立北部小学校
    北多久町小侍23:
      latlng: 33.28887381,130.10280795
      name:
      - 県立多久高等学校
    南多久町大字下多久6103:
      latlng: 33.27150291,130.12546491
      name:
      - 多久市立南部小学校
    東多久町大字別府3182:
      latlng: 33.28373215,130.15156510
      name:
      - 多久市立東部中学校
    西多久町大字板屋7775-3:
      latlng: ''
      name:
      - 多久市立西部小学校
  大町町:
    大町2039:
      latlng: 33.21824188,130.13470691
      name:
      - 県立杵島商業高等学校
    大町5000:
      latlng: 33.21426974,130.11613894
      name:
      - 大町町総合福祉保健センター
    大町5427:
      latlng: 33.21496971,130.11864151
      name:
      - 大町町立大町中学校
    大町5763-1:
      latlng: ''
      name:
      - 大町町立大町小学校
    福母158-1:
      latlng: 33.21190045,130.11114210
      name:
      - 大町町スポーツセンター
    福母2431-28:
      latlng: 33.21690544,130.10918674
      name:
      - 大町町老人福祉センター
    福母2481:
      latlng: 33.21599995,130.10759520
      name:
      - 大町町公民館
  太良町:
    多良1-17:
      latlng: 33.01885164,130.18107596
      name:
      - 太良町総合福祉保健センターしおさい館
    多良1-6:
      latlng: 33.02029049,130.18027596
      name:
      - 太良町B&Q海洋センター体育館
      - 太良町B&Q海洋センター体育館第2体育館
    多良1264:
      latlng: 33.02342382,130.17530399
      name:
      - 太良町立多良小・中学校体育館(小学校部分)
    多良1284:
      latlng: 33.02277386,130.17463185
      name:
      - 太良町立多良小・中学校体育館(中学校部分)
    多良4212-6:
      latlng: 33.03358987,130.17311484
      name:
      - 県立太良高等学校
    大浦丁331-1:
      latlng: 32.97360628,130.20401451
      name:
      - 太良町町民体育センター
    大浦丁348:
      latlng: 32.97317298,130.20458671
      name:
      - 太良町立大浦小学校体育館
    大浦丙1373:
      latlng: 32.97901441,130.21232210
      name:
      - 太良町立大浦中学校体育館
    糸岐7890-1:
      latlng: 32.98517783,130.14339321
      name:
      - 太良町立多良小学校中尾分校体育館
  嬉野市:
    塩田町久間乙1885:
      latlng: 33.14785912,130.05981094
      name:
      - 嬉野市立久間小学校
    塩田町五丁田甲3717:
      latlng: ''
      name:
      - 嬉野市立五町田小学校
    塩田町馬場下甲1418:
      latlng: 33.13041095,130.05675034
      name:
      - 県立塩田工業高等学校
    塩田町馬場下甲1709-1:
      latlng: 33.12816682,130.05921400
      name:
      - 嬉野市塩田保健センター
    塩田町馬場下甲1801:
      latlng: 33.12798634,130.06152487
      name:
      - 嬉野市立塩田中学校
    塩田町馬場下甲1967:
      latlng: 33.12848624,130.05953341
      name:
      - 嬉野市中央公民館
    嬉野町下宿乙1297:
      latlng: 33.10126837,129.98775334
      name:
      - 嬉野市公会堂
      - 嬉野市嬉野公民館
    嬉野町下宿乙1541-3:
      latlng: 33.09965177,129.98396203
      name:
      - 嬉野市体育館
    嬉野町下宿乙1647:
      latlng: 33.10264858,129.98224270
      name:
      - 嬉野市立嬉野小学校
    嬉野町下宿甲2786:
      latlng: 33.10947847,129.98730063
      name:
      - 嬉野市立嬉野中学校
    嬉野町下宿甲700:
      latlng: 33.10842328,129.99645502
      name:
      - 県立嬉野高等学校
    嬉野町下野丙80:
      latlng: 33.12638212,130.00221171
      name:
      - 嬉野市立大草野小学校
    嬉野町不動山甲1326:
      latlng: 33.07780064,129.96051695
      name:
      - 嬉野市不動ふれあい体育館
    嬉野町岩屋川内丙720:
      latlng: 33.03754198,130.00036740
      name:
      - 嬉野市立大野原小中学校
  小城市:
    三日月町樋口1221:
      latlng: 33.27262586,130.22206302
      name:
      - 小城市ふれあい公園
    三日月町織島2-13:
      latlng: 33.32116510,130.22369939
      name:
      - 小城市三日月野外研修センター
    三日月町長神田1650:
      latlng: 33.28080313,130.22345949
      name:
      - 小城市立三日月中学校
    三日月町長神田1680:
      latlng: 33.28100876,130.22502599
      name:
      - 小城市立三日月小学校
    三日月町長神田1845:
      latlng: 33.27361190,130.22206016
      name:
      - 小城市生涯学習センター(ドゥイング三日月)
    三日月町長神田1848-9:
      latlng: 33.27333130,130.22100751
      name:
      - 小城市三日月体育館
    三日月町長神田339-1:
      latlng: ''
      name:
      - 小城市三日月グラウンド
    小城町:
      latlng: 33.29335316,130.19734085
      name:
      - 小城市小城公園
    小城町166:
      latlng: 33.29157820,130.19858556
      name:
      - 小城市立桜岡小学校
    小城町176:
      latlng: 33.29238647,130.19719399
      name:
      - 県立小城高等学校
    小城町176-13:
      latlng: 33.29147813,130.19790505
      name:
      - 小城公民館桜岡支館
    小城町176-20:
      latlng: 33.29159756,130.19754119
      name:
      - 小城市小城公民館
    小城町520-1:
      latlng: 33.29553121,130.20072140
      name:
      - 小城市文化センター
    小城町岩蔵1941:
      latlng: 33.30589768,130.19959349
      name:
      - 小城市立岩松小学校
    小城町晴気2096-1:
      latlng: ''
      name:
      - 小城公民館晴田支館
    小城町松尾3780-1:
      latlng: ''
      name:
      - 小城公民館岩松支館
    小城町松尾4104:
      latlng: 33.29566705,130.19550521
      name:
      - 小城市立小城中学校
    小城町栗原1244-1:
      latlng: ''
      name:
      - 小城公民館三里支館
    小城町栗原1256:
      latlng: 33.27304966,130.18241058
      name:
      - 小城市立三里小学校
    小城町畑田2099:
      latlng: 33.29287835,130.17925431
      name:
      - 小城市立晴田小学校
    小城町畑田98-1:
      latlng: ''
      name:
      - 小城市小城体育センター
    牛津町上砥川1405:
      latlng: 33.23342126,130.18092012
      name:
      - 小城市立砥川小学校
    牛津町勝1221-1:
      latlng: 33.25120788,130.19142479
      name:
      - 小城市牛津保健福祉センター(アイル)
    牛津町勝1324-1:
      latlng: 33.25161068,130.20143539
      name:
      - 小城市牛津公民館
    牛津町柿樋瀬922:
      latlng: 33.25619905,130.20332966
      name:
      - 小城市立牛津小学校
    牛津町牛津274:
      latlng: 33.24594751,130.20624625
      name:
      - 県立牛津高等学校
    牛津町牛津549:
      latlng: 33.24554477,130.20472968
      name:
      - 小城市立牛津中学校
    牛津町牛津556-1:
      latlng: 33.24655854,130.20456858
      name:
      - 小城市牛津武道館
    芦刈町三王崎:
      latlng: 33.22161169,130.20000182
      name:
      - 小城市中央運動公園
      - 小城市三王崎地区農村公園
    芦刈町三王崎14:
      latlng: 33.22443061,130.21259868
      name:
      - 小城市立芦刈小学校
    芦刈町三王崎16:
      latlng: 33.22344462,130.21247925
      name:
      - 小城市立芦刈中学校
    芦刈町三王崎172-1:
      latlng: 33.22335298,130.21111546
      name:
      - 小城市芦刈文化体育館
    芦刈町三王崎318-1:
      latlng: 33.22261698,130.20920726
      name:
      - 小城市芦刈公民館
    芦刈町三王崎349:
      latlng: 33.22357243,130.20809901
      name:
      - 芦刈農村環境改善センター
    芦刈町永田:
      latlng: 33.21429305,130.20954890
      name:
      - 小城市永田六丁農村公園
      - 小城市海遊ふれあいパークグランド
    芦刈町浜枝川:
      latlng: 33.22873011,130.20944612
      name:
      - 小城市浜枝川地区農村公園
    芦刈町芦溝:
      latlng: 33.23896836,130.21528752
      name:
      - 小城市芦溝地区農村公園
    芦刈町道免:
      latlng: 33.21488115,130.21881737
      name:
      - 小城市道免新村中村地区農村公園
      - 小城市東西道免地区農村公園
  有田町:
    大木宿乙830:
      latlng: 33.22279798,129.84998059
      name:
      - 有田町立大山小学校
    本町丙954-1:
      latlng: 33.18179709,129.88003671
      name:
      - 有田町文化体育館
    黒川甲1761:
      latlng: 33.19484259,129.85391684
      name:
      - 有田町立曲川小学校
  武雄市:
    北方町大崎2117:
      latlng: 33.22137665,130.05911588
      name:
      - 武雄市北方西体育館
    北方町大崎2229-2:
      latlng: 33.22116003,130.06083519
      name:
      - 武雄市北方スポーツセンター
    北方町大渡3656:
      latlng: 33.20530363,130.08864960
      name:
      - 武雄市北方東体育館
    北方町志久1389:
      latlng: 33.21775770,130.06924289
      name:
      - 武雄市立北方小学校
    北方町志久2384-2:
      latlng: 33.22420695,130.06293775
      name:
      - 武雄市立北方中学校
    山内町大野6900:
      latlng: 33.20738163,129.93378741
      name:
      - 武雄市立山内西小学校
    山内町鳥海9602-1:
      latlng: 33.19343023,129.96412426
      name:
      - 武雄市立山内東小学校
    武内町梅野乙15041-2:
      latlng: 33.22595535,129.96210971
      name:
      - 武雄市立武内小学校
    武雄町富岡11606:
      latlng: 33.20077520,130.02696600
      name:
      - 武雄市立武雄中学校
    武雄町武雄4595:
      latlng: 33.18651276,130.02648598
      name:
      - 武雄市立御船が丘小学校
    武雄町永島13233-2:
      latlng: 33.19370102,130.03316851
      name:
      - 県立武雄青陵高等学校、武雄青陵中学校
    若木町川古8083:
      latlng: ''
      name:
      - 武雄市立若木小学校
  江北町:
    山口1128:
      latlng: 33.21580918,130.15864397
      name:
      - 江北町立江北小学校
    山口2645-1:
      latlng: 33.21671174,130.14959186
      name:
      - 江北町老人福祉センター
    山口412:
      latlng: 33.21373719,130.15945782
      name:
      - 江北町立江北中学校
  玄海町:
    平尾691:
      latlng: 33.49641073,129.84684067
      name:
      - 玄海町立値賀中学校
    平尾847:
      latlng: 33.49545242,129.84537692
      name:
      - 玄海町公民館値賀分館
    新田1809-22:
      latlng: 33.46758858,129.85434631
      name:
      - 玄海町社会体育館
      - 玄海町民会館
    新田1809-6:
      latlng: 33.46823859,129.85672946
      name:
      - 玄海町立有浦中学校
  白石町:
    今泉138:
      latlng: 33.18778118,130.13135516
      name:
      - 県立白石高等学校
    坂田275-1:
      latlng: 33.14686042,130.12329721
      name:
      - 白石町有明公民館
    坂田290:
      latlng: 33.14482454,130.12298609
      name:
      - 白石町立有明中学校
    堤1461:
      latlng: 33.18101497,130.10557291
      name:
      - 白石町立須古小学校
      - 白石町三近堂コミュニティセンター
    戸ヶ里1493:
      latlng: 33.15593432,130.11689761
      name:
      - 白石町立有明西小学校
    東郷2239:
      latlng: ''
      name:
      - 白石町立六角小学校
    深浦5582:
      latlng: 33.13775025,130.11672531
      name:
      - 白石町立有明南小学校
    牛屋6833-2:
      latlng: 33.14371679,130.14520105
      name:
      - 白石町立有明東小学校
    福富3415-2:
      latlng: 33.18450245,130.18820420
      name:
      - 白石町立福富小学校
    福富3497:
      latlng: 33.18280273,130.19210378
      name:
      - 白石町立福富中学校
    福富3508-2:
      latlng: 33.18260824,130.19094005
      name:
      - 白石町福富社会体育館
    福富3535-1:
      latlng: 33.18056384,130.18951256
      name:
      - 白石町福富ゆうあい館
    福田1312-1:
      latlng: 33.18162370,130.14251310
      name:
      - 白石町総合センター
    福田1660:
      latlng: 33.18319830,130.13433863
      name:
      - 県立佐賀農業高等学校
    福田2373:
      latlng: 33.18493478,130.15041236
      name:
      - 白石町立白石小学校
    築切205:
      latlng: 33.16798894,130.14545472
      name:
      - 白石町立北明小学校
    遠江143-1:
      latlng: 33.17379074,130.13576697
      name:
      - 白石町立白石中学校
    遠江75-1:
      latlng: 33.17505451,130.13445861
      name:
      - 白石社会体育館
  神埼市:
    千代田町渡瀬1964:
      latlng: 33.26313912,130.39292701
      name:
      - 神埼市立千代田東部小学校
    千代田町直鳥142:
      latlng: 33.27201602,130.37376674
      name:
      - 神埼市福祉センター
    千代田町直鳥15-1:
      latlng: 33.27634066,130.37406661
      name:
      - 神埼市立千代田中部小学校
    千代田町直鳥929-1:
      latlng: 33.26919402,130.37434176
      name:
      - 神埼市立千代田中学校
    千代田町直鳥942-3:
      latlng: ''
      name:
      - 神埼市次郎体育館
    千代田町餘江1496:
      latlng: 33.26308884,130.35043008
      name:
      - 神埼市立千代田西部小学校
    神埼町枝ヶ里349-1:
      latlng: ''
      name:
      - 神埼市立神埼小学校講堂
    神埼町横武2:
      latlng: 33.30325480,130.36461356
      name:
      - 県立神埼清明高等学校
    神埼町横武864:
      latlng: ''
      name:
      - 神埼市立西郷小学校講堂
    神埼町田道ヶ里2213:
      latlng: 33.31317863,130.37698435
      name:
      - 県立神埼高等学校
    神埼町鶴1635:
      latlng: 33.33785405,130.37058421
      name:
      - 神埼市立仁比山小学校講堂
    神埼町鶴3388-5:
      latlng: 33.31309258,130.37240138
      name:
      - 神埼市神埼中央公民館
    脊振町広滝580:
      latlng: 33.37749688,130.32767317
      name:
      - 神埼市立脊振小学校体育室
    脊振町広滝592-2:
      latlng: 33.37814404,130.32788980
      name:
      - 神埼市脊振勤労者体育館
    脊振町広滝593-3:
      latlng: 33.37824402,130.32733707
      name:
      - 神埼市脊振2000年館
  鳥栖市:
    今泉町2172-2:
      latlng: 33.36380545,130.51162785
      name:
      - 鳥栖市鳥栖公民館
    儀徳町3155-2:
      latlng: 33.35549158,130.49093165
      name:
      - 鳥栖市旭老人福祉センター
      - 鳥栖市旭公民館
    元町1162:
      latlng: 33.36810515,130.51011388
      name:
      - 鳥栖市立鳥栖小学校
    元町1228-1:
      latlng: 33.37213267,130.51116642
      name:
      - 鳥栖市社会福祉会館(2F児童センター)
    元町1918:
      latlng: 33.37297143,130.50743044
      name:
      - 県立鳥栖工業高等学校
    原町672-1:
      latlng: 33.37838765,130.53417233
      name:
      - 鳥栖市立基里中学校
    原町831:
      latlng: 33.38333735,130.53008376
      name:
      - 鳥栖市基里老人福祉センター
    古賀町480-2:
      latlng: 33.38438441,130.50203841
      name:
      - 鳥栖市立若葉小学校
    古野町176-3:
      latlng: 33.37885167,130.51252714
      name:
      - 鳥栖市鳥栖北公民館
    古野町600-1:
      latlng: 33.38139041,130.51514354
      name:
      - 県立鳥栖高等学校、
    宿町926:
      latlng: ''
      name:
      - 鳥栖市民体育館
    宿町927:
      latlng: 33.37207419,130.50385840
      name:
      - 鳥栖市勤労青少年ホーム多目的ホール
    山浦町1788-1:
      latlng: 33.37198184,130.47952318
      name:
      - 鳥栖市麓老人福祉センター
      - 鳥栖市麓公民館
    山浦町2253-1:
      latlng: 33.37559279,130.48238123
      name:
      - 鳥栖市立麓小学校
    平田町1110-8:
      latlng: 33.36760723,130.48236217
      name:
      - 県立鳥栖商業高等学校
    曽根崎町1353-4:
      latlng: 33.37605181,130.53057844
      name:
      - 鳥栖市市民体育センター
    曽根崎町1362:
      latlng: 33.37596569,130.53124781
      name:
      - 鳥栖市基里公民館
    曽根崎町1521-1:
      latlng: ''
      name:
      - 鳥栖市立基里小学校
    本町2丁目104-1:
      latlng: 33.37553244,130.51092739
      name:
      - 鳥栖市立鳥栖中学校
    本町3丁目1463-1:
      latlng: 33.37811002,130.50912180
      name:
      - 鳥栖市障害児通園施設(ひかり園)
    本町3丁目1468-1:
      latlng: 33.37856279,130.51036340
      name:
      - 鳥栖市立鳥栖北小学校
    本町3丁目1494-10:
      latlng: 33.37874329,130.50834402
      name:
      - 鳥栖市高齢者福祉施設
    村田町109-1:
      latlng: ''
      name:
      - 鳥栖市立旭小学校
    田代上町301-1:
      latlng: 33.39108981,130.52102350
      name:
      - 鳥栖市立田代小学校
    田代外町651-1:
      latlng: ''
      name:
      - 鳥栖市立田代中学校
    田代大官町1958:
      latlng: ''
      name:
      - 鳥栖市田代公民館
    田代大官町323-5:
      latlng: 33.39065372,130.51912917
      name:
      - 鳥栖市田代老人福祉センター
    真木町2112:
      latlng: 33.36394707,130.50933074
      name:
      - 鳥栖市鳥栖南老人福祉センター
    萱方町116-2:
      latlng: 33.38720659,130.50733259
      name:
      - 鳥栖市若葉コミュニティセンター
    蔵上町77-1:
      latlng: ''
      name:
      - 鳥栖市立鳥栖西中学校
  鹿島市:
    井手1529-1:
      latlng: 33.12345440,130.10336535
      name:
      - 鹿島市北鹿島体育館
    古枝甲1248-2:
      latlng: ''
      name:
      - 鹿島市立古枝小学校体育館
    山浦甲2246:
      latlng: 33.08792488,130.08302096
      name:
      - 鹿島市立能古見小学校体育館
    常広420:
      latlng: 33.11953258,130.10135448
      name:
      - 鹿島市立北鹿島小学校体育館
    浜町1239:
      latlng: 33.09319960,130.11613987
      name:
      - 鹿島市立浜小学校体育館
    浜町甲4020:
      latlng: 33.08941663,130.11373737
      name:
      - 鹿島市立東部中学校体育館
    納富分1435:
      latlng: 33.09868483,130.09496663
      name:
      - 鹿島市立西部中学校体育館
    納富分2643-1:
      latlng: 33.10400650,130.09809396
      name:
      - 鹿島市市民会館
      - 鹿島市福祉会館
    納富分2700-1:
      latlng: 33.10554523,130.09907440
      name:
      - 鹿島市生涯学習センター
    納富分甲59:
      latlng: 33.09773784,130.10431855
      name:
      - 鹿島市立明倫小学校体育館
    高津原231-イ:
      latlng: ''
      name:
      - 鹿島市立鹿島小学校体育館
    高津原253:
      latlng: 33.10178171,130.09559704
      name:
      - 鹿島市市民体育館
    高津原462:
      latlng: 33.10442302,130.09224452
      name:
      - 県立鹿島高等学校
    高津原539:
      latlng: 33.10550071,130.09417764
      name:
      - 県立鹿島実業高等学校
    高津原561-1:
      latlng: 33.10704500,130.09528028
      name:
      - 鹿島市市民武道館
