滋賀:
  多賀町:
    久徳160番地1:
      latlng: 35.22946946,136.29623413
      name:
      - 多賀町中央公民館
    多賀210:
      latlng: 35.22339763,136.29507330
      name:
      - 多賀町立多賀中学校
    多賀221番地1:
      latlng: 35.22318094,136.29232641
      name:
      - 多賀町総合福祉保健センター「ふれあいの郷」
    多賀245番地2:
      latlng: 35.21947288,136.29417906
      name:
      - B&G多賀海洋センター
    多賀738:
      latlng: 35.22405302,136.28695759
      name:
      - 多賀町立多賀小学校
    大君ケ畑588番地:
      latlng: ''
      name:
      - 大君ケ畑体育館
    富之尾1586番地5:
      latlng: 35.19262032,136.29593809
      name:
      - 滝の宮スポーツ公園
    川相568:
      latlng: 35.18800494,136.31305865
      name:
      - 多賀町立大滝小学校
    敏満寺1273番地3:
      latlng: 35.21639251,136.28051687
      name:
      - 多賀町立清涼ファミリーステーション
    萱原1309番地:
      latlng: 35.17600062,136.33606978
      name:
      - 森林資源活用センター
  大津市:
    一里山三丁目16番1号:
      latlng: 34.98488655,135.93444954
      name:
      - 瀬田東市民センター
    一里山二丁目20-2:
      latlng: 34.98309498,135.93036934
      name:
      - 大津市立瀬田東小学校
    一里山二丁目20番1号:
      latlng: 34.98419205,135.92983327
      name:
      - 瀬田東幼稚園
    三井寺町10番30号:
      latlng: 35.01130158,135.85695978
      name:
      - 長等幼稚園
    三大寺1-1:
      latlng: 34.97490103,135.91473736
      name:
      - 大津市立瀬田南小学校
    三大寺1番3号:
      latlng: 34.97460388,135.91571225
      name:
      - 瀬田南幼稚園
    下阪本三丁目14番30号:
      latlng: 35.06239294,135.87625093
      name:
      - 下阪本市民センター
    下阪本六丁目38-26:
      latlng: 35.06930893,135.87956423
      name:
      - 大津市立日吉中学校
    下阪本四丁目10-1:
      latlng: 35.06277902,135.87655644
      name:
      - 大津市立下阪本小学校
    下阪本四丁目15番12号:
      latlng: 35.06494544,135.87642028
      name:
      - 下阪本幼稚園
    中央二丁目2番5号:
      latlng: 35.00840486,135.86549787
      name:
      - 中央市民センター
    中庄二丁目6番5号:
      latlng: 34.99063740,135.88832648
      name:
      - 膳所幼稚園
    中庄二丁目8-37:
      latlng: 34.99197894,135.88837649
      name:
      - 大津市立膳所小学校
    二本松1番1号:
      latlng: 35.02945558,135.86538365
      name:
      - 大津びわこ競輪場
    京町三丁目1番3号:
      latlng: 35.00436077,135.86557845
      name:
      - 逢坂市民センター
    仰木の里一丁目23-1:
      latlng: 35.10297406,135.89217317
      name:
      - 滋賀県立北大津高等学校
    仰木の里七丁目1番25号:
      latlng: 35.10912059,135.89420344
      name:
      - 仰木の里市民センター
    仰木の里三丁目10番1号:
      latlng: 35.10567371,135.88791263
      name:
      - 仰木の里幼稚園
    仰木の里五丁目1-1:
      latlng: 35.10849840,135.89032063
      name:
      - 大津市立仰木中学校
    仰木の里四丁目4-1:
      latlng: 35.10684860,135.89163990
      name:
      - 大津市立仰木の里小学校
    仰木の里東六丁目1-1:
      latlng: 35.10909566,135.90062491
      name:
      - 大津市立仰木の里東小学校
    仰木の里東六丁目4番1号:
      latlng: 35.10944283,135.89940837
      name:
      - 仰木の里東幼稚園
    仰木四丁目15-8:
      latlng: 35.10882882,135.88226062
      name:
      - 大津市立仰木小学校
    仰木四丁目15番11号:
      latlng: 35.10812890,135.88216896
      name:
      - 仰木市民センター
    仰木四丁目1番30号:
      latlng: 35.10881769,135.88098580
      name:
      - 仰木幼稚園
    仰木四丁目2番50号:
      latlng: 35.10825942,135.88027479
      name:
      - 大津市仰木太鼓会館
    伊香立下在地町1222番1号:
      latlng: 35.14348347,135.87382234
      name:
      - 大津市伊香立環境交流館
    伊香立下在地町1310番地:
      latlng: 35.14490277,135.87441115
      name:
      - 伊香立幼稚園
    伊香立下在地町414:
      latlng: 35.15007995,135.87875229
      name:
      - 大津市立伊香立中学校
    伊香立下龍華町584番157号:
      latlng: 35.15006890,135.89401431
      name:
      - 大津市立伊香立児童館
    伊香立下龍華町584番地の157:
      latlng: 35.15006890,135.89401431
      name:
      - 大津市立下龍華会館
    伊香立北在地町272番地:
      latlng: 35.15440173,135.86899513
      name:
      - 大津市伊香立老人憩の家やまゆり荘
    伊香立生津町132-1:
      latlng: 35.14197806,135.87203646
      name:
      - 大津市立伊香立小学校
    伊香立生津町133番1号:
      latlng: 35.14231414,135.87255029
      name:
      - 伊香立市民センター
    光が丘町4-70:
      latlng: 34.97313948,135.89810864
      name:
      - 大津市立晴嵐小学校
    勧学一丁目8番1号:
      latlng: 35.03472116,135.85775926
      name:
      - 志賀幼稚園
    北大路一丁目9番5号:
      latlng: 34.97580313,135.89915855
      name:
      - 晴嵐市民センター
    北大路三丁目22-1:
      latlng: 34.97007271,135.88692923
      name:
      - 大津市立北大路中学校
    北小松565番地:
      latlng: 35.25505037,135.97381773
      name:
      - 小松市民センター
    南小松1122番地:
      latlng: 35.23596646,135.95614434
      name:
      - 大津市立小松小学校
    南志賀一丁目5-1:
      latlng: 35.03469331,135.85564836
      name:
      - 大津市立志賀小学校
    南志賀一丁目8番32号:
      latlng: 35.03570989,135.85704819
      name:
      - 滋賀市民センター
    南船路1029番地:
      latlng: 35.18041026,135.91001050
      name:
      - 大津市立志賀中学校
    南郷一丁目12番13号:
      latlng: 34.94235695,135.90826320
      name:
      - 南郷市民センター
    南郷一丁目15-9:
      latlng: 34.94058762,135.90693290
      name:
      - 大津市立南郷小学校
    南郷三丁目15番1号:
      latlng: 34.93864320,135.90227521
      name:
      - 南郷幼稚園
    和邇中190番地:
      latlng: 35.15815171,135.92021720
      name:
      - 大津市立和邇小学校
    和邇中94番1号:
      latlng: 35.15631858,135.92105045
      name:
      - 大津市立和邇公民館
    和邇今宿482番1号:
      latlng: 35.15387996,135.92269473
      name:
      - 志賀南幼稚園
    和邇高城12番地:
      latlng: 35.15957380,135.92168933
      name:
      - 大津市和邇文化センター
    和邇高城27番地の2:
      latlng: 35.15915440,135.92160322
      name:
      - 大津市和邇市民体育館
    唐崎二丁目10番1号:
      latlng: 35.04859154,135.86559416
      name:
      - 唐崎市民センター
    唐崎二丁目9-1:
      latlng: 35.04819159,135.86823834
      name:
      - 大津市立唐崎中学校
    国分一丁目15-1:
      latlng: 34.96860937,135.89698372
      name:
      - 滋賀県立石山高等学校
    坂本三丁目12-57:
      latlng: 35.06906989,135.87279282
      name:
      - 大津市立坂本小学校
    坂本六丁目11番48号:
      latlng: 35.07757438,135.87157339
      name:
      - 大津市立坂本教育集会所
    坂本六丁目1番11号:
      latlng: 35.07167233,135.87142072
      name:
      - 大津市坂本市民格技場
    坂本六丁目1番12号:
      latlng: 35.07148345,135.87076802
      name:
      - 坂本市民センター
      - 坂本幼稚園
    坂本六丁目33番19号:
      latlng: 35.07722170,135.87443972
      name:
      - 大津市立坂本市民会館
      - 大津市坂本市民体育館
    堅田二丁目1番11号:
      latlng: 35.11220656,135.91144045
      name:
      - 大津市北部地域文化センター
    大将軍一丁目13-1:
      latlng: 34.99228532,135.92389486
      name:
      - 大津市立瀨田北中学校
    大将軍一丁目14-5:
      latlng: 34.99212982,135.92538083
      name:
      - 大津市立瀬田北小学校
    大将軍一丁目14番1号:
      latlng: 34.99113824,135.92413374
      name:
      - 瀬田北幼稚園
    大将軍一丁目14番30号:
      latlng: 34.99139099,135.92431705
      name:
      - 瀬田北市民センター
    大平一丁目14-1:
      latlng: 34.95268593,135.89254534
      name:
      - 滋賀県立大津清陵高等学校
    大江七丁目1-1:
      latlng: 34.97791501,135.92837229
      name:
      - 大津市立瀬田中学校
    大江三丁目2番1号:
      latlng: 34.98128933,135.91985638
      name:
      - 瀬田市民センター
    大江四丁目2-1:
      latlng: 34.98163933,135.92114235
      name:
      - 大津市立瀬田小学校
    大江四丁目3番6号:
      latlng: 34.98256144,135.92108959
      name:
      - 瀬田幼稚園
    大石中一丁目5番9号:
      latlng: 34.91037928,135.91204744
      name:
      - 大石幼稚園
    大石中一丁目7番4号:
      latlng: 34.91020153,135.91306677
      name:
      - 大石市民センター
    大石東七丁目4-1:
      latlng: 34.91140425,135.91500265
      name:
      - 大津市立大石小学校
    大門通16番40号:
      latlng: 35.01494847,135.85787076
      name:
      - 長等市民センター
    大門通5-1:
      latlng: 35.01276252,135.85625150
      name:
      - 大津市立長等小学校
    富士見台3番30号:
      latlng: 34.98556845,135.88796536
      name:
      - 富士見市民センター
    富士見台42-16:
      latlng: 34.97933002,135.88252969
      name:
      - 大津市立富士見小学校
    富士見台45番5号:
      latlng: 34.97959392,135.88397124
      name:
      - 富士見幼稚園
    尾花川12-1:
      latlng: 35.02093401,135.85870392
      name:
      - 大津市立皇子山中学校
    山中町1番12号:
      latlng: 35.03955861,135.82272102
      name:
      - 山中会館
    島の関1-60:
      latlng: 35.00799942,135.86865869
      name:
      - 大津市立中央小学校
    島の関1番50号:
      latlng: 35.00759114,135.86932252
      name:
      - 大津幼稚園
    平津一丁目23-1:
      latlng: 34.94726208,135.90854352
      name:
      - 大津市立石山中学校
    平野一丁目18-5:
      latlng: 34.95980657,135.95980870
      name:
      - 大津市立上田上小学校
    平野一丁目18番20号:
      latlng: 34.95968994,135.96076973
      name:
      - 上田上幼稚園
    御陵町2-1:
      latlng: 35.01699534,135.85423220
      name:
      - 滋賀県立大津商業高等学校
    御陵町2番3号:
      latlng: 35.01601483,135.85280735
      name:
      - 大津市立市民文化会館
    打出浜10番30号:
      latlng: 35.00298058,135.87948831
      name:
      - 平野市民センター
    打出浜1番6号:
      latlng: 35.00685797,135.87508033
      name:
      - 大津市勤労福祉センター
    新免一丁目1-12:
      latlng: 34.94995973,135.94884807
      name:
      - 大津市立田上中学校
    日吉台一丁目15番1号:
      latlng: 35.07920762,135.87872251
      name:
      - 日吉台市民センター
    日吉台三丁目33-3:
      latlng: 35.08326538,135.87623943
      name:
      - 大津市立日吉台小学校
    日吉台三丁目33番2号:
      latlng: 35.08196556,135.87644219
      name:
      - 日吉台幼稚園
    昭和町15番15号:
      latlng: 34.99818112,135.88779040
      name:
      - 大津市立膳所児童館
    昭和町15番25号:
      latlng: 34.99823667,135.88749599
      name:
      - 大津市立昭和会館
    晴嵐一丁目20-20:
      latlng: 34.98521603,135.90020025
      name:
      - 大津市立粟津中学校
    木戸58番地:
      latlng: 35.20639407,135.92101889
      name:
      - 木戸市民センター
    本丸町6番40号:
      latlng: 34.99470653,135.89366218
      name:
      - 膳所市民センター
    本丸町6番50号:
      latlng: 34.99406215,135.89371773
      name:
      - 大津市生涯学習センター
    本堅田三丁目22-1:
      latlng: 35.11468134,135.91837868
      name:
      - 大津市立堅田中学校
    本堅田三丁目6-1:
      latlng: 35.11331481,135.91599002
      name:
      - 大津市立堅田小学校
    本堅田三丁目7番17号:
      latlng: 35.11375643,135.91606223
      name:
      - 堅田幼稚園
    本堅田三丁目8番1号:
      latlng: 35.11437023,135.91458736
      name:
      - 堅田市民センター
    本堅田三丁目9-1:
      latlng: 35.11280929,135.91446239
      name:
      - 滋賀県立堅田高等学校
    本宮二丁目46-1:
      latlng: 34.99673656,135.87200845
      name:
      - 大津市立打出中学校
    横木二丁目4番1号:
      latlng: 34.99309728,135.83285068
      name:
      - 藤尾市民センター
    比叡平一丁目45-1:
      latlng: 35.03285682,135.83445056
      name:
      - 大津市立比叡平小学校
    比叡平一丁目45番3号:
      latlng: 35.03263184,135.83416448
      name:
      - 比叡平幼稚園
    比叡平三丁目57番1号:
      latlng: 35.03129030,135.83133977
      name:
      - 山中比叡平市民センター
    水明一丁目34番地2:
      latlng: 35.14594742,135.91917835
      name:
      - 大津市立小野小学校
    清風町24-1:
      latlng: 35.14079504,135.90450481
      name:
      - 大津市立真野中学校
    湖青一丁目1番2号:
      latlng: 35.14200620,135.92228363
      name:
      - 小野市民センター
    滋賀里一丁目17番23号:
      latlng: 35.04331714,135.85569256
      name:
      - 大津市埋蔵文化財調査センター
    滋賀里一丁目9番11号:
      latlng: 35.04392822,135.85799230
      name:
      - 大津市滋賀里コミュニティセンター
    瀬田南大萱町1732-2:
      latlng: 34.97092745,135.94535186
      name:
      - 滋賀県立東大津高等学校
    牧一丁目1番24号:
      latlng: 34.95957332,135.96196963
      name:
      - 上田上市民センター
    皇子が丘一丁目9番10号:
      latlng: 35.02578880,135.85355989
      name:
      - 大津市立皇子が丘市民会館
    真野四丁目6-17:
      latlng: 35.13248490,135.91268458
      name:
      - 大津市立真野小学校
    真野四丁目6番27号:
      latlng: 35.13329870,135.91222906
      name:
      - 真野幼稚園
    真野四丁目6番2号:
      latlng: 35.13157111,135.91258737
      name:
      - 真野市民センター
    石山寺三丁目10番35号:
      latlng: 34.95609734,135.90866553
      name:
      - 大津市石山市民体育館
    石山寺三丁目11-20:
      latlng: 34.95577516,135.90874885
      name:
      - 大津市立石山小学校
    石山寺三丁目15番15号:
      latlng: 34.95408921,135.90834335
      name:
      - 石山市民センター
    石山寺三丁目17番8号:
      latlng: 34.95414472,135.90747680
      name:
      - 石山幼稚園
    神領三丁目18-1:
      latlng: 34.97063754,135.91198756
      name:
      - 滋賀県立瀬田工業高等学校
      - 滋賀県立瀬田高等学校
    神領三丁目8番9号:
      latlng: 34.97130421,135.91418457
      name:
      - 瀬田南市民センター
    稲津一丁目10番18号:
      latlng: 34.94691511,135.91457325
      name:
      - 大津市田上市民体育館
    稲津一丁目10番20号:
      latlng: 34.94696234,135.91485099
      name:
      - 大津市立田上会館
    稲津一丁目14番30号:
      latlng: 34.94637345,135.91357064
      name:
      - 大津市立田上児童館
    緑町15-2:
      latlng: 35.14439191,135.90869322
      name:
      - 大津市立真野北小学校
    緑町16番2号:
      latlng: 35.14557514,135.91017917
      name:
      - 真野北幼稚園
    緑町4番1号:
      latlng: 35.14165054,135.90877656
      name:
      - 真野北市民センター
    膳所二丁目11-1:
      latlng: 34.99634522,135.89052631
      name:
      - 滋賀県立膳所高等学校
    茶戸町10-1:
      latlng: 34.99488042,135.83230077
      name:
      - 大津市立藤尾小学校
    茶戸町22番6号:
      latlng: 34.99410267,135.82984263
      name:
      - 藤尾幼稚園
    荒川1000番地:
      latlng: 35.20613587,135.92652953
      name:
      - 大津市立木戸小学校
    荒川880番地:
      latlng: 35.20607479,135.92836271
      name:
      - 志賀北幼稚園
    葛川中村町108-1:
      latlng: 35.23377092,135.86248979
      name:
      - 大津市立葛川小学校
      - 大津市立葛川中学校
    葛川坊村町237番37号:
      latlng: 35.24798589,135.86688671
      name:
      - 葛川市民センター
    葛川坊村町243番地:
      latlng: 35.24427244,135.86585625
      name:
      - 大津市立葛川少年自然の家
    赤尾町57-1:
      latlng: 34.94079277,135.89492318
      name:
      - 大津市立南郷中学校
    里三丁目9番1号:
      latlng: 34.93821876,135.92873868
      name:
      - 田上市民センター
    里五丁目8-1:
      latlng: 34.93782434,135.93175502
      name:
      - 大津市立田上小学校
    関津六丁目19番8号:
      latlng: 34.93421073,135.92969152
      name:
      - 田上幼稚園
    際川三丁目38番2号:
      latlng: 35.04380882,135.86572484
      name:
      - 唐崎幼稚園
    際川四丁目7-1:
      latlng: 35.04552245,135.86665247
      name:
      - 大津市立唐崎小学校
    雄琴一丁目17番2号:
      latlng: 35.09006744,135.89564809
      name:
      - 雄琴市民センター
    雄琴二丁目16-1:
      latlng: 35.09248377,135.89399544
      name:
      - 大津市立雄琴小学校
    雄琴二丁目16番1号:
      latlng: 35.09248377,135.89399544
      name:
      - 雄琴幼稚園
    青山三丁目16-1:
      latlng: 34.98096597,135.97465749
      name:
      - 大津市立青山小学校
    青山三丁目16番2号:
      latlng: 34.97959392,135.97428535
      name:
      - 青山幼稚園
    青山五丁目13番36号:
      latlng: 34.97740519,135.96944975
      name:
      - 青山市民センター
    青山八丁目24-1:
      latlng: 34.97345288,135.97164121
      name:
      - 大津市立青山中学校
    音羽台6-1:
      latlng: 35.00186653,135.86499518
      name:
      - 大津市立逢坂小学校
    音羽台6番2号:
      latlng: 35.00199150,135.86379806
      name:
      - 逢坂幼稚園
    馬場一丁目1-1:
      latlng: 35.00078915,135.88236863
      name:
      - 滋賀県立大津高等学校
    馬場一丁目2-1:
      latlng: 35.00190571,135.88168257
      name:
      - 大津市立平野小学校
    馬場一丁目5番28号:
      latlng: 35.00273061,135.87998272
      name:
      - 平野幼稚園
    鳥居川町15番22号:
      latlng: 34.97287303,135.90284420
      name:
      - 晴嵐幼稚園
  守山市:
    三宅町100番地:
      latlng: 35.06488529,135.97880843
      name:
      - 守山市民スポーツ広場
      - 守山市民運動公園テニスコート
    二町町252番地:
      latlng: 35.04739874,135.97905271
      name:
      - 守山市立物部小学校
    二町町253番地:
      latlng: 35.04713489,135.97943877
      name:
      - 物部幼稚園
    今宿二丁目5番15号:
      latlng: 35.05067061,135.98686826
      name:
      - 守山市立守山会館(守山公民館)
    今市町160番地:
      latlng: 35.08008425,135.98943761
      name:
      - 守山市立河西会館(河西公民館)
    今市町25番地1:
      latlng: 35.08006215,135.99175966
      name:
      - 河西幼稚園
    今浜町地先:
      latlng: ''
      name:
      - 美崎公園
    勝部一丁目13番1号:
      latlng: 35.05320643,135.99103145
      name:
      - 守山市立守山小学校
    勝部三丁目9番1号:
      latlng: 35.04787653,135.98631282
      name:
      - 生涯学習・教育支援センター
    古高町357番地:
      latlng: 35.05366178,135.98005255
      name:
      - 守山市立守山南中学校
    吉身三丁目2番26号:
      latlng: 35.05870882,135.99750578
      name:
      - 守山市立吉身小学校
    吉身三丁目2番51号:
      latlng: 35.05904488,135.99667811
      name:
      - 吉身幼稚園
    吉身三丁目2番8号:
      latlng: 35.05770335,135.99731406
      name:
      - 守山市立吉身会館(吉身公民館)
    守山一丁目4番4号:
      latlng: 35.05424523,135.99209243
      name:
      - 守山幼稚園
    守山三丁目12-34:
      latlng: 35.05882239,135.98666006
      name:
      - 滋賀県立守山中学校・高等学校
    守山四丁目15番18号:
      latlng: ''
      name:
      - 守山町公園
    小島町1843番地:
      latlng: 35.07898182,135.99375121
      name:
      - 守山市立河西小学校
    幸津川町1043番地5:
      latlng: 35.10911403,135.98618428
      name:
      - 守山市立中洲会館(中洲公民館)
    幸津川町1406番地:
      latlng: 35.10921122,135.98572597
      name:
      - 守山市立中洲小学校
      - 中洲幼稚園
    幸津川町2840番地:
      latlng: 35.10966618,135.97223800
      name:
      - 農村環境改善センター
    播磨田町、小島町:
      latlng: ''
      name:
      - 鳩の森公園
    服部町2439番地:
      latlng: 35.10981414,135.99238678
      name:
      - 野洲川歴史公園サッカー場
    木浜町112番地:
      latlng: 35.10037521,135.95978376
      name:
      - 守山市立速野小学校
    欲賀町853番地:
      latlng: 35.05970232,135.96282393
      name:
      - 守山市立小津小学校
    欲賀町879番地:
      latlng: 35.06044944,135.96363775
      name:
      - 小津こども園
    欲賀町901番地1:
      latlng: 35.05990786,135.96409049
      name:
      - 守山市立小津会館(小津公民館)
    水保町2236番地:
      latlng: 35.10035851,135.95837555
      name:
      - 守山市立速野会館(速野公民館)
    水保町2399番地の1:
      latlng: 35.10123346,135.96033645
      name:
      - 速野幼稚園
    水保町3045番地1:
      latlng: 35.10199750,135.96715804
      name:
      - 守山市立明富中学校
    洲本町1353番地2:
      latlng: 35.09017957,135.97163034
      name:
      - 守山市立北公民館
    浮気町300番地14:
      latlng: ''
      name:
      - 守山駅前東口スポーツ広場
    矢島町3091番地:
      latlng: 35.07924176,135.97086999
      name:
      - 守山市立玉津会館(玉津公民館)
      - 守山市地域総合センター
    石田町335番地:
      latlng: ''
      name:
      - 守山市民球場
      - 守山市民運動公園ソフトボール場
      - 交通園
    石田町350番地:
      latlng: 35.06879889,135.98267185
      name:
      - 守山市立守山中学校
    石田町735番地3:
      latlng: 35.07506164,135.97254791
      name:
      - 守山市立老人憩いの家
    立入町222番地:
      latlng: 35.05409560,136.00339400
      name:
      - 守山市立立入が丘小学校
    立入町226番地1:
      latlng: 35.05435951,136.00450227
      name:
      - 立入が丘幼稚園
    立田町3272番地:
      latlng: ''
      name:
      - 農村多目的広場
    笠原町1263:
      latlng: 35.09323831,135.98630098
      name:
      - 滋賀県立守山北高等学校
    荒見町235番地:
      latlng: 35.08271413,135.98147148
      name:
      - 守山市立守山北中学校
    赤野井町39番地3:
      latlng: 35.07686977,135.97141177
      name:
      - 玉津こども園
    赤野井町9番地1:
      latlng: 35.07770859,135.97179780
      name:
      - 守山市立玉津小学校
  彦根市:
    下岡部町597:
      latlng: 35.22183775,136.17855957
      name:
      - 彦根市立稲枝北小学校
    京町二丁目2-19:
      latlng: 35.26964145,136.25780035
      name:
      - 彦根市立城東小学校
    八坂町2500:
      latlng: 35.25990466,136.21927359
      name:
      - 滋賀県立大学
    南川瀬町1310:
      latlng: 35.21946561,136.22526014
      name:
      - 滋賀県立彦根工業高等学校
    大東町1番26号:
      latlng: 35.27145796,136.26143320
      name:
      - 彦根市東地区公民館
    大藪町391:
      latlng: 35.26923775,136.23472207
      name:
      - 彦根市立金城小学校
    安清町11-32:
      latlng: 35.26399234,136.25916163
      name:
      - 彦根市立佐和山小学校
    小泉町648番地3:
      latlng: 35.24848009,136.24474710
      name:
      - ひこね燦ぱれす
    尾末町1番38号:
      latlng: 35.27519064,136.25746402
      name:
      - 彦根市民会館
    川瀬馬場町975:
      latlng: 35.22810900,136.22321846
      name:
      - 滋賀県立河瀬中学校・高等学校
    平田町267:
      latlng: 35.25982292,136.24335506
      name:
      - 彦根市立平田小学校
    平田町670番地:
      latlng: 35.25569274,136.23985274
      name:
      - 彦根市福祉保健センター
    平田町地先:
      latlng: ''
      name:
      - 千鳥ケ丘公園
    本庄町3583:
      latlng: 35.20942988,136.15978152
      name:
      - 彦根市立稲枝西小学校
    本庄町60番地:
      latlng: 35.21294697,136.18047073
      name:
      - 彦根市稲枝地区公民館
    本町一丁目3番33号:
      latlng: 35.27096057,136.25342575
      name:
      - 彦根幼稚園
    本町一丁目9番1号:
      latlng: 35.26949131,136.25268701
      name:
      - 彦根市西地区公民館
    本町三丁目3-22:
      latlng: 35.27206858,136.24850123
      name:
      - 彦根市立城西小学校
    東沼波町300:
      latlng: 35.24913617,136.26510067
      name:
      - 彦根市立旭森小学校
    松原町3511番地1:
      latlng: 35.28354231,136.25853583
      name:
      - 学校法人近江育英会近江高等学校
    松原町3751-3:
      latlng: 35.28418107,136.25722484
      name:
      - 彦根市立城北小学校
    松原町3751番地7:
      latlng: 35.28290621,136.25640552
      name:
      - 彦根市民体育センター
    森堂町131番地:
      latlng: 35.22879583,136.23986739
      name:
      - 彦根市河瀬地区公民館
    極楽寺町118:
      latlng: 35.22759874,136.23998685
      name:
      - 彦根市立河瀬小学校
    正法寺町642番地1:
      latlng: 35.24956960,136.27056675
      name:
      - 彦根市旭森地区公民館
    池洲町9-73:
      latlng: ''
      name:
      - 滋賀県立彦根西高等学校
    犬方町848番地1:
      latlng: 35.23750611,136.24228923
      name:
      - 彦根市地域総合センター人権・福祉交流会館
    甘呂町156:
      latlng: 35.24534887,136.22849829
      name:
      - 彦根市立南中学校
    甘呂町430:
      latlng: 35.24719565,136.22537624
      name:
      - 彦根市立城陽小学校
    田原町202:
      latlng: 35.21284414,136.17907923
      name:
      - 彦根市立稲枝中学校
    稲部町308:
      latlng: 35.20768988,136.19554669
      name:
      - 彦根市立稲枝東小学校
    肥田町720:
      latlng: 35.20501013,136.20469008
      name:
      - 聖泉大学
    芹川町328番地:
      latlng: 35.26483119,136.26201961
      name:
      - 学校法人松風学園彦根総合高等学校
    芹川町443:
      latlng: 35.26126508,136.26290305
      name:
      - 彦根市立東中学校
    芹川町580:
      latlng: 35.25486310,136.25993149
      name:
      - 滋賀県立彦根翔陽高等学校
    蓮台寺町180:
      latlng: 35.23335293,136.22533491
      name:
      - 彦根市立若葉小学校
    西今町1207:
      latlng: 35.26070846,136.23637778
      name:
      - 彦根市立中央中学校
    西今町380:
      latlng: 35.24826610,136.24293611
      name:
      - 彦根市立城南小学校
    西葛籠町553:
      latlng: 35.22735733,136.24538650
      name:
      - 彦根市立彦根中学校
    賀田山町278番地2:
      latlng: 35.22076489,136.21258590
      name:
      - 彦根市役所亀山出張所
    賀田山町8:
      latlng: 35.22074275,136.21435246
      name:
      - 彦根市立亀山小学校
    里根町163番地1:
      latlng: ''
      name:
      - 彦根市地域総合センター東山会館
    野瀬町187番地4:
      latlng: 35.25596722,136.23309486
      name:
      - ひこね市文化プラザ
    金亀町4-7:
      latlng: 35.27327136,136.25389227
      name:
      - 滋賀県立彦根東高等学校
    金亀町8-1:
      latlng: 35.27768444,136.24837601
      name:
      - 彦根市立西中学校
    金亀町地先:
      latlng: ''
      name:
      - 金亀公園
    開出今町1361番地:
      latlng: 35.25956100,136.23077823
      name:
      - 彦根市中老人福祉センター
    開出今町1427番地:
      latlng: ''
      name:
      - 庄堺公園
    馬場一丁目5番5号:
      latlng: 35.28086456,136.24820370
      name:
      - 彦根市北老人福祉センター
    高宮町2311番地:
      latlng: 35.23485694,136.25679093
      name:
      - 彦根市高宮地域文化センター
    高宮町2447:
      latlng: 35.23274887,136.25846587
      name:
      - 彦根市立高宮小学校
    鳥居本町1491番地6:
      latlng: 35.28074391,136.28726352
      name:
      - 彦根市鳥居本地区公民館
    鳥居本町1550-1:
      latlng: 35.28207144,136.28566085
      name:
      - 彦根市立鳥居本小学校
    鳥居本町788:
      latlng: 35.28405450,136.28519138
      name:
      - 彦根市立鳥居本中学校
  愛荘町:
    安孫子730:
      latlng: 35.17484607,136.24595652
      name:
      - 愛荘町立秦荘中学校
    島川1162:
      latlng: 35.16704872,136.23098784
      name:
      - 愛荘町立秦荘西小学校
    市779:
      latlng: 35.17284963,136.21281135
      name:
      - 愛荘町立愛知中学校
    愛知川102:
      latlng: 35.16953045,136.21148916
      name:
      - 滋賀県立愛知高等学校
    東出25:
      latlng: 35.17756313,136.25883072
      name:
      - 愛荘町立秦荘東小学校
    沓掛480:
      latlng: 35.17883497,136.21124768
      name:
      - 愛荘町立愛知川小学校
    豊満573:
      latlng: 35.16600591,136.21185295
      name:
      - 愛荘町立愛知川東小学校
  日野町:
    上野田150:
      latlng: 35.01271359,136.23736877
      name:
      - 滋賀県立日野高等学校
    中道二丁目12:
      latlng: 35.01526020,136.24985872
      name:
      - 日野町立日野公民館
    佐久良37:
      latlng: 35.04421438,136.26200458
      name:
      - 日野町立桜谷小学校
    大字三十坪1290番地:
      latlng: 35.01861570,136.21479345
      name:
      - 日野町立必佐公民館
    大字中之郷428番地の3:
      latlng: 35.04035946,136.26675959
      name:
      - 旧)日野町立桜谷幼稚園
    大字中之郷428番地の8:
      latlng: 35.04017891,136.26634851
      name:
      - 日野町立東桜谷公民館
    大字内池606番地:
      latlng: 35.01646038,136.22088181
      name:
      - 日野町立必佐幼稚園
    大字北脇988番地:
      latlng: 35.05532218,136.23115232
      name:
      - 日野町立西桜谷公民館
      - 日野町立保育所さくら園
      - 日野町立桜谷幼稚園
    大字大窪331番地:
      latlng: 35.01484918,136.24831448
      name:
      - 日野町立日野幼稚園
    大字大谷341番地の1:
      latlng: 35.03008859,136.23804050
      name:
      - 大谷公園
    大字松尾1661番地:
      latlng: 35.02010382,136.24513408
      name:
      - 日野町町民会館わたむきホール虹
    大字深山口431番地:
      latlng: 34.98730105,136.23036529
      name:
      - 日野町立南比都佐幼稚園
    大字深山口939番地:
      latlng: 34.98801761,136.23045414
      name:
      - 日野町立南比都佐公民館
    大字西大路47番地の1:
      latlng: 35.00842483,136.27606699
      name:
      - 日野町立西大路幼稚園
    大字西大路48番地の1:
      latlng: 35.00856648,136.27559204
      name:
      - 日野町立西大路公民館
    大字鎌掛2526番地:
      latlng: 34.98630384,136.26033981
      name:
      - 日野町立鎌掛公民館
    大窪331:
      latlng: 35.01484918,136.24831448
      name:
      - 日野町立日野小学校
    小御門444:
      latlng: 35.01716585,136.21956526
      name:
      - 日野町立必佐小学校
    村井三丁目14:
      latlng: 35.01525459,136.25423876
      name:
      - 日野町立保育所あおぞら園
    松尾三丁目68:
      latlng: 35.01734606,136.24170413
      name:
      - 日野町立日野中学校
    深山口431:
      latlng: 34.98730105,136.23036529
      name:
      - 日野町立南比都佐小学校
    西大路1631:
      latlng: 35.00761938,136.27755294
      name:
      - 日野町立西大路小学校
  東近江市:
    三津屋町232:
      latlng: 35.10173118,136.16158255
      name:
      - 東近江市立あかね児童館
    三津屋町77番地1:
      latlng: 35.10120347,136.16543773
      name:
      - 東近江市立八日市すみれ保育園
    上二俣町24:
      latlng: 35.06895013,136.29676914
      name:
      - 東近江市立永源寺コミュニティセンター
    下中野町431:
      latlng: 35.11057636,136.26250552
      name:
      - 東近江市立愛東コミュニティセンター
    下中野町444:
      latlng: 35.11151791,136.26125559
      name:
      - 東近江市立愛東中学校
    下羽田町54番地:
      latlng: 35.09440155,136.14846461
      name:
      - トレーニングセンター
    下羽田町84番地4:
      latlng: 35.09482373,136.14795078
      name:
      - 東近江市立平田幼稚園
    下羽田町84番地5:
      latlng: 35.09495427,136.14763415
      name:
      - 東近江市立平田コミュニティセンター
    下里町21:
      latlng: 35.13889621,136.25883346
      name:
      - 東近江市立湖東第一小学校
    中野町781番地5:
      latlng: 35.10615024,136.18851067
      name:
      - 東近江市立中野コミュニティセンター
    五個荘塚本町279:
      latlng: 35.15183402,136.17699529
      name:
      - 東近江市ぷらざ三方よし
    五個荘宮荘町631:
      latlng: ''
      name:
      - 東近江市立五個荘北幼稚園
    五個荘小幡町227:
      latlng: 35.15277329,136.19388508
      name:
      - 東近江市立五個荘中学校
    五個荘山本町306:
      latlng: 35.14295477,136.18625255
      name:
      - 東近江市立五個荘東幼稚園
    五個荘山本町348番地2:
      latlng: 35.14345469,136.18556652
      name:
      - 東近江市五個荘高齢者能力活用センター
    五個荘竜田町550:
      latlng: 35.15254246,136.18538605
      name:
      - 東近江市立五個荘コミュニティセンター
      - 東近江市立ひまわり児童館
    五個荘竜田町567:
      latlng: 35.15286182,136.18371680
      name:
      - 東近江市立五個荘小学校
    五個荘竜田町583:
      latlng: 35.15208972,136.18483056
      name:
      - 東近江市てんびんの里文化学習センター
    五個荘金堂町1705:
      latlng: 35.15639175,136.17587053
      name:
      - 東近江市立五個荘南幼稚園・五個荘すみれ保育園
    五智町239:
      latlng: 35.09679324,136.23258533
      name:
      - 東近江市立御園小学校
    五智町351番地2:
      latlng: 35.09700153,136.23186872
      name:
      - 東近江市立御園コミュニティセンター
    今堀町581-10:
      latlng: 35.08842164,136.19070546
      name:
      - 東近江市立布引小学校
    伊庭町13:
      latlng: 35.17551395,136.16365618
      name:
      - 滋賀県立能登川高等学校
    伊庭町2885:
      latlng: 35.17549143,136.15370201
      name:
      - 東近江市立能登川西小学校
    伊庭町2933番地3:
      latlng: ''
      name:
      - 東近江市立ちどり保育園
    佐野町341:
      latlng: 35.18105534,136.17819333
      name:
      - 東近江市立つくし児童館
    佐野町379:
      latlng: 35.18145250,136.17742955
      name:
      - 東近江市立能登川第一幼稚園
    八日市上之町1-25:
      latlng: 35.11426074,136.20295375
      name:
      - 滋賀県立八日市高等学校
    八日市町5番4号:
      latlng: 35.11262196,136.20088730
      name:
      - 東近江市立八日市幼稚園
    八日市町9番20号:
      latlng: 35.11266637,136.19797365
      name:
      - 八日市コミュニティセンター
    八日市金屋2丁目6番25号:
      latlng: 35.10997218,136.19815425
      name:
      - 東近江市立八日市図書館
      - 東近江市八日市保健センター
    南菩提寺町430:
      latlng: 35.14196796,136.23764528
      name:
      - 東近江市立湖東第二小学校
    大森町1012番地3:
      latlng: 35.08458324,136.22537189
      name:
      - 東近江市立玉緒幼稚園
    大森町1030:
      latlng: 35.08513039,136.22460529
      name:
      - 東近江市立玉緒コミュニティセンター
    大森町971:
      latlng: 35.08427495,136.22631626
      name:
      - 東近江市立玉緒小学校
    妙法寺町1101:
      latlng: 35.09693730,136.22160011
      name:
      - 東近江市立玉園中学校
    妙法寺町607番地:
      latlng: 35.10101752,136.22568871
      name:
      - 東近江市立つつじ保育園
    寺町799番地:
      latlng: 35.09307773,136.25240064
      name:
      - 東近江市立八日市寺幼稚園
    小川町258:
      latlng: 35.18976248,136.16715044
      name:
      - 東近江市立すみれ児童館
    小川町30:
      latlng: 35.18931254,136.16789202
      name:
      - 東近江市立能登川東小学校
    小田苅町340:
      latlng: 35.13088803,136.22511227
      name:
      - 東近江市立湖東第三小学校
    小脇町1125番地:
      latlng: 35.11294384,136.17987519
      name:
      - 東近江市立みつくり保育園
    小脇町1435:
      latlng: 35.10790272,136.17688938
      name:
      - 東近江市立小脇町宮会館
    小脇町1697番地1:
      latlng: ''
      name:
      - 東近江市立さつき児童館
    小脇町377:
      latlng: 35.11339111,136.18586912
      name:
      - 東近江市立八日市南小学校
    山上町1316番地:
      latlng: 35.07745246,136.30037467
      name:
      - 永源寺地域産業振興会館
    山上町200:
      latlng: 35.07473622,136.30589638
      name:
      - 東近江市立山上小学校
    山上町4300:
      latlng: 35.08009077,136.28308992
      name:
      - 東近江市立永源寺中学校
    山路町2800:
      latlng: 35.18417401,136.16132055
      name:
      - 東近江市立能登川中学校
    市原野町23:
      latlng: 35.06953576,136.27445710
      name:
      - 東近江市ふるさと文化体験学習館
    市原野町36:
      latlng: 35.07036628,136.27524038
      name:
      - 東近江市立市原幼稚園
    市子川原町686:
      latlng: 35.06168014,136.17942426
      name:
      - 東近江市立朝桜中学校
    市辺町2353:
      latlng: 35.09908706,136.17380363
      name:
      - 東近江市立市辺幼稚園
    市辺町2353番地:
      latlng: 35.09908706,136.17380363
      name:
      - 勤労青少年ホーム
    市辺町2391:
      latlng: 35.09899541,136.17512853
      name:
      - 東近江市立市辺コミュニティセンター
    市辺町2789:
      latlng: 35.10269218,136.16671537
      name:
      - 東近江市立船岡中学校
    平田町128:
      latlng: 35.11036347,136.14747851
      name:
      - 東近江市立平田駅前教育集会所
    建部上中町561番地:
      latlng: 35.12577076,136.19754012
      name:
      - ウェルネス八日市
    建部日吉町31:
      latlng: 35.12471526,136.19625972
      name:
      - 東近江市立建部コミュニティセンター
    建部日吉町468:
      latlng: 35.11805486,136.20198150
      name:
      - 東近江市立八日市北小学校
    建部日吉町5番地:
      latlng: 35.12484027,136.19700130
      name:
      - 東近江市立建部幼稚園
    御園町150番地6:
      latlng: 35.08765301,136.24813694
      name:
      - 東近江市高屋集会所
    春日町1-15:
      latlng: 35.10613367,136.20458442
      name:
      - 滋賀県立八日市南高等学校
    昭和町2番6号:
      latlng: 35.10650023,136.19054383
      name:
      - 東近江市立中野幼稚園
    曽根町1285:
      latlng: 35.09898017,136.25744758
      name:
      - 東近江市立愛東南小学校
    杠葉尾町1491番地2:
      latlng: 35.09497288,136.37645289
      name:
      - 東近江市林業センター
    柏木町14:
      latlng: 35.09549583,136.15774967
      name:
      - 東近江市立八日市西小学校
    桜川東町455:
      latlng: 35.06377991,136.19002904
      name:
      - 東近江市立蒲生東小学校
    梅林町1674番地2:
      latlng: ''
      name:
      - 東近江市立愛東人権啓発センター
    横溝町202:
      latlng: 35.13006063,136.24721724
      name:
      - 東近江市立湖東中学校
    永源寺高野町424番地:
      latlng: 35.07820007,136.31044614
      name:
      - 東近江市立永源寺幼稚園
    池庄町495:
      latlng: 35.12835516,136.24509786
      name:
      - 東近江市立湖東コミュニティセンター
    沖野2丁目1番34号:
      latlng: 35.10279787,136.20355126
      name:
      - 東近江市立南部コミュニティセンター
    沖野三丁目6番1号:
      latlng: 35.09589581,136.20658727
      name:
      - 東近江市立箕作小学校
    沖野三丁目7番33号:
      latlng: 35.09679016,136.20763995
      name:
      - 東近江市立沖野幼稚園・聖徳保育園
    猪子町12:
      latlng: 35.17817209,136.16833343
      name:
      - 東近江市立能登川南小学校
    猪子町1番地1:
      latlng: 35.17858590,136.16740856
      name:
      - 東近江市立能登川コミュニティセンター
    甲津畑町1200-2:
      latlng: 35.04431653,136.32133248
      name:
      - 旧甲津畑小学校体育館
    百済寺本町1399:
      latlng: 35.11920903,136.27599355
      name:
      - 東近江市立愛東北小学校
    福堂町2877-1:
      latlng: 35.20416044,136.13043144
      name:
      - 東近江市立能登川北小学校
    聖徳町1-1:
      latlng: 35.10511153,136.19764885
      name:
      - 東近江市立聖徳中学校
    蒲生堂町1287:
      latlng: 35.05030916,136.16186213
      name:
      - 東近江市立蒲生北小学校
    蓼畑町510:
      latlng: 35.10544359,136.37181702
      name:
      - 鈴鹿の里コミュミティセンター
    蛭谷町:
      latlng: 35.13025485,136.38429585
      name:
      - 木地師やまの子の家
    躰光寺町252:
      latlng: ''
      name:
      - 東近江市能登川勤労者会館
    野口町60:
      latlng: 35.10344764,136.16026600
      name:
      - 東近江市立アミティーあかね
    野村町860番地:
      latlng: 35.10514756,136.22107789
      name:
      - 東近江市立八日市野幼稚園
    鈴町1:
      latlng: 35.04725952,136.17877187
      name:
      - 東近江市立蒲生西小学校
    青山町70:
      latlng: 35.10269123,136.27177434
      name:
      - 東近江市おくのの運動公園
    高木町1124:
      latlng: 35.07062739,136.27614031
      name:
      - 東近江市立市原小学校
  栗東市:
    下戸山670番地5:
      latlng: 35.00696824,135.99830698
      name:
      - 旧栗東市農業学習センター
    中沢1丁目4番22号:
      latlng: 35.02685423,135.97574497
      name:
      - 栗東市立治田西保育園
    中沢1丁目6番3号:
      latlng: 35.02692088,135.97521170
      name:
      - 栗東市立治田西幼稚園
    六地蔵714番地1:
      latlng: 35.02386069,136.01486320
      name:
      - コミュニティセンター葉山東
    六地蔵888:
      latlng: 35.02839343,136.01406312
      name:
      - 栗東市立葉山中学校
    出庭2083番地:
      latlng: 35.04761329,136.01172119
      name:
      - 野洲川体育館
    出庭700番地1:
      latlng: 35.03658666,136.00426104
      name:
      - 栗東市やすらぎの家
    十里399番地3:
      latlng: 35.04707354,135.96195183
      name:
      - 栗東市ひだまりの家
    十里400番地:
      latlng: 35.04671526,135.96202682
      name:
      - 栗東市立大宝西保育園
    十里405番地1:
      latlng: 35.04649027,135.96110191
      name:
      - 十里体育館
    坊袋77:
      latlng: 35.01891648,135.98399983
      name:
      - 栗東市立治田小学校
    大橋2丁目3番18号:
      latlng: 35.03277041,136.00027823
      name:
      - 旧栗東市立大橋保育園
    安養寺147:
      latlng: 35.01588933,136.00310625
      name:
      - 栗東市立治田東小学校
    安養寺190番地:
      latlng: 35.01758079,136.00408389
      name:
      - 栗東市なごやかセンター
      - 栗東市総合福祉保健センター、栗東市立治田東児童館
    安養寺205番地:
      latlng: 35.01767521,136.00284790
      name:
      - コミュニティセンター治田東
    安養寺3丁目1番1号:
      latlng: 35.02162191,136.00239227
      name:
      - 旧栗東市青少年ホーム、栗東市勤労者会館
    安養寺6丁目7番12号:
      latlng: 35.01990816,135.99630405
      name:
      - 栗東市立治田東保育園
    安養寺6丁目7番29号:
      latlng: 35.01976095,135.99591243
      name:
      - 栗東市立治田東幼稚園
    安養寺8丁目4番5号:
      latlng: 35.02197733,135.99669839
      name:
      - 栗東市立中央公民館
    安養寺六丁目6-15:
      latlng: 35.01930823,135.99555137
      name:
      - 栗東市立栗東中学校
    小柿1丁目10番10号:
      latlng: 35.02719309,135.97736424
      name:
      - 栗東市ゆうあいの家・治田西児童館
    小柿1丁目1番11号:
      latlng: 35.02613213,135.97861134
      name:
      - 治田西スポーツセンター
    小柿5丁目1番8号:
      latlng: 35.02516000,135.97497009
      name:
      - コミュニティセンター治田西
    小柿一丁目5-21:
      latlng: 35.02566271,135.97489231
      name:
      - 栗東市立治田西小学校
    小野320:
      latlng: 35.02319131,136.01354668
      name:
      - 栗東市立葉山東小学校
    小野36:
      latlng: 35.01764764,136.01844082
      name:
      - 滋賀県立国際情報高等学校
    小野460番地1:
      latlng: 35.02297743,136.01225515
      name:
      - 栗東市立葉山東幼稚園
    小野465番地1:
      latlng: 35.02352181,136.01272731
      name:
      - 栗東市立葉山東保育園
    小野480番地1:
      latlng: 35.02316073,136.01146355
      name:
      - 栗東市立葉山東児童館
    小野618:
      latlng: 35.02252740,136.00629741
      name:
      - 滋賀県立栗東高等学校
    川辺390番地1:
      latlng: 35.01706959,135.99157130
      name:
      - 栗東市民体育館
    御園1009番地1:
      latlng: 34.99769472,136.02246845
      name:
      - 栗東市立金勝第1保育園
      - 栗東市立金勝幼稚園
    御園1028番地:
      latlng: 34.99807516,136.01412214
      name:
      - 栗東トレーニング・センター厚生会館
      - 栗東市立金勝第2保育園
    御園911-1:
      latlng: 34.99687539,136.02365722
      name:
      - 栗東市立金勝小学校
    御園982番地:
      latlng: 34.99695037,136.02246290
      name:
      - コミュニティセンター金勝
    御園983番地:
      latlng: 34.99754196,136.02316560
      name:
      - 栗東市立金勝児童館
    目川871番地1:
      latlng: 35.01936639,135.98153896
      name:
      - 栗東市立治田児童館
    目川871番地2:
      latlng: 35.01972745,135.98123343
      name:
      - 栗東市立治田幼稚園
    綣2丁目1番28号:
      latlng: 35.03578090,135.98416331
      name:
      - 栗東芸術文化会館
    綣3丁目3番6号:
      latlng: 35.03391724,135.98192750
      name:
      - 栗東市立大宝幼稚園分園
    綣6丁目13番10号:
      latlng: 35.03781113,135.97736688
      name:
      - 栗東市立大宝児童館
    綣7丁目5番5号:
      latlng: 35.04030804,135.98034705
      name:
      - 大宝公園
    綣7丁目9番21号:
      latlng: 35.03938038,135.97925275
      name:
      - コミュニティセンター大宝
    綣8丁目16番9号:
      latlng: 35.04025247,135.97621424
      name:
      - 栗東市立大宝幼稚園
    綣七丁目14-19:
      latlng: 35.03848605,135.97850840
      name:
      - 栗東市立大宝小学校
    綣四丁目13-47:
      latlng: 35.03586690,135.97330071
      name:
      - 栗東市立栗東西中学校
    荒張669番地:
      latlng: 34.98779605,136.02296844
      name:
      - 荒張スポーツ広場
    野尻502-1:
      latlng: 35.03803342,135.98804613
      name:
      - 栗東市立大宝東小学校
    野尻584番地:
      latlng: 35.03584202,135.98567146
      name:
      - (社)友愛 大宝保育園
    防袋161番地1:
      latlng: ''
      name:
      - コミュニティセンター治田
    防袋162番地:
      latlng: ''
      name:
      - 栗東市立治田保育園
    霊仙寺4丁目2番63号:
      latlng: 35.04195769,135.96776518
      name:
      - コミュニティセンター大宝西
    霊仙寺4丁目2番66号:
      latlng: ''
      name:
      - 栗東市立大宝西児童館
    霊仙寺5丁目6番19号:
      latlng: 35.04125502,135.96867620
      name:
      - 栗東市立大宝西幼稚園
    霊仙寺四丁目2-55:
      latlng: 35.04202433,135.96661251
      name:
      - 栗東市立大宝西小学校
    高野289番地:
      latlng: 35.03312059,136.01247146
      name:
      - 栗東市立葉山保育園
      - 栗東市立葉山幼稚園
    高野310:
      latlng: 35.03267899,136.01329362
      name:
      - 栗東市立葉山小学校
    高野568番地1:
      latlng: 35.03531754,136.01283524
      name:
      - 栗東市立葉山児童館
    高野622番地1:
      latlng: 35.03551475,136.01336852
      name:
      - コミュニティセンター葉山
    高野727番地:
      latlng: ''
      name:
      - 高野公園
  湖南市:
    三雲1186:
      latlng: 34.98463581,136.10713015
      name:
      - 湖南市立三雲まちづくりセンター
    三雲3100番地:
      latlng: 34.97475077,136.10798606
      name:
      - 湖南市立三雲東小学校
    下田1515番:
      latlng: 35.02543147,136.13146797
      name:
      - 湖南市立下田まちづくりセンター
    下田2784番地:
      latlng: 35.02170133,136.13039591
      name:
      - 湖南市立下田小学校
    中央一丁目1番地:
      latlng: 35.00435258,136.08387301
      name:
      - 湖南市立中央まちづくりセンター
    丸山2丁目3-1:
      latlng: 34.99530618,136.05150700
      name:
      - 滋賀県立石部高等学校
    丸山一丁目1番1号:
      latlng: 34.99797248,136.05552041
      name:
      - 湖南市立石部南小学校
    夏見1857番地:
      latlng: 34.99077100,136.09098665
      name:
      - 湖南市立三雲小学校
    宝来坂四丁目3番1号:
      latlng: 35.00293837,136.04836025
      name:
      - 湖南市立石部中学校
    岩根1155番地1:
      latlng: 35.00229225,136.11262349
      name:
      - 湖南市立岩根まちづくりセンター
    岩根3791番地:
      latlng: 35.00623595,136.09709419
      name:
      - 湖南市立岩根小学校
    岩根499番地351:
      latlng: 35.01657126,136.11820866
      name:
      - 湖南市立日枝中学校
    柑子袋860番地1:
      latlng: 35.00260531,136.07000482
      name:
      - 湖南市立柑子袋まちづくりセンター
    正福寺28番地1:
      latlng: 35.01374600,136.08545883
      name:
      - 湖南市立甲西北中学校
    水戸町31番地1:
      latlng: 35.01159410,136.12273048
      name:
      - 湖南市立水戸小学校
    石部中央二丁目3番1号:
      latlng: 35.00685468,136.05803390
      name:
      - 湖南市立石部小学校
    石部中央四丁目1番7号:
      latlng: 35.01034036,136.05790051
      name:
      - 湖南市立石部防災センター
    菩提寺1583番地270:
      latlng: 35.03177963,136.05869154
      name:
      - 湖南市立菩提寺小学校
    菩提寺328番地:
      latlng: 35.04541447,136.06765711
      name:
      - 湖南市立菩提寺北小学校
    菩提寺775番地1:
      latlng: 35.02587203,136.06338287
      name:
      - 湖南市立菩提寺まちづくりセンター
    針1:
      latlng: 35.00331392,136.08931427
      name:
      - 滋賀県立甲西高等学校
    針284番地:
      latlng: 35.00228616,136.08431745
      name:
      - 湖南市立甲西中学校
  甲良町:
    在士357-1:
      latlng: 35.20461581,136.25956373
      name:
      - 甲良町保健福祉センター
    在士392:
      latlng: 35.20417418,136.25903600
      name:
      - 甲良町立甲良中学校
    在士625:
      latlng: 35.21098996,136.25545838
      name:
      - 甲良町立甲良西小学校
    大字在士350番地:
      latlng: 35.20447974,136.26162743
      name:
      - 甲良町公民館
    大字長寺507:
      latlng: 35.19218949,136.26189982
      name:
      - 長寺地域総合センター
    横関215:
      latlng: 35.20045529,136.26959341
      name:
      - 甲良町立甲良東小学校
  甲賀市:
    信楽町上朝宮467番地:
      latlng: 34.85238516,135.98202498
      name:
      - 甲賀市緑地等管理中央センター
    信楽町上朝宮611:
      latlng: 34.85333778,135.97853900
      name:
      - 甲賀市朝宮保育園
    信楽町下朝宮268:
      latlng: 34.85295156,135.97422539
      name:
      - 甲賀市立朝宮小学校
    信楽町勅旨485番地:
      latlng: 34.89175073,136.07356835
      name:
      - 甲賀市勅旨高齢者活動・生活支援促進施設勅旨会館
    信楽町多羅尾1841番地1:
      latlng: 34.81222408,136.03782394
      name:
      - 甲賀市多羅尾保育園
    信楽町多羅尾2012:
      latlng: 34.81102691,136.03496313
      name:
      - 甲賀市立多羅尾小学校
    信楽町多羅尾2067番地2:
      latlng: 34.81075195,136.03531865
      name:
      - 甲賀市多羅尾公民館
    信楽町宮尻361番地:
      latlng: 34.87493016,135.96612752
      name:
      - 甲賀市信楽生活改善センター
    信楽町宮町1155番地:
      latlng: 34.93480508,136.08376076
      name:
      - 甲賀市多目的集会施設宮町会館
    信楽町小川744番地:
      latlng: 34.84851985,136.03527240
      name:
      - 甲賀市信楽農事集会所小川会館
    信楽町柞原164番地1:
      latlng: 34.86334646,136.02884781
      name:
      - 甲賀市農林漁家婦人活動促進施設柞原会館
    信楽町柞原899:
      latlng: 34.85435540,136.02802593
      name:
      - 甲賀市立小原小学校
    信楽町江田950:
      latlng: 34.86874120,136.05414541
      name:
      - 甲賀市立信楽中学校
    信楽町江田969:
      latlng: 34.87157148,136.05250100
      name:
      - 甲賀市立信楽小学校
      - 甲賀市信楽保育園
    信楽町牧72番地3:
      latlng: 34.90793821,136.08226172
      name:
      - 甲賀市雲井地区農村活性化センター
    信楽町牧868:
      latlng: 34.91161009,136.08244491
      name:
      - 甲賀市立雲井小学校
    信楽町牧873:
      latlng: 34.91160177,136.08299487
      name:
      - 甲賀市雲井保育園
    信楽町西349番地4:
      latlng: 34.87210451,136.04192405
      name:
      - 甲賀市信楽西教育集会所
    信楽町長野1142:
      latlng: 34.87867931,136.05645882
      name:
      - 甲賀市信楽伝統産業会館
    信楽町長野1251:
      latlng: ''
      name:
      - 甲賀市役所信楽地域市民センター
    信楽町長野1252:
      latlng: 34.87841550,136.05896143
      name:
      - 信楽開発センター
    信楽町長野1310:
      latlng: 34.88221803,136.06265273
      name:
      - 甲賀市信楽体育館
    信楽町長野1312番地1:
      latlng: 34.88232633,136.06191389
      name:
      - 甲賀市信楽図書館
    信楽町長野1384番地46:
      latlng: 34.88198455,136.05544489
      name:
      - 甲賀市交流促進センター谷川会館
    信楽町長野317-1:
      latlng: 34.87265201,136.05504245
      name:
      - 滋賀県立信楽高等学校
    信楽町長野473:
      latlng: 34.87564618,136.05430074
      name:
      - 甲賀市信楽保健センター
    土山町北土山1462:
      latlng: 34.93529767,136.28501239
      name:
      - 甲賀市立土山小学校
    土山町北土山1715番地:
      latlng: 34.93768075,136.28332369
      name:
      - 土山開発センター
    土山町北土山2040番地の1:
      latlng: ''
      name:
      - 甲賀市鈴鹿ホール
    土山町北土山2342番地2:
      latlng: ''
      name:
      - 甲賀市森林文化ホール
    土山町北土山2747番地2:
      latlng: 34.94479666,136.28060170
      name:
      - 甲賀市清和会館
    土山町北土山414:
      latlng: 34.93113423,136.29542476
      name:
      - 甲賀市立土山中学校
    土山町北土山414番地2:
      latlng: 34.93178142,136.29550253
      name:
      - 甲賀市土山体育館
    土山町南土山甲406番地:
      latlng: 34.93458648,136.28146563
      name:
      - 甲賀市土山公民館
    土山町南土山甲417:
      latlng: 34.93347821,136.28100459
      name:
      - 甲賀市土山にこにこ園
    土山町大野2154番地:
      latlng: 34.94609189,136.23289463
      name:
      - 甲賀市大野公民館
    土山町大野461番地2:
      latlng: 34.94434226,136.23967477
      name:
      - 甲賀市大野保育園
    土山町大野5221番地24:
      latlng: 34.96798430,136.22234756
      name:
      - 甲賀市梅田会館
    土山町大野949:
      latlng: 34.94458664,136.23862483
      name:
      - 甲賀市立大野小学校
    土山町鮎河1201:
      latlng: 34.95860992,136.34025911
      name:
      - 甲賀市立鮎河小学校
    土山町鮎河1212番地1:
      latlng: 34.95761556,136.33886765
      name:
      - 甲賀市鮎河保育園
    土山町鮎河1950番地:
      latlng: 34.95720723,136.33730676
      name:
      - 甲賀市鮎河公民館
    土山町黒川1536:
      latlng: 34.92183203,136.32662348
      name:
      - 甲賀市立山内小学校
    土山町黒川1970番地:
      latlng: 34.92378467,136.32749279
      name:
      - 甲賀市山内公民館
    土山町黒川2783:
      latlng: 34.92429018,136.32616512
      name:
      - 甲賀市山内保育園
    水口町三大寺437:
      latlng: 34.94803220,136.14673317
      name:
      - 甲賀市立貴生川小学校
      - 甲賀市貴生川幼稚園
    水口町三大寺625番地:
      latlng: 34.94654615,136.14148100
      name:
      - 甲賀市休養センターいいみち館
    水口町伴中山1014:
      latlng: 34.99730175,136.15642490
      name:
      - 甲賀市伴谷保育園
    水口町伴中山2252:
      latlng: 35.00116239,136.15734408
      name:
      - 甲賀市立伴谷小学校
    水口町伴中山3743:
      latlng: 34.99654909,136.15814979
      name:
      - 甲賀市伴谷幼稚園
    水口町八坂7番21号:
      latlng: ''
      name:
      - 甲賀市水口西保育園
    水口町八坂7番4号:
      latlng: 34.97115505,136.17118842
      name:
      - 甲賀市水口中部コミュニティーセンター
    水口町北内貴230:
      latlng: 34.95982006,136.16243948
      name:
      - 甲賀市水口スポーツの森
    水口町北脇1132:
      latlng: 34.97727346,136.14911817
      name:
      - 甲賀市立柏木小学校
    水口町古城が丘7-1:
      latlng: 34.97414098,136.18429284
      name:
      - 滋賀県立水口東中学校・高等学校
    水口町宇川2404:
      latlng: 34.96260541,136.13860313
      name:
      - 甲賀市宇川会館
    水口町山774:
      latlng: 34.99529685,136.17855090
      name:
      - 甲賀市立伴谷東小学校
    水口町山上868番地:
      latlng: 34.93179774,136.13859838
      name:
      - 甲賀市休養センターやまびこ館
    水口町新城434:
      latlng: 34.96206737,136.19587276
      name:
      - 甲賀市岩上保育園
    水口町新城653:
      latlng: 34.96245344,136.19622828
      name:
      - 甲賀市岩上体育館
    水口町朝日ケ丘5番12号:
      latlng: 34.97469365,136.17987651
      name:
      - 甲賀市水口北部コミュニティーセンター
    水口町本丸1番20号:
      latlng: 34.97172990,136.16600000
      name:
      - 甲賀市水口中央公民館
      - 甲賀市水口体育館
    水口町本町1丁目9番17号:
      latlng: 34.96891647,136.17802125
      name:
      - 甲賀市水口東保育園
    水口町本町一丁目2-1:
      latlng: 34.96986080,136.17665190
      name:
      - 甲賀市立水口小学校
    水口町松尾1202番地2:
      latlng: 34.98418706,136.17904016
      name:
      - 甲賀市水口北保育園
    水口町梅が丘3-1:
      latlng: 34.97078281,136.16726935
      name:
      - 滋賀県立水口高等学校
    水口町植117番地:
      latlng: 34.97677893,136.14133847
      name:
      - 甲賀市柏木保育園
    水口町水口5607:
      latlng: 34.96671661,136.16843043
      name:
      - 甲賀市水口保健センター
    水口町水口5900:
      latlng: 34.96751361,136.15949516
      name:
      - 甲賀市立水口中学校
    水口町水口610-17:
      latlng: 34.97174121,136.18251250
      name:
      - 甲賀市立城山中学校
    水口町神明3番12号:
      latlng: 34.96785546,136.17590477
      name:
      - 甲賀市水口東部コミュニティーセンター
    水口町綾野3-6:
      latlng: 34.97424078,136.16913020
      name:
      - 甲賀市立綾野小学校
    水口町貴生川558:
      latlng: 34.95348998,136.14953549
      name:
      - 甲賀市貴生川保育園
    甲南町寺庄427:
      latlng: 34.91939420,136.18401087
      name:
      - 滋賀県立甲南高等学校
    甲南町寺庄718番地1:
      latlng: 34.91938863,136.18254712
      name:
      - 甲賀市甲南東保育園
    甲南町寺庄841:
      latlng: 34.92169666,136.17996951
      name:
      - 甲賀市立甲南中学校
    甲南町希望ヶ丘1丁目3番地4:
      latlng: 34.94929912,136.17674670
      name:
      - 甲賀市希望ヶ丘防災コミュニティセンター
    甲南町希望ヶ丘4丁目1:
      latlng: 34.94081110,136.17333892
      name:
      - 甲賀市甲南希望ヶ保育園
    甲南町希望ヶ丘三丁目34:
      latlng: 34.94906579,136.17176097
      name:
      - 甲賀市立希望ヶ丘小学校
    甲南町新治1095:
      latlng: 34.92011057,136.16116311
      name:
      - 甲賀市甲南西保育園
    甲南町杉谷2046:
      latlng: 34.92158809,136.15507756
      name:
      - 甲賀市立甲南第二小学校
    甲南町森尻527:
      latlng: 34.93980272,136.15759332
      name:
      - 甲賀市かえで会館
    甲南町深川1728-1:
      latlng: ''
      name:
      - 甲賀市立甲南第一小学校
    甲南町深川1865番地:
      latlng: 34.92973171,136.16840919
      name:
      - 甲賀市甲南図書交流館
    甲南町深川2408:
      latlng: 34.93178979,136.16462897
      name:
      - 甲賀市甲南北保育園
    甲南町稗谷2838番地:
      latlng: 34.94006120,136.17755526
      name:
      - 甲賀市甲南のぞみ保育園
    甲南町竜法師1137:
      latlng: 34.91154228,136.17226511
      name:
      - 甲賀市立甲南中部小学校
    甲南町竜法師600:
      latlng: 34.91944962,136.17024831
      name:
      - 甲賀市甲南情報交流センター
    甲南町葛木30番地11:
      latlng: ''
      name:
      - 甲賀市甲南B&G海洋センター
    甲南町葛木875番地:
      latlng: 34.93283421,136.17706940
      name:
      - 甲賀市甲南青少年研修センター
    甲南町葛木925:
      latlng: 34.93138436,136.17528070
      name:
      - 甲賀市甲南ふれあいの館
    甲南町葛木977:
      latlng: 34.93013448,136.17373643
      name:
      - 甲賀市甲南体育館
    甲南町野尻231:
      latlng: 34.91232560,136.18124475
      name:
      - 甲賀市甲南南保育園
    甲南町野川840:
      latlng: 34.88718427,136.18811179
      name:
      - 甲賀市立甲南第三小学校
    甲賀町上野1320:
      latlng: 34.88966795,136.22766386
      name:
      - 甲賀市油日にこにこ園
      - 甲賀市油日児童クラブ
    甲賀町上野1322:
      latlng: 34.89014845,136.22762218
      name:
      - 甲賀市立油日小学校
    甲賀町上野2416番地:
      latlng: 34.89019018,136.23113022
      name:
      - 油日総合文化センター
    甲賀町大久保1000:
      latlng: 34.90949878,136.23191265
      name:
      - 甲賀市立大原小学校
    甲賀町大久保507番地2:
      latlng: 34.90168312,136.23146581
      name:
      - 甲賀市甲賀保健センター
    甲賀町大久保925番地1:
      latlng: 34.91025148,136.23303754
      name:
      - 甲賀市大原児童クラブ
    甲賀町大久保952:
      latlng: 34.91116802,136.23272919
      name:
      - 甲賀市大原にこにこ園
    甲賀町大原中886番地:
      latlng: 34.90216360,136.23071029
      name:
      - 甲賀市かふか生涯学習館
    甲賀町小佐治2121番地1:
      latlng: 34.93463155,136.21725999
      name:
      - 甲賀市甲賀もちふる里館
    甲賀町小佐治2922:
      latlng: 34.93665628,136.21037454
      name:
      - 甲賀市立佐山小学校
    甲賀町岩室1396番地:
      latlng: 34.93261883,136.25100209
      name:
      - 甲賀木彩館
    甲賀町滝838:
      latlng: 34.89825549,136.21280353
      name:
      - 甲賀市甲賀西保育園
    甲賀町相模124番地7:
      latlng: 34.90433534,136.21743341
      name:
      - 甲賀共同福祉センター
      - 甲賀市甲賀中央公園体育館
    甲賀町相模128:
      latlng: 34.90303830,136.21936388
      name:
      - 甲賀市立甲賀中学校
    甲賀町相模151番地1:
      latlng: 34.90320216,136.21825285
      name:
      - 甲賀市甲賀体育館
    甲賀町相模846番地:
      latlng: 34.90604069,136.21822215
      name:
      - 甲賀農村環境改善センター
    甲賀町神1733番地:
      latlng: 34.90636899,136.25048344
      name:
      - 甲賀市里山かむら交流館
    甲賀町神保2102番地:
      latlng: 34.93538697,136.20891917
      name:
      - 甲賀市老人福祉センター佐山荘
    甲賀町神保2104:
      latlng: 34.93531197,136.20857476
      name:
      - 甲賀市甲賀北保育園
    甲賀町鳥居野1518番地:
      latlng: 34.90995696,136.22565752
      name:
      - 甲賀市甲賀コミュニティーセンター
  竜王町:
    山面1-1:
      latlng: 35.07552040,136.09927045
      name:
      - 竜王町立竜王西小学校
    橋本15:
      latlng: 35.07578722,136.12438170
      name:
      - 竜王町立竜王中学校
    綾戸275:
      latlng: 35.06705205,136.12687890
      name:
      - 竜王町立竜王小学校
  米原市:
    三吉190:
      latlng: 35.31963374,136.32653931
      name:
      - 米原市立息郷小学校
    上野991:
      latlng: 35.39540165,136.37945014
      name:
      - 米原市立伊吹小学校
    入江307:
      latlng: 35.31423961,136.28075189
      name:
      - 米原市立米原小学校
    入江313:
      latlng: 35.31292861,136.27989647
      name:
      - 米原市立米原中学校
    吉槻656:
      latlng: 35.45467941,136.35965863
      name:
      - 米原市立東草野小学校
      - 米原市立東草野中学校
    吉槻785番地3:
      latlng: 35.45617092,136.35899200
      name:
      - 吉槻生活改善センター
    大鹿546:
      latlng: 35.35698227,136.34959707
      name:
      - 米原市立山東西小学校
    宇賀野290:
      latlng: 35.33952580,136.29041170
      name:
      - 米原市立近江にし保育園
    宇賀野508:
      latlng: 35.33758989,136.28915623
      name:
      - 米原市立坂田小学校
    市場424:
      latlng: 35.38379536,136.35344030
      name:
      - 米原市立大原小学校
    新庄77:
      latlng: 35.33537149,136.31322051
      name:
      - 米原市立ふたば幼稚園
    朝妻筑摩34番地6:
      latlng: 35.32703535,136.28040690
      name:
      - 和(なごみ)ふれあいセンター
    朝日302:
      latlng: 35.38287885,136.35067680
      name:
      - 滋賀県立伊吹高等学校
    杉沢817:
      latlng: 35.37483856,136.38601715
      name:
      - 米原市立春照小学校
    枝折77:
      latlng: 35.32414423,136.34618181
      name:
      - 米原市立醒井小学校
    柏原2320:
      latlng: 35.33952699,136.40159423
      name:
      - 米原市立柏原小学校
    池下1054:
      latlng: 35.37750173,136.35817880
      name:
      - 米原市立大東中学校
    池下91:
      latlng: 35.37349117,136.36233956
      name:
      - 米原市立山東幼稚園
    河南295:
      latlng: 35.32076680,136.33232766
      name:
      - 米原市立河南中学校
    清滝40:
      latlng: 35.34370969,136.39522272
      name:
      - 米原市立柏原中学校
    能登瀬1322:
      latlng: 35.33219128,136.31571756
      name:
      - 米原市立近江ひがし保育園
    能登瀬1339:
      latlng: 35.33200239,136.31518985
      name:
      - 米原市立息長小学校
    西円寺1200:
      latlng: 35.31995613,136.29837518
      name:
      - 滋賀県立米原高等学校
    長岡645:
      latlng: 35.36282326,136.37101112
      name:
      - 米原市立山東東小学校
    顔戸233:
      latlng: 35.33771274,136.30896818
      name:
      - 米原市立双葉中学校
    顔戸281番地1:
      latlng: 35.33437983,136.31009311
      name:
      - 米原市立近江図書館
      - 米原市近江はにわ館
    高番387:
      latlng: 35.38152064,136.37809004
      name:
      - 米原市立伊吹山中学校
  草津市:
    上笠一丁目6番2号:
      latlng: 35.03230310,135.94703653
      name:
      - 草津市立笠縫小学校
    下笠町110番地:
      latlng: 35.03144751,135.93840125
      name:
      - 草津市立松原中学校
    北山田町350番地:
      latlng: 35.02949762,135.92897444
      name:
      - 草津市立山田小学校
    南山田町683番地:
      latlng: 35.02407611,135.93191585
      name:
      - 草津市立武道館
    南笠東四丁目4番1号:
      latlng: 34.99104715,135.94386535
      name:
      - 草津市立南笠東小学校
    大路二丁目7番62号:
      latlng: 35.01858021,135.96655713
      name:
      - 草津市立草津第二小学校
    平井三丁目8番1号:
      latlng: 35.03535288,135.95939653
      name:
      - 草津市立笠縫東小学校
    志那中町119番地:
      latlng: 35.05334466,135.94399770
      name:
      - 草津市立常盤小学校
    新堂町111番地:
      latlng: 35.04429044,135.95228323
      name:
      - 草津市立新堂中学校
    木川町955-1:
      latlng: 35.02384314,135.94875029
      name:
      - 滋賀県立草津高等学校
    矢倉二丁目5番50号:
      latlng: 35.00462062,135.95149210
      name:
      - 草津市立矢倉小学校
    矢橋町7番地の1:
      latlng: 35.00560613,135.93599337
      name:
      - 草津市立老上中学校
    若草二丁目16番2号:
      latlng: 34.98981195,135.97147142
      name:
      - 草津市立志津南小学校
    草津三丁目14番5号:
      latlng: 35.01373633,135.96176600
      name:
      - 草津市立草津小学校
    草津二丁目16番8号:
      latlng: 35.01449181,135.96338251
      name:
      - 草津市立草津中学校
    草津町1486番地の1:
      latlng: 35.01970760,135.95045849
      name:
      - 草津市立ふれあい体育館
    草津町1839:
      latlng: 35.01551371,135.95236676
      name:
      - 滋賀県立湖南農業高等学校
    西渋川二丁目8-65:
      latlng: 35.03152017,135.96722635
      name:
      - 滋賀県立草津東高等学校
    西渋川二丁目8番55号:
      latlng: 35.03076470,135.96590981
      name:
      - 草津市立渋川小学校
    追分町623番地:
      latlng: 34.99879399,135.96882691
      name:
      - 草津市立ロクハ公園
    追分町630番地:
      latlng: 34.99829955,135.96540779
      name:
      - 草津市立高穂中学校
    野路九丁目6番12号:
      latlng: 34.99552170,135.94814265
      name:
      - 草津市立玉川小学校
    野路東三丁目2-1:
      latlng: 34.99387502,135.95964734
      name:
      - 滋賀県立玉川高等学校
    野路東三丁目3番18号:
      latlng: 34.99305289,135.95917796
      name:
      - 草津市立玉川中学校
    野路町517番地:
      latlng: 35.00482289,135.93607948
      name:
      - 草津市立老上小学校
    青地町827番地:
      latlng: 35.00285467,135.97722319
      name:
      - 草津市立志津小学校
  豊郷町:
    上枝50:
      latlng: 35.19687351,136.22835206
      name:
      - 豊郷町立豊日中学校
    下枝147番地:
      latlng: 35.19022902,136.21924439
      name:
      - 豊郷勤労者体育センター
    吉田1454:
      latlng: 35.19208217,136.22662165
      name:
      - 豊郷町立日栄小学校
    四十九院1251番地:
      latlng: ''
      name:
      - 豊栄のさと
    石畑518:
      latlng: 35.20337319,136.23287114
      name:
      - 豊郷町立豊郷小学校
  近江八幡市:
    上田町1751:
      latlng: 35.11843424,136.11871511
      name:
      - 近江八幡市立八幡東中学校
    中小森町1178番地:
      latlng: 35.11049313,136.08288537
      name:
      - 近江八幡市立桐原コミュニティセンター
    中小森町1191番地:
      latlng: 35.11036537,136.08229932
      name:
      - 近江八幡市立桐原幼稚園
    八幡町37番地1:
      latlng: 35.13772319,136.09655931
      name:
      - 近江八幡市立八幡子どもセンター
    出町366番地:
      latlng: 35.12871587,136.09881716
      name:
      - 近江八幡市文化会館
    出町487番地:
      latlng: 35.13366530,136.09560094
      name:
      - 近江八幡市立八幡幼稚園
    加茂町1524:
      latlng: 35.13181511,136.06838422
      name:
      - 近江八幡市立岡山小学校
    加茂町1524番地の2:
      latlng: 35.13224843,136.06954242
      name:
      - 近江八幡市岡山コミュニティセンター
      - 近江八幡市立岡山幼稚園
    友定町305番地:
      latlng: 35.11839843,136.13370506
      name:
      - 近江八幡市武佐コミュニティセンター
    古川町50:
      latlng: 35.11218716,136.06981468
      name:
      - 近江八幡市立八幡西中学校
    土田町1313番地:
      latlng: 35.12727155,136.09280657
      name:
      - 近江八幡市総合福祉センター
    土田町175:
      latlng: 35.12237212,136.08777923
      name:
      - 近江八幡市立桐原東小学校
    堀上町105:
      latlng: 35.12124169,136.09351464
      name:
      - 滋賀県立八幡高等学校
    大森町41番地7:
      latlng: 35.11173466,136.08734318
      name:
      - 近江八幡市市民共生センター
    大森町88番地:
      latlng: 35.11092368,136.08826531
      name:
      - 近江八幡市立八幡西子どもセンター
    宇津呂町10:
      latlng: 35.13489016,136.09288178
      name:
      - 滋賀県立八幡商業高等学校
    宇津呂町73番地1:
      latlng: 35.13521790,136.09085697
      name:
      - 近江八幡市八幡コミュニティセンター
    安土町上豊浦862:
      latlng: 35.13519357,136.14236558
      name:
      - 近江八幡市立安土中学校
    安土町下豊浦4660:
      latlng: 35.14573913,136.13239255
      name:
      - 近江八幡市立安土公民館
    安土町下豊浦5300:
      latlng: 35.14667785,136.13096224
      name:
      - 近江八幡市立安土幼稚園
    安土町内野2048:
      latlng: 35.11802641,136.16483218
      name:
      - 近江八幡市立安土健康づくりセンター
    安土町小中190:
      latlng: 35.13835135,136.13653318
      name:
      - 私立安土保育園
    安土町常楽寺456:
      latlng: 35.14352274,136.13205638
      name:
      - 近江八幡市立安土小学校
    安土町東老蘇1300:
      latlng: 35.12562276,136.15720248
      name:
      - 近江八幡市立老蘇小学校
    安土町桑実寺777:
      latlng: 35.14881978,136.14739602
      name:
      - 近江八幡市立あづちマリエート
    島町1580番地:
      latlng: 35.16861410,136.08308798
      name:
      - 近江八幡市立島幼稚園
    島町1603:
      latlng: 35.16910018,136.08410455
      name:
      - 近江八幡市立島小学校
    島町1671番地:
      latlng: 35.16788919,136.08351019
      name:
      - 近江八幡市島コミュニティセンター
    市井町36:
      latlng: 35.13874529,136.09833143
      name:
      - 近江八幡市立八幡中学校
    市井町36番地:
      latlng: 35.13874529,136.09833143
      name:
      - 近江八幡市民体育館
    末広町284番地の2:
      latlng: ''
      name:
      - 近江八幡市立八幡東子どもセンター
    本町五丁目5:
      latlng: ''
      name:
      - 近江八幡市立八幡小学校
    武佐町118:
      latlng: 35.11827072,136.13801290
      name:
      - 近江八幡市立武佐小学校
    武佐町118番地:
      latlng: 35.11827072,136.13801290
      name:
      - 近江八幡市立武佐こども園
    江頭町1014:
      latlng: 35.11212566,136.04906167
      name:
      - 近江八幡市立北里小学校
    江頭町970番地:
      latlng: 35.11320332,136.05125028
      name:
      - 近江八幡市立北里幼稚園
    江頭町973番地:
      latlng: 35.11352272,136.05093365
      name:
      - 近江八幡市北里コミュニティセンター
    江頭町983番地:
      latlng: 35.11368101,136.05028928
      name:
      - 近江八幡市立看護専門学校
    池田本町638-4:
      latlng: 35.10981820,136.08048843
      name:
      - 近江八幡市立桐原小学校
    沖島町268番地の1:
      latlng: ''
      name:
      - 近江八幡市沖島コミュニティセンター
    沖島町360:
      latlng: 35.20430979,136.06042589
      name:
      - 近江八幡市立沖島小学校
    津田町18番地:
      latlng: 35.15066855,136.06809800
      name:
      - 近江八幡市立運動公園
    西庄町5:
      latlng: 35.12870777,136.11650176
      name:
      - 滋賀県立八幡工業高等学校
    金剛寺町323番地:
      latlng: 35.12406391,136.11358799
      name:
      - 近江八幡市金田コミュニティセンター
    金剛寺町36:
      latlng: ''
      name:
      - 近江八幡市立金田小学校
    金剛寺町390番地:
      latlng: 35.12612480,136.11665998
      name:
      - 近江八幡市立金田幼稚園
    馬淵町1533:
      latlng: 35.10262527,136.11273519
      name:
      - 近江八幡市立馬淵小学校
    馬淵町1533番地:
      latlng: 35.10262527,136.11273519
      name:
      - 近江八幡市立馬淵幼稚園
    馬淵町1636番地の1:
      latlng: 35.10285577,136.11127422
      name:
      - 近江八幡市馬淵コミュニティセンター
    鷹飼町40番地:
      latlng: 35.11934775,136.10785225
      name:
      - 近江八幡市駅南総合スポーツ施設
    鷹飼町南四丁目4番地4:
      latlng: 35.11985025,136.10015282
      name:
      - 近江八幡市いきいきふれあいセンター
    鷹飼町南四丁目4番地5:
      latlng: 35.11961417,136.09977508
      name:
      - 近江八幡市勤労者福祉センター
  野洲市:
    三上111番地:
      latlng: 35.04497226,136.02981945
      name:
      - 野洲市立三上小学校
    三上134番地:
      latlng: 35.04578327,136.02923617
      name:
      - 野洲市立三上幼稚園
    三上828番地:
      latlng: 35.05118544,136.02725025
      name:
      - コミュニティセンターみかみ
    上屋1169番地:
      latlng: 35.08488754,136.04191541
      name:
      - 野洲市立祇王小学校
    六条1509番地1:
      latlng: 35.11121706,136.00526945
      name:
      - コミュニティセンターひょうず
    六条377番地:
      latlng: 35.11307245,136.01003297
      name:
      - 野洲市立中主中学校
    六条460番地:
      latlng: 35.11345573,136.00958578
      name:
      - 野洲市中主B&G海洋センター
    冨波甲1339番地:
      latlng: ''
      name:
      - 野洲市総合体育館
    北比江85番地:
      latlng: ''
      name:
      - 市民交流センター・野洲市中主児童館
    吉地1120番地1:
      latlng: 35.11038677,136.01527420
      name:
      - 野洲市立中主幼稚園
    吉地1127番地:
      latlng: 35.10968132,136.01612136
      name:
      - 中主ふれあいセンター
    吉川3641番地:
      latlng: 35.12248738,135.98955066
      name:
      - 吉川自治会館
    大篠原1414番地:
      latlng: 35.09005108,136.05825780
      name:
      - 野洲市立篠原小学校
    大篠原1414番地2:
      latlng: 35.08909565,136.05848555
      name:
      - 野洲市立篠原こども園
    大篠原4024番地2:
      latlng: ''
      name:
      - コミュニティセンターしのはら
    小南588番地:
      latlng: 35.10140794,136.06051029
      name:
      - 滋賀県立野洲養護学校
    小篠原1147番地:
      latlng: 35.06553677,136.02291482
      name:
      - 野洲市立野洲小学校
    小篠原1780番地:
      latlng: 35.07046131,136.02909747
      name:
      - 野洲市野洲地域総合センター
    小篠原1977番地1:
      latlng: 35.06875870,136.02710326
      name:
      - 野洲市立野洲第三保育園
    小篠原2142番地:
      latlng: 35.06689495,136.02092342
      name:
      - 野洲市立野洲幼稚園
      - コミュニティセンターやす
    小篠原510番地:
      latlng: 35.06666449,136.03737969
      name:
      - 野洲市立野洲中学校
    市三宅240番地:
      latlng: 35.07686899,136.02217633
      name:
      - 野洲市立北野小学校
    市三宅248番地:
      latlng: 35.07710507,136.02385944
      name:
      - 野洲市立北野幼稚園
    市三宅313番地:
      latlng: ''
      name:
      - コミュニティセンターきたの
    栄32番23号:
      latlng: 35.07166396,136.03235817
      name:
      - 野洲市立野洲第二保育園
    比留田3313番地3:
      latlng: ''
      name:
      - 野洲市豊積の里総合センター
    永原1690番地:
      latlng: 35.09191443,136.03946301
      name:
      - 野洲市立野洲北中学校
    永原463番地:
      latlng: ''
      name:
      - コミュニティセンターぎおう
    永原474番地:
      latlng: 35.08669566,136.04062671
      name:
      - 野洲市立祇王幼稚園
    菖蒲262番地:
      latlng: 35.13531100,136.00087472
      name:
      - 菖蒲自治会館
    行畑1丁目2番25号:
      latlng: 35.06508955,136.02008734
      name:
      - 野洲市立野洲第一保育園
    行畑2丁目9番1号:
      latlng: 35.06139266,136.02010667
      name:
      - 滋賀県立野洲高等学校
    西河原2366番地1:
      latlng: 35.10199905,136.01171385
      name:
      - コミュニティセンターなかさと
    西河原712番地:
      latlng: 35.10106032,136.01643270
      name:
      - 野洲市立中主小学校
    近江富士5丁目1番3号:
      latlng: 35.03829803,136.03219985
      name:
      - 野洲市立三上保育園
  長浜市:
    五村12:
      latlng: 35.42116181,136.26515566
      name:
      - 長浜市立虎姫中学校
    五村360番地1:
      latlng: 35.42182286,136.26545562
      name:
      - 虎姫運動広場「体育館」
    五村371番地1:
      latlng: ''
      name:
      - とらひめ認定こども園
    五村88:
      latlng: 35.42073128,136.26398079
      name:
      - 長浜市立虎姫小学校
    佐野町181:
      latlng: 35.41490831,136.33127613
      name:
      - 七尾公民館
    佐野町22:
      latlng: 35.41504999,136.33643654
      name:
      - 長浜市立七尾小学校
    余呉町中之郷1030:
      latlng: 35.54557399,136.20302019
      name:
      - 長浜市立鏡岡中学校
    余呉町中之郷777:
      latlng: 35.54980402,136.20324232
      name:
      - 長浜市立余呉小学校
    余呉町中之郷字高田1158番地:
      latlng: ''
      name:
      - 余呉山村開発センター
    八幡中山町1310:
      latlng: 35.39093484,136.26587841
      name:
      - 長浜市立長浜北小学校
    内保町1051:
      latlng: 35.42910587,136.29494392
      name:
      - 長浜市立湯田小学校
    内保町2500:
      latlng: 35.42847824,136.29907125
      name:
      - 浅井公民館
    内保町2645:
      latlng: 35.43230828,136.29558268
      name:
      - 湯田公民館
    内保町627:
      latlng: 35.43119457,136.29828518
      name:
      - 長浜市立浅井中学校
    加田町1460:
      latlng: 35.36811395,136.30384386
      name:
      - 長浜市立長浜南小学校
    勝町490:
      latlng: 35.37140748,136.28715420
      name:
      - 六荘公民館
    北ノ郷町105:
      latlng: 35.43396719,136.33000682
      name:
      - 下草野公民館、浅井林業センター
    南田附町352:
      latlng: 35.38900269,136.30181619
      name:
      - 長浜市立南郷里小学校
    名越町600:
      latlng: 35.36620614,136.31986691
      name:
      - 滋賀県立長浜農業高等学校
    地福寺町3-72:
      latlng: 35.37750078,136.27670524
      name:
      - 滋賀県立長浜北星高等学校
    堀部町763:
      latlng: 35.39192209,136.31682825
      name:
      - 長浜市立東中学校
    宮司町1203:
      latlng: 35.37761496,136.28737912
      name:
      - 長浜市民体育館
    宮部3378番地1:
      latlng: ''
      name:
      - 虎姫運動広場「運動場」
    宮部町2410:
      latlng: ''
      name:
      - 滋賀県立虎姫高等学校
    富田町431:
      latlng: 35.42444085,136.22290546
      name:
      - あじさいホール
    小谷丁野町234番地:
      latlng: 35.46018003,136.26175902
      name:
      - 湖北農村婦人の家赤谷荘
    小谷丁野町524:
      latlng: 35.45793025,136.25915666
      name:
      - 長浜市立小谷小学校
    山階町352:
      latlng: 35.39075769,136.29012866
      name:
      - 滋賀県立長浜北高等学校
    川道町3456:
      latlng: 35.40530190,136.23930607
      name:
      - 長浜市立びわ南小学校
    平方町270:
      latlng: ''
      name:
      - 滋賀県立長浜高等学校
    弓削町460:
      latlng: 35.41900568,136.23186251
      name:
      - 長浜市立びわ中学校
    当目町54:
      latlng: 35.43485038,136.32785705
      name:
      - 長浜市立下草野小学校
    早崎町1479:
      latlng: 35.41380265,136.20809324
      name:
      - びわ体育館
    春近町353:
      latlng: 35.40057386,136.32148593
      name:
      - 長浜市立北郷里小学校
    木之本町古橋309:
      latlng: 35.50323694,136.25163649
      name:
      - 長浜市立高時小学校
    木之本町大音1114:
      latlng: 35.50047305,136.19786052
      name:
      - 長浜市立伊香具小学校
    木之本町木之本1757番地2:
      latlng: 35.50223578,136.22250551
      name:
      - 公立木之本公民館
    木之本町木之本251:
      latlng: 35.50890743,136.22960751
      name:
      - 滋賀県立伊香高等学校
    木之本町木之本682:
      latlng: 35.50442467,136.22816335
      name:
      - 長浜市立木之本中学校
    木之本町木之本685-1:
      latlng: 35.50588834,136.22798275
      name:
      - 長浜市立木之本小学校
    木之本町杉野489:
      latlng: 35.57037475,136.26842915
      name:
      - 長浜市立杉野小学校
      - 長浜市立杉野中学校
    木之本町西山183番地3:
      latlng: ''
      name:
      - 木之本運動広場体育館
    永久寺町810:
      latlng: 35.37315473,136.29642809
      name:
      - 長浜市立南中学校
    湖北町山本1125:
      latlng: 35.44602925,136.21259044
      name:
      - 長浜市立朝日小学校
    湖北町山本2868番地:
      latlng: 35.44180460,136.20912956
      name:
      - 山本山運動広場運動体育館
      - 山本山運動広場運動場
    湖北町速水1191:
      latlng: 35.44420611,136.24255339
      name:
      - 長浜市立湖北中学校
    湖北町速水1210番地:
      latlng: ''
      name:
      - 湖北体育館
    湖北町速水2561-1:
      latlng: 35.44252269,136.23552102
      name:
      - 長浜市立速水小学校
    田町108番地:
      latlng: ''
      name:
      - 虎姫公民館
    益田町56:
      latlng: 35.42341866,136.22052518
      name:
      - 長浜市立びわ北小学校
    神照町311:
      latlng: 35.39944232,136.27440516
      name:
      - 長浜市立神照小学校
    神照町910:
      latlng: 35.39362071,136.26993629
      name:
      - 長浜市立北中学校
    菅浦624番地の2:
      latlng: ''
      name:
      - つづらお荘
    西浅井町中366:
      latlng: 35.51895130,136.12266419
      name:
      - 中生活改善センター
    西浅井町余223番地3:
      latlng: ''
      name:
      - 余会館
    西浅井町八田部616:
      latlng: 35.50338083,136.14447330
      name:
      - 八田部生活改善センター
    西浅井町塩津中2066:
      latlng: 35.52550097,136.15792192
      name:
      - にしあざい認定こども園
    西浅井町塩津中27番地1:
      latlng: 35.53132258,136.15589981
      name:
      - 塩津中生活改善センター
    西浅井町塩津中312:
      latlng: 35.52410112,136.15863854
      name:
      - 長浜市立西浅井中学校
    西浅井町塩津中41:
      latlng: 35.53077544,136.15726082
      name:
      - 長浜市立塩津小学校
    西浅井町塩津浜1458:
      latlng: 35.52423168,136.16066060
      name:
      - 西浅井中学校西浅井格技場
    西浅井町塩津浜960番地1:
      latlng: 35.51858220,136.16629633
      name:
      - 塩津浜地区公民館
    西浅井町大浦167:
      latlng: 35.49927006,136.12538661
      name:
      - 長浜市立永原小学校
    西浅井町大浦2275番地1:
      latlng: ''
      name:
      - 大浦地区公民館
    西浅井町小山411:
      latlng: 35.49630378,136.13500227
      name:
      - 小山会館
    西浅井町山田446番地2:
      latlng: ''
      name:
      - 山田公民館
    西浅井町山門103:
      latlng: 35.52090387,136.12408343
      name:
      - 山門地区公民館
    西浅井町岩熊541:
      latlng: 35.51582958,136.15277799
      name:
      - 岩熊生活改善センター
    西浅井町庄929:
      latlng: 35.51112711,136.12008417
      name:
      - 庄健康増進センター
    西浅井町月出235:
      latlng: 35.49621495,136.15946639
      name:
      - 月出多目的集会施設
    西浅井町横波479:
      latlng: ''
      name:
      - 横波公民館
    西浅井町沓掛603番地5:
      latlng: 35.55583350,136.13824241
      name:
      - 沓掛会館
    西浅井町祝山309:
      latlng: 35.52717866,136.16554633
      name:
      - 祝山会館
    西浅井町菅浦218:
      latlng: 35.45960436,136.14265685
      name:
      - 菅浦地区公民館
    西浅井町野坂195番地1:
      latlng: ''
      name:
      - 野坂会館
    西浅井町集福寺507番地2:
      latlng: 35.55227022,136.15114424
      name:
      - 集福寺会館
    西浅井町黒山381番地1:
      latlng: 35.49969770,136.11292981
      name:
      - 黒山会館
    酢280番地1:
      latlng: ''
      name:
      - 虎姫コミュニティセンター
    野瀬町730:
      latlng: 35.46441095,136.32249867
      name:
      - 長浜市立上草野小学校
    野瀬町809:
      latlng: ''
      name:
      - 上草野公民館、浅井勤労青少年ホーム
    野田町68:
      latlng: 35.45594737,136.29957646
      name:
      - 長浜市立田根小学校
    難波町448:
      latlng: 35.41168155,136.23295125
      name:
      - びわ公民館
    高月町井口160:
      latlng: 35.48933271,136.23950767
      name:
      - 長浜市立富永小学校
    高月町唐川248:
      latlng: 35.48524045,136.21953456
      name:
      - 長浜市立七郷小学校
    高月町西柳野38:
      latlng: 35.46391947,136.21174955
      name:
      - 長浜市立古保利小学校
    高月町高月738:
      latlng: 35.47227859,136.23240891
      name:
      - 長浜市立高月小学校
    高田町10-10:
      latlng: 35.38050314,136.27613861
      name:
      - 長浜市立西中学校
    高田町9-9:
      latlng: 35.37999760,136.27410827
      name:
      - 長浜市立長浜小学校
    高畑町316-1:
      latlng: 35.45474180,136.29132732
      name:
      - 田根公民館、浅井林業健康増進センター
  高島市:
    マキノ町在原506番地[休校中]:
      latlng: 35.51410451,136.07413346
      name:
      - 高島市立マキノ北小学校在原分校
    マキノ町寺久保552番地1:
      latlng: 35.47222770,136.04331736
      name:
      - 高島市立マキノ西小学校
    マキノ町小荒路1046番地1:
      latlng: 35.48825963,136.07444148
      name:
      - 高島市立マキノ北小学校
    マキノ町新保887番地:
      latlng: 35.45097984,136.03329333
      name:
      - 高島市立マキノ南小学校
    マキノ町海津2384番地:
      latlng: 35.46508116,136.07494151
      name:
      - 高島市立マキノ東小学校
    マキノ町蛭口260番地1:
      latlng: 35.46262033,136.04942503
      name:
      - 高島市マキノ土に学ぶ里研修センター
    マキノ町蛭口601番地:
      latlng: 35.46558391,136.04783085
      name:
      - 高島市立マキノ中学校
    今津町上弘部486番地:
      latlng: 35.40777342,136.00795542
      name:
      - 高島市今津上体育館
    今津町下弘部1348番地1:
      latlng: ''
      name:
      - 今津上コミュニティセンター
    今津町中沼一丁目3番地1:
      latlng: 35.39902992,136.03378348
      name:
      - 高島市民会館
    今津町今津1936:
      latlng: 35.40574868,136.03104456
      name:
      - 滋賀県立高島高等学校
    今津町今津1952番地1:
      latlng: 35.40588477,136.03045295
      name:
      - 今津勤労者体育センター
      - 今津東体育館
    今津町住吉二丁目16番地5:
      latlng: 35.40281842,136.03305005
      name:
      - 高島市立今津東保育園
    今津町保坂300番地:
      latlng: 35.41149689,135.94569522
      name:
      - 今津公民館西分館
    今津町保坂796番地1:
      latlng: 35.41321341,135.94794503
      name:
      - 高島市立今津西小学校
    今津町弘川1692番地、1705番地1:
      latlng: ''
      name:
      - 今津宮の森コミュニティセンター
    今津町弘川59番地:
      latlng: 35.40782902,136.03083892
      name:
      - 高島市立今津東小学校
    今津町弘川924番地:
      latlng: 35.41324512,136.02948323
      name:
      - 高島市立今津中学校
    今津町日置前100番地:
      latlng: 35.42226635,136.02546102
      name:
      - 高島市立今津北小学校
      - 今津北体育館
    今津町日置前149番地1:
      latlng: 35.42195528,136.02411948
      name:
      - 今津公民館(今津北コミュニティセンター)
    今津町日置前3124番地1外:
      latlng: ''
      name:
      - 高島市今津総合運動公園
    今津町椋川1253番地:
      latlng: ''
      name:
      - ECC学園高等学校
    今津町浜分387番地1:
      latlng: 35.41340618,136.04272084
      name:
      - 今津公民館浜分分館
    今津町舟橋二丁目3番地1:
      latlng: 35.40099361,136.02886170
      name:
      - 高島市立今津図書館
    勝野1045番地:
      latlng: 35.29522302,136.00668814
      name:
      - 高島市立高島小学校
    勝野1070番地:
      latlng: 35.29607848,136.00598264
      name:
      - 高島市立高島中学校
    勝野1365番地:
      latlng: 35.29733134,136.01290989
      name:
      - 高島老人福祉センター
    安曇川町上小川106番地:
      latlng: 35.32468751,136.02991683
      name:
      - 高島市藤樹の里文化芸術会館
    安曇川町下古賀1182番地:
      latlng: 35.35564502,135.98860043
      name:
      - 高島市立広瀬小学校
      - 高島市立古賀保育園
    安曇川町南古賀68番地:
      latlng: 35.34513231,136.00546867
      name:
      - 高島市健康の森梅ノ子運動公園
    安曇川町南船木249番地:
      latlng: 35.31927740,136.06601157
      name:
      - 高島市安曇川世代交流センター
    安曇川町南船木391番地:
      latlng: 35.31932181,136.06360354
      name:
      - 高島市立本庄小学校
    安曇川町田中445番地1:
      latlng: 35.33293087,136.01597901
      name:
      - 高島市立安曇小学校
    安曇川町田中567番地:
      latlng: 35.33267532,136.01533462
      name:
      - 高島市立安曇川中学校
    安曇川町田中630番地1:
      latlng: 35.33363078,136.01469022
      name:
      - 安曇川総合体育館
    安曇川町田中89番地:
      latlng: 35.33303091,136.01911208
      name:
      - 安曇川公民館(ふれあいセンター)
    安曇川町西万木1168:
      latlng: 35.33452258,136.02621151
      name:
      - 滋賀県立安曇川高等学校
    安曇川町青柳1138番地:
      latlng: 35.32571248,136.03262217
      name:
      - 高島市立青柳小学校
    安曇川町青柳1173番地:
      latlng: 35.32525691,136.03012514
      name:
      - 高島市立安曇川図書館
    宮野1516番地:
      latlng: 35.30636915,136.00294400
      name:
      - 高島市高島B&G海洋センター
    新旭町北畑45番地1:
      latlng: 35.34891851,136.04517891
      name:
      - 高島市新旭総合福祉センター「やすらぎ荘」
    新旭町北畑564番地2:
      latlng: 35.35294297,136.03755453
      name:
      - 高島市立湖西中学校
    新旭町太田988-6:
      latlng: 35.34040851,136.04636534
      name:
      - 滋賀県立新旭養護学校
    新旭町新庄853番地:
      latlng: 35.34399406,136.04032125
      name:
      - 高島市立新旭南小学校
    新旭町旭818番地:
      latlng: 35.35333460,136.03878494
      name:
      - 新旭体育館
    新旭町旭820番地:
      latlng: ''
      name:
      - 新旭武道館
    新旭町藁園2305番地:
      latlng: 35.35203754,136.05067813
      name:
      - 高島市立なのはな保育園・なのはな幼稚園
    新旭町饗庭26番地:
      latlng: 35.36341399,136.02993001
      name:
      - 高島市立新旭北小学校
    新旭町饗庭5138番地:
      latlng: 35.36298623,136.02750808
      name:
      - 高島市立さくら保育園・さくら幼稚園
    朽木中牧187番地:
      latlng: 35.35399315,135.80502713
      name:
      - 高島市立朽木西小学校
    朽木中牧528番地:
      latlng: ''
      name:
      - 高島市針畑郷山村都市交流館「山帰来」
    朽木市場1055番地:
      latlng: 35.35295491,135.91330618
      name:
      - 高島市立朽木中学校
    朽木市場1101番地2:
      latlng: 35.35076627,135.91268957
      name:
      - 高島市立朽木保育園
    朽木市場1113番地:
      latlng: 35.35191059,135.91288955
      name:
      - 高島市立朽木東小学校
    朽木市場792番地:
      latlng: 35.35187175,135.91603373
      name:
      - 朽木農民研修センター
      - やまびこ館
    朽木平良403番地[休校中]:
      latlng: 35.30887875,135.83081187
      name:
      - 高島市立朽木西小学校平良分校
    野田1631番地:
      latlng: ''
      name:
      - 高島市立高島保育園
