静岡:
  三島市:
    佐野238:
      latlng: 35.16852659,138.92412253
      name:
      - 佐野小学校校舎
      - 佐野小学校グラウンド
    大場250-1:
      latlng: 35.09383502,138.93602521
      name:
      - 中郷中学校校舎
      - 中郷中学校グラウンド
    大場608:
      latlng: 35.09506806,138.94480790
      name:
      - 静岡県立三島南高等学校校舎
      - 静岡県立三島南高校グラウンド
    富田町6-1:
      latlng: 35.10974214,138.91786218
      name:
      - 南小学校校舎
      - 南小学校グラウンド
    富田町6-18:
      latlng: 35.10876166,138.91822886
      name:
      - 南中学校校舎
      - 南中学校グラウンド
    川原ヶ谷812:
      latlng: 35.13330141,138.93419344
      name:
      - 山田小学校校舎
      - 山田小学校グラウンド
    川原ヶ谷842-4:
      latlng: 35.13473742,138.93600995
      name:
      - 山田中学校校舎
      - 山田中学校グラウンド
    市山新田163-2:
      latlng: 35.13675725,138.96169428
      name:
      - 坂小学校校舎
      - 坂小学校グラウンド
    徳倉4-1-45:
      latlng: 35.14223850,138.91311496
      name:
      - 徳倉小学校校舎
      - 徳倉小学校グラウンド
    徳倉767-2:
      latlng: 35.15297018,138.91731772
      name:
      - 北上中学校校舎
      - 北上中学校グラウンド
    徳倉844-1:
      latlng: 35.14928186,138.91346789
      name:
      - 北上小学校校舎
      - 北上小学校グラウンド
    文教町1-3-18:
      latlng: 35.12964855,138.91288428
      name:
      - 静岡県立三島北高等学校校舎
      - 静岡県立三島北高校グラウンド
    文教町1-4-8:
      latlng: 35.13132333,138.91288707
      name:
      - 北小学校校舎
      - 北小学校グラウンド
    文教町2-32-60:
      latlng: 35.13056516,138.91511184
      name:
      - 北中学校校舎
      - 北中学校グラウンド
    東町10-1:
      latlng: 35.11798616,138.92461657
      name:
      - 東小学校校舎
      - 東小学校グラウンド
    梅名453:
      latlng: 35.09487386,138.92758698
      name:
      - 中郷小学校校舎
      - 中郷小学校グラウンド
    梅名854-1:
      latlng: 35.08973836,138.92258471
      name:
      - 中郷西中学校校舎
      - 中郷西中学校グラウンド
    沢地127-1:
      latlng: 35.14053091,138.92659137
      name:
      - 沢地小学校校舎
      - 沢地小学校グラウンド
    緑町7-7:
      latlng: 35.11639424,138.90896835
      name:
      - 西小学校校舎
      - 西小学校グラウンド
    谷田1505:
      latlng: 35.12183844,138.93824624
      name:
      - 錦田中学校校舎
      - 錦田中学校グラウンド
    谷田1946:
      latlng: 35.10459494,138.93842756
      name:
      - 向山小学校校舎
      - 向山小学校グラウンド
    谷田966:
      latlng: 35.11305841,138.93636339
      name:
      - 錦田小学校校舎
      - 錦田小学校グラウンド
    長伏226-5:
      latlng: 35.08533871,138.91465778
      name:
      - 長伏小学校校舎
      - 長伏小学校グラウンド
  下田市:
    1丁目17番2号:
      latlng: 34.67709176,138.94163811
      name:
      - 下田市立下田幼稚園
    5丁目3番1号:
      latlng: 34.67239505,138.94002726
      name:
      - 下田市立下田小学校校舎
    吉佐美544番地:
      latlng: 34.66049284,138.91914685
      name:
      - 下田市立朝日小学校校舎
      - 下田市立朝日小学校グラウンド
    吉佐美883番地の1:
      latlng: 34.66329253,138.91770242
      name:
      - 下田市立朝日公民館
    大賀茂1429番地:
      latlng: 34.67621302,138.90483975
      name:
      - 下田市立大賀茂小学校校舎
    敷根765番地の1:
      latlng: 34.68161318,138.92919476
      name:
      - 下田市立下田中学校校舎
      - 下田市立下田中学校グラウンド
    柿崎1106番地:
      latlng: 34.67524530,138.96507522
      name:
      - 下田市立下田東中学校校舎
      - 下田市立下田東中学校グラウンド
    椎原224番地:
      latlng: 34.72293469,138.92595230
      name:
      - 下田市立稲梓小学校校舎
      - 下田市立稲梓小学校グラウンド
    椎原290番地の1:
      latlng: 34.72385129,138.92790776
      name:
      - 下田市立稲梓基幹集落センター
    河内101番地の1:
      latlng: 34.69876738,138.93871296
      name:
      - 下田市立稲生沢中学校校舎
      - 下田市立稲生沢中学校グラウンド
    田牛217番地:
      latlng: ''
      name:
      - 青少年海の家
    白浜1324番地の1:
      latlng: 34.70033978,138.97123017
      name:
      - 下田市立白浜小学校校舎
      - 下田市立白浜小学校グラウンド
    立野191番地:
      latlng: 34.69601760,138.93863801
      name:
      - 下田市立稲生沢公民館
    立野6番地の1:
      latlng: 34.69710918,138.93763528
      name:
      - 下田市立稲生沢小学校校舎
      - 下田市立稲生沢小学校グラウンド
    箕作350番地:
      latlng: 34.72420132,138.93146035
      name:
      - 下田市立稲梓中学校校舎
    須崎1785番地の1:
      latlng: 34.66885450,138.96395869
      name:
      - 下田市立浜崎小学校グラウンド
    須崎1875番地の1:
      latlng: ''
      name:
      - 下田市立浜崎小学校校舎
    須崎680番地の1:
      latlng: 34.65953088,138.96771694
      name:
      - 下田市立須崎保育所
  伊東市:
    八幡野1120:
      latlng: 34.88628519,139.11448860
      name:
      - 静岡県立伊東高校城ケ崎分校体育館
      - 静岡県立伊東高校城ヶ崎分校グラウンド
    八幡野1128-3:
      latlng: 34.88476524,139.11162745
      name:
      - 伊東市立対島中学校校舎
      - 伊東市立対島中学校グラウンド
    八幡野976-1:
      latlng: 34.87335245,139.10389092
      name:
      - 伊東市立八幡野小学校校舎
      - 伊東市立八幡野小学校グラウンド
    吉田748-1:
      latlng: 34.94494787,139.11643337
      name:
      - 静岡県立伊東商業高校生活館
      - 静岡県立伊東商業高校体育館
      - 静岡県立伊東商業高校格技場
      - 静岡県立伊東商業高校グラウンド
    吉田824-4:
      latlng: 34.93308190,139.10568502
      name:
      - 伊東市立大池小学校校舎
      - 伊東市立大池小学校グラウンド
    大原2-2-6:
      latlng: 34.96453719,139.10227479
      name:
      - 伊東市立東小学校校舎
      - 伊東市立東小学校グラウンド
    宇佐美1537-1:
      latlng: 35.00694004,139.07730002
      name:
      - 伊東市立宇佐美中学校校舎
      - 伊東市立宇佐美中学校グラウンド
    宇佐美1627-1:
      latlng: 35.00786776,139.08120801
      name:
      - 伊東市立宇佐美小学校校舎
      - 伊東市立宇佐美小学校グラウンド
    富戸1203-1:
      latlng: 34.91122868,139.13450142
      name:
      - 伊東市立富戸小学校校舎
      - 伊東市立富戸小学校グラウンド
    川奈1083-1:
      latlng: 34.95336132,139.12663757
      name:
      - 伊東市立川奈小学校校舎
      - 伊東市立川奈小学校グラウンド
    幸町1-5:
      latlng: 34.96805032,139.09230308
      name:
      - 伊東市立西小学校校舎
      - 伊東市立西小学校グラウンド
    池477-2:
      latlng: 34.89226547,139.08568484
      name:
      - 伊東市立池小学校校舎
      - 伊東市立池小学校グラウンド
    湯川360-1:
      latlng: 34.97789355,139.08798628
      name:
      - 伊東市立北中学校校舎
      - 伊東市立北中学校グラウンド
    玖須美元和田716-87:
      latlng: 34.95204438,139.11377197
      name:
      - 伊東市立南小学校校舎
      - 伊東市立南小学校グラウンド
    玖須美元和田729-1:
      latlng: 34.95456334,139.10729726
      name:
      - 伊東市立南中学校校舎
      - 伊東市立南中学校グラウンド
    鎌田1281-63:
      latlng: 34.94494948,139.08649076
      name:
      - 伊東市立門野中学校校舎
      - 伊東市立門野中学校グラウンド
  伊豆の国市:
    三福1276-3:
      latlng: 35.00036926,138.94825594
      name:
      - 伊豆の国市立大仁中学校校舎
      - 伊豆の国市立大仁中学校グラウンド
    三福325:
      latlng: 35.00845714,138.94725867
      name:
      - 伊豆の国市立大仁小学校校舎
      - 伊豆の国市立大仁小学校グラウンド
    三福934-1:
      latlng: 35.00232729,138.94585612
      name:
      - 伊豆の国市立ひまわり保育園
      - 伊豆の国市立ひまわり保育園グランド
    下畑1930:
      latlng: 35.00986149,138.99098021
      name:
      - 伊豆の国市立大仁東小学校校舎
    中559-4:
      latlng: ''
      name:
      - 伊豆の国市皆沢公民館
    中817-1:
      latlng: 35.03879826,138.95283562
      name:
      - 伊豆の国市立韮山南小学校校舎
      - 伊豆の国市立韮山南小学校グランド
    中島257-3:
      latlng: 35.00337139,138.93775411
      name:
      - 伊豆の市中島防災センター
      - 伊豆の国市中島防災センター
    中条125-1:
      latlng: 35.04426693,138.94140584
      name:
      - 伊豆の国市立韮山西幼稚園グランド
    内中142:
      latlng: ''
      name:
      - 伊豆の国市内中公民館
    南江間1200:
      latlng: 35.05380428,138.92610679
      name:
      - 伊豆の国市立長岡北小学校校舎
      - 伊豆の国市立長岡北小学校グランド
    南江間1206-1:
      latlng: 35.05290159,138.92557073
      name:
      - 伊豆の国市江間防災センター
    南江間1837-1:
      latlng: ''
      name:
      - 伊豆の国市江間グラウンド
    南江間2176-1:
      latlng: ''
      name:
      - 旧スポーツワールド駐車場
    南江間809-1:
      latlng: ''
      name:
      - 旧伊豆箱根グラウンド
    原木1343:
      latlng: 35.06481707,138.94926059
      name:
      - 伊豆の国市立富士美幼稚園
      - 伊豆の国市立富士美幼稚園グランド
    古奈255:
      latlng: 35.03494282,138.93818398
      name:
      - 伊豆の国市長岡総合会館屋内
      - 伊豆の国市長岡総合会館屋外
    四日町350:
      latlng: 35.05559076,138.94808860
      name:
      - 伊豆の国市立韮山小学校校舎
      - 伊豆の国市立韮山小学校グランド
    四日町988:
      latlng: 35.05086894,138.93974477
      name:
      - 伊豆の国市立堀越保育園グランド
    大仁114:
      latlng: ''
      name:
      - 伊豆の国市大仁淵端公園
    大仁334:
      latlng: 34.99729442,138.94057615
      name:
      - 旧静岡県立大仁高等学校グラウンド
      - 旧静岡県立大仁高等学校校舎
    天野444:
      latlng: 35.02593831,138.94188104
      name:
      - 狩野川リバーサイドパーク
    奈古谷1255:
      latlng: 35.07093000,138.97108642
      name:
      - 伊豆の国市韮山生涯学習センター
    奈古谷664-1:
      latlng: 35.07907317,138.96886970
      name:
      - 伊豆の国市角萬広場
    守木312:
      latlng: 35.01804490,138.94830283
      name:
      - 伊豆の国市立大仁北小学校校舎
      - 伊豆の国市立大仁北小学校グランド
    宗光寺57-1:
      latlng: ''
      name:
      - 宗光寺コミュニティー広場
    寺家235:
      latlng: 35.04836657,138.94394174
      name:
      - 静岡県立東部特別支援学校校舎
      - 静岡県立東部特別支援学校グラウンド
    寺家970番地1号:
      latlng: 35.04245868,138.93734226
      name:
      - 静岡県立伊豆中央高校
    御門32-1:
      latlng: ''
      name:
      - 伊豆の国市御門防災センター
      - 伊豆の国市御門防災センター
    田京7-5:
      latlng: ''
      name:
      - 伊豆の国市広瀬公園
    立花台1421-67:
      latlng: ''
      name:
      - 伊豆の国市立花台児童公園
    長岡1212:
      latlng: 35.03197926,138.93916451
      name:
      - 伊豆の国市立長岡幼稚園グランド
    長岡1294-1:
      latlng: 35.03140430,138.93816460
      name:
      - 伊豆の国市立長岡南小学校校舎
      - 伊豆の国市立長岡南小学校グランド
    長岡1407-1:
      latlng: 35.04345255,138.92307105
      name:
      - 伊豆の国市立長岡中学校校舎
      - 伊豆の国市立長岡中学校グランド
    長崎202:
      latlng: ''
      name:
      - 伊豆の国市長崎公園
    韮山多田572:
      latlng: 35.06587522,138.95680443
      name:
      - 伊豆の国市多田公園
    韮山山木183:
      latlng: 35.05283273,138.98464422
      name:
      - 伊豆の国市山木グリーン公園
    韮山金谷268-1:
      latlng: 35.05324381,138.96322654
      name:
      - 伊豆の国市金谷研修センター
    韮山韮山229:
      latlng: 35.05552684,138.95503534
      name:
      - 静岡県立韮山高等学校校舎
      - 静岡県立韮山高校グラウンド
    韮山韮山392-1:
      latlng: 35.05255783,138.95382714
      name:
      - 伊豆の国市韮山体育館
    韮山韮山393:
      latlng: 35.05208566,138.95443543
      name:
      - 伊豆の国市立韮山中学校校舎
      - 伊豆の国市立韮山中学校グランド
    高原1607:
      latlng: ''
      name:
      - 伊豆の国市旧高原分校
  伊豆市:
    上白岩420番1号:
      latlng: ''
      name:
      - 伊豆市中伊豆社会体育館
      - 伊豆市白岩グラウンド
    修善寺3244番:
      latlng: 34.96948854,138.91741835
      name:
      - 伊豆市立修善寺小学校校舎
      - 伊豆市立修善寺小学校グラウンド
    修善寺838番1号:
      latlng: 34.97256882,138.93290175
      name:
      - 伊豆市修善寺総合会館
      - 伊豆市修善寺総合会館
    八幡158番2号:
      latlng: ''
      name:
      - 伊豆市立中伊豆小学校校舎
      - 伊豆市立中伊豆小学校グラウンド
    八木沢1445番1号:
      latlng: 34.89085927,138.77088360
      name:
      - 旧伊豆市立土肥南小学校校舎
      - 旧伊豆市立土肥南小学校グラウンド
    原保384番:
      latlng: 34.92388703,138.99835077
      name:
      - 旧伊豆市立八岳小学校校舎
      - 旧伊豆市立八岳小学校グラウンド
    土肥2701番1号:
      latlng: 34.90833755,138.79516120
      name:
      - 伊豆市立土肥中学校校舎
      - 伊豆市立土肥中学校グラウンド
    土肥638番:
      latlng: 34.91208151,138.79448330
      name:
      - 伊豆市立土肥小学校校舎
      - 伊豆市立土肥小学校グラウンド
    土肥870番1号:
      latlng: 34.90786819,138.79770529
      name:
      - 静岡県立土肥高等学校グラウンド
    小下田1343番:
      latlng: 34.87686925,138.76048097
      name:
      - 旧伊豆市立土肥ふじみ幼稚園
      - 旧伊豆市立土肥ふじみ幼稚園
    小土肥486番:
      latlng: ''
      name:
      - 伊豆市小土肥農村広場
    徳永900番:
      latlng: ''
      name:
      - 旧伊豆市立大東小学校校舎
      - 旧伊豆市立大東小学校グラウンド
    月ヶ瀬444番:
      latlng: 34.91608043,138.92432860
      name:
      - 伊豆市立月ヶ瀬小学校校舎
      - 伊豆市立月ヶ瀬小学校グラウンド
    本立野419番:
      latlng: 34.96987206,138.94339501
      name:
      - 伊豆市立修善寺東小学校校舎
      - 伊豆市立修善寺東小学校グラウンド
    柏久保395番:
      latlng: 34.97584418,138.95183622
      name:
      - 伊豆市立修善寺中学校校舎
      - 伊豆市立修善寺中学校グラウンド
    柏久保449番:
      latlng: 34.97735513,138.95068076
      name:
      - 伊豆市立修善寺南小学校校舎
      - 伊豆市立修善寺南小学校グラウンド
    湯ヶ島136番:
      latlng: 34.89228788,138.93133357
      name:
      - 伊豆市立湯ヶ島小学校校舎
      - 伊豆市立湯ヶ島小学校グラウンド
    熊坂708番3号:
      latlng: 34.99048662,138.93084948
      name:
      - 伊豆市立熊坂小学校校舎
      - 伊豆市立熊坂小学校グラウンド
    貴僧坊109番9号:
      latlng: ''
      name:
      - 伊豆市貴僧坊の里
      - 伊豆市貴僧坊の里
    青羽根89番:
      latlng: 34.93597394,138.93358314
      name:
      - 伊豆市狩野ドーム
      - 伊豆市狩野グラウンド
  函南町:
    丹那333-1:
      latlng: 35.10441706,139.01336043
      name:
      - 農村環境改善センター
      - 農村環境改善センター
    丹那443:
      latlng: 35.10635627,139.01957914
      name:
      - 函南町立丹那小学校校舎
      - 丹那小学校グラウンド
    仁田148:
      latlng: 35.08266150,138.94569679
      name:
      - 函南小学校第2グラウンド
    函南町仁田56:
      latlng: 35.08797184,138.94319973
      name:
      - 函南町立函南中学校校舎
      - 函南町立函南中学校グラウンド
    塚本961:
      latlng: 35.08077011,138.94248595
      name:
      - 静岡県立田方農業高校グラウンド
    柏谷540:
      latlng: 35.07826494,138.95359337
      name:
      - 函南町立東中学校校舎
      - 函南東中学校
      - 同第2グラウンド
    桑原933:
      latlng: 35.11413690,138.97257201
      name:
      - 桑村小学校グラウンド
    桑原972:
      latlng: ''
      name:
      - 函南町立桑村小学校校舎
    肥田667-1:
      latlng: 35.07346835,138.93133131
      name:
      - 西部コミュニティーセンター
      - 西部コミュニティーセンター
    間宮475:
      latlng: 35.08198382,138.93769743
      name:
      - 函南西小学校グラウンド
  南伊豆町:
    上賀茂744-1:
      latlng: 34.65693832,138.86188974
      name:
      - 南伊豆中学校校舎
      - 南伊豆中学校グラウンド
    上賀茂80:
      latlng: 34.65674144,138.86000091
      name:
      - 南中小学校校舎
      - 南中小学校グラウンド
    下小野640:
      latlng: 34.67581065,138.83390693
      name:
      - 南上小学校校舎
      - 南上小学校グラウンド
    入間16:
      latlng: 34.61789238,138.82295399
      name:
      - 町営差田グラウンド
    大瀬7:
      latlng: 34.62026007,138.86495311
      name:
      - 南崎保育所
      - 南崎保育所グラウンド
    子浦1472:
      latlng: 34.67168040,138.78441840
      name:
      - 三浜小学校校舎
      - 三浜小学校グラウンド
    湊1721:
      latlng: 34.64885671,138.88615921
      name:
      - 南伊豆東中学校校舎
      - 南伊豆東中学校グラウンド
    湊243:
      latlng: 34.64912352,138.88518146
      name:
      - 南伊豆東小学校校舎
      - 南伊豆東小学校グラウンド
    石井58:
      latlng: 34.65781372,138.85895083
      name:
      - 静岡県立下田高校南伊豆分校グラウンド
      - 静岡県立下田高校南伊豆分校体育館
  吉田町:
    住吉2223:
      latlng: 34.75935650,138.25394531
      name:
      - 住吉小学校校舎
      - 住吉小学校グラウンド
    住吉230:
      latlng: 34.76936094,138.25293453
      name:
      - 吉田中学校校舎
      - 吉田中学校グラウンド
    片岡2130:
      latlng: 34.77687129,138.25240420
      name:
      - 静岡県立吉田高校体育館
      - 静岡県立吉田高校グラウンド
    片岡850-1:
      latlng: 34.77069702,138.25703428
      name:
      - 中央小学校校舎
      - 中央小学校グラウンド
    神戸1748-2:
      latlng: 34.78565888,138.24046912
      name:
      - 自彊小学校校舎
      - 自彊小学校グラウンド
  富士宮市:
    万野原新田3992:
      latlng: 35.25051334,138.62137845
      name:
      - 富士宮市立大富士小学校校舎
      - 富士宮市立大富士小学校グラウンド
    万野原新田4115-1:
      latlng: 35.25399341,138.61845623
      name:
      - 富士宮市立大富士中学校校舎
      - 富士宮市立大富士中学校グラウンド
    上井出1400:
      latlng: 35.30924520,138.59889595
      name:
      - 富士宮市立上井出小学校校舎
      - 富士宮市立上井出小学校グラウンド
    上井出918-1:
      latlng: 35.32079087,138.58794117
      name:
      - 富士宮市立西富士中学校校舎
      - 富士宮市立西富士中学校グラウンド
    上柚野88:
      latlng: 35.25784219,138.55242602
      name:
      - 柚野小学校校舎
      - 柚野小学校グラウンド
    上稲子830:
      latlng: 35.25453375,138.53222240
      name:
      - 稲子小学校校舎
      - 稲子小学校グラウンド
    下条408:
      latlng: 35.27424580,138.57963129
      name:
      - 富士宮市立上野小学校校舎
      - 富士宮市立上野小学校グラウンド
    下柚野371:
      latlng: 35.25650346,138.55201777
      name:
      - 柚学中学校校舎
      - 柚野中学校グラウンド
    人穴362:
      latlng: 35.35195921,138.59607080
      name:
      - 富士宮市立人穴小学校校舎
      - 富士宮市立人穴小学校グラウンド
    元城町2-1:
      latlng: 35.22653883,138.61248256
      name:
      - 富士宮市立大宮小学校校舎
      - 富士宮市立大宮小学校グラウンド
    内房3909:
      latlng: 35.19299410,138.55021849
      name:
      - 内房小学校校舎
      - 内房小学校グラウンド
    北山1092:
      latlng: 35.27822364,138.60683167
      name:
      - 富士宮市立北山中学校校舎
      - 富士宮市立北山中学校グラウンド
    北山1582:
      latlng: 35.28619220,138.60457341
      name:
      - 富士宮市立北山小学校校舎
      - 富士宮市立北山小学校グラウンド
    原1115:
      latlng: 35.31407467,138.57841425
      name:
      - 富士宮市立白糸小学校校舎
      - 富士宮市立白糸小学校グラウンド
    安居山380:
      latlng: 35.20890734,138.59116558
      name:
      - 富士宮市立西小学校校舎
      - 富士宮市立西小学校グラウンド
    宮北町230:
      latlng: 35.23807881,138.61153763
      name:
      - 静岡県立富士宮北高校校舎
      - 静岡県立富士宮北高校グラウンド
    宮町14-2:
      latlng: 35.22740252,138.60750798
      name:
      - 市民文化会館
    富士見ケ丘1794:
      latlng: 35.23755142,138.62559236
      name:
      - 富士宮市立富士見小学校校舎
    富士見ヶ丘1794:
      latlng: 35.23755142,138.62559236
      name:
      - 富士宮市立富士見小学校グラウンド
    小泉1234:
      latlng: 35.22572269,138.62913682
      name:
      - 静岡県立富士宮東高校校舎
      - 静岡県立富士宮東高校グラウンド
    小泉1675:
      latlng: 35.22552018,138.63646402
      name:
      - 富士宮市立富士根南小学校校舎
      - 富士宮市立富士根南小学校グラウンド
    小泉1996:
      latlng: 35.22405380,138.63865833
      name:
      - 富士宮市立富士根南中学校校舎
      - 富士宮市立富士根南中学校グラウンド
    山宮1560-1:
      latlng: 35.27015267,138.62780801
      name:
      - 富士宮市立山宮小学校校舎
      - 富士宮市立山宮小学校グラウンド
    弓沢732:
      latlng: 35.22091212,138.62510391
      name:
      - 静岡県立富岳館高校グラウンド
    弓沢町732:
      latlng: 35.22091212,138.62510391
      name:
      - 静岡県立富岳館高校校舎
    星山1030-2:
      latlng: 35.20950229,138.61650759
      name:
      - 富士宮市立黒田小学校校舎
      - 富士宮市立黒田小学校グラウンド
    村山1499:
      latlng: 35.25418063,138.65292552
      name:
      - 富士宮市立富士根北小学校校舎
      - 富士宮市立富士根北小学校グラウンド
    村山935-1:
      latlng: 35.25114229,138.65599196
      name:
      - 富士宮市立富士根北中学校校舎
      - 富士宮市立富士根北中学校グラウンド
    栗倉1828:
      latlng: ''
      name:
      - 富士宮市立富士根北小学校栗倉分校校舎
    根原155:
      latlng: 35.42821653,138.58957421
      name:
      - 富士宮市立井之頭小学校根原分校校舎
    淀師1550:
      latlng: 35.24654978,138.60618759
      name:
      - 静岡県立富士宮西高校校舎
      - 静岡県立富士宮西高校グラウンド
    淀師489-4:
      latlng: 35.24297804,138.59669723
      name:
      - 富士宮市立富丘小学校校舎
      - 富士宮市立富丘小学校グラウンド
    猪之頭168:
      latlng: 35.36186880,138.56483378
      name:
      - 富士宮市立井之頭小学校校舎
      - 富士宮市立井之頭小学校グラウンド
    猪之頭999:
      latlng: 35.37473384,138.56667793
      name:
      - 富士宮市立井之頭中学校校舎
      - 富士宮市立井之頭中学校グラウンド
    矢立町227:
      latlng: 35.22488923,138.62142632
      name:
      - 富士宮市立東小学校校舎
      - 富士宮市立東小学校グラウンド
    矢立町814:
      latlng: 35.22526425,138.62364280
      name:
      - 富士宮市立富士宮第一中学校校舎
      - 富士宮市立第一中学校グラウンド
    穂波町13-1:
      latlng: 35.23486530,138.59722817
      name:
      - 富士宮市立富士宮第四中学校校舎
      - 富士宮市立富士宮第四中学校グラウンド
    精進川410:
      latlng: 35.27737588,138.57322633
      name:
      - 富士宮市立上野中学校校舎
      - 富士宮市立上野中学校グラウンド
    西山858:
      latlng: 35.23076265,138.56374810
      name:
      - 芝川B&G海洋センター
    西山880-1:
      latlng: ''
      name:
      - 芝川スポーツ広場
    豊町17-1:
      latlng: 35.23033553,138.61354344
      name:
      - 富士宮市立富士宮第二中学校校舎
    貴船町3-3:
      latlng: 35.22738859,138.60254464
      name:
      - 富士宮市立貴船小学校校舎
      - 富士宮市立貴船小学校グラウンド
    長貫1267:
      latlng: 35.20374088,138.56635056
      name:
      - 芝川中学校校舎
      - 芝川中学校グラウンド
    長貫1323:
      latlng: 35.20666275,138.56634786
      name:
      - 芝富小学校校舎
      - 芝富小学校グラウンド
    黒田658:
      latlng: ''
      name:
      - 富士宮市立富士宮第三中学校校舎
      - 富士宮市立富士宮第三中学校グラウンド
  富士市:
    一色295番地:
      latlng: 35.18872861,138.69795006
      name:
      - 富士市立青葉台小学校校舎
      - 富士市立青葉台小学校グラウンド
    中丸411番地:
      latlng: 35.13563481,138.66893940
      name:
      - 富士市立田子浦中学校校舎
      - 富士市立田子浦中学校グラウンド
    中丸98番地:
      latlng: 35.13845949,138.67081700
      name:
      - 富士市立田子浦小学校校舎
      - 富士市立田子浦小学校グラウンド
    中島320番地:
      latlng: 35.16245564,138.64783334
      name:
      - 富士市立富士中学校校舎
      - 富士市立富士中学校グラウンド
    中里1019番地:
      latlng: 35.16235411,138.73830511
      name:
      - 富士市立須津小学校校舎
      - 富士市立須津小学校グラウンド
    中里1156番地:
      latlng: 35.16542877,138.73850781
      name:
      - 富士市立須津中学校校舎
      - 富士市立須津中学校グラウンド
    久沢2丁目3番1号:
      latlng: 35.19112728,138.64875551
      name:
      - 富士市立鷹岡小学校校舎
      - 富士市立鷹岡小学校グラウンド
    久沢713番地:
      latlng: 35.19560475,138.65277998
      name:
      - 富士市立鷹岡中学校校舎
      - 富士市立鷹岡中学校グラウンド
    今井3丁目4番2号:
      latlng: 35.13991174,138.71626264
      name:
      - 富士市立元吉原小学校校舎
      - 富士市立元吉原小学校グラウンド
    今泉1955番地:
      latlng: 35.17047221,138.69271472
      name:
      - 富士市立吉原第二中学校校舎
      - 富士市立吉原第二中学校グラウンド
    今泉2160番地:
      latlng: 35.17078326,138.68784578
      name:
      - 静岡県立吉原高校第1体育館
      - 静岡県立吉原高校グラウンド
    今泉2921:
      latlng: 35.18058788,138.70026656
      name:
      - 静岡県立富士東高校校舎
      - 静岡県立富士東高校グラウンド
    今泉3丁目17番1号:
      latlng: 35.16236203,138.69783369
      name:
      - 富士市立今泉小学校校舎
      - 富士市立今泉小学校グラウンド
    伝法2743番地:
      latlng: 35.17046913,138.66906172
      name:
      - 富士市立伝法小学校校舎
      - 富士市立伝法小学校グラウンド
    伝法630番地:
      latlng: 35.18622293,138.67239186
      name:
      - 富士市立岳陽中学校校舎
      - 富士市立岳陽中学校グラウンド
    北松野1959番地:
      latlng: 35.18415746,138.59714506
      name:
      - 富士市立富士川第二小学校校舎
      - 富士市立富士川第二小学校グラウンド
    北松野1963番地の6:
      latlng: 35.18480186,138.59768392
      name:
      - 富士市立富士川第二中学校校舎
      - 富士市立富士川第二中学校グラウンド
    厚原2075番地:
      latlng: 35.18934185,138.66467601
      name:
      - 富士市立丘小学校校舎
      - 富士市立丘小学校グラウンド
    原田2259番地:
      latlng: 35.18563742,138.71920627
      name:
      - 富士市立吉原北中学校校舎
      - 富士市立吉原北中学校グラウンド
    原田480番地:
      latlng: 35.16949742,138.70822982
      name:
      - 富士市立原田小学校校舎
      - 富士市立原田小学校グラウンド
    大淵2920番地:
      latlng: 35.21259521,138.68792861
      name:
      - 富士市立大淵中学校校舎
      - 富士市立大淵中学校グラウンド
    大淵3012番地:
      latlng: 35.21182584,138.68575108
      name:
      - 富士市立大淵第一小学校校舎
      - 富士市立大淵第一小学校グラウンド
    大淵8673番地の1:
      latlng: 35.24343024,138.69982661
      name:
      - 富士市立大淵第二小学校校舎
      - 富士市立大淵第二小学校グラウンド
    天間1047番地の1:
      latlng: 35.20911689,138.64276117
      name:
      - 富士市立天間幼稚園園舎
      - 富士市立天間幼稚園
    天間50番地:
      latlng: 35.20075089,138.63583699
      name:
      - 富士市立天間小学校校舎
      - 富士市立天間小学校グラウンド
    宮下551番地:
      latlng: 35.13555078,138.64589434
      name:
      - 富士市立富士南小学校校舎
      - 富士市立富士南小学校グラウンド
    富士見台1丁目12番地:
      latlng: 35.18448472,138.71005718
      name:
      - 富士市立富士見台小学校校舎
      - 富士市立富士見台小学校グラウンド
    岩本123番地の1:
      latlng: 35.17526488,138.63937033
      name:
      - 富士市立岩松北小学校校舎
      - 富士市立岩松北小学校グラウンド
    岩本581番地の33:
      latlng: 35.18450256,138.63902055
      name:
      - 富士市立岩本保育園園舎
      - 富士市立岩本保育園
    岩淵107番地:
      latlng: 35.14856449,138.61746858
      name:
      - 富士市立富士川第一小学校校舎
      - 富士市立富士川第一小学校グランド
    岩淵855番地の3:
      latlng: 35.14958684,138.62177114
      name:
      - 富士市立富士川第一中学校校舎
      - 富士市立富士川第一中学校グランド
    広見本町1番1号:
      latlng: ''
      name:
      - 富士市立広見小学校校舎
      - 富士市立広見小学校グラウンド
    木島89番地の1:
      latlng: 35.17527541,138.61587728
      name:
      - 富士市立富士川体育館
    本市場280番地の2:
      latlng: 35.15611218,138.65351053
      name:
      - 富士市立富士第一小学校校舎
      - 富士市立富士第一小学校グラウンド
    松岡2353番地の1:
      latlng: 35.16833215,138.63086806
      name:
      - 富士市立岩松中学校校舎
      - 富士市立岩松中学校グラウンド
    松岡850番地:
      latlng: 35.16452432,138.63303457
      name:
      - 富士市立岩松小学校校舎
      - 富士市立岩松小学校グラウンド
    松本17番地:
      latlng: 35.16649976,138.65339114
      name:
      - 静岡県立富士高校校舎
      - 静岡県立富士高校グラウンド
    森島550番地:
      latlng: 35.13813377,138.64635547
      name:
      - 富士市立富士南中学校校舎
      - 富士市立富士南中学校グラウンド
    横割1丁目8番1号:
      latlng: 35.14763275,138.65391043
      name:
      - 富士市立富士第二小学校校舎
      - 富士市立富士第二小学校グラウンド
    比奈1431番地:
      latlng: 35.16572295,138.72163140
      name:
      - 富士市立吉永第一小学校校舎
      - 富士市立吉永第一小学校グラウンド
    比奈1654番地:
      latlng: 35.16755336,138.72561993
      name:
      - 富士市立高校校舎
      - 富士市立高校グラウンド
    比奈2126番地:
      latlng: 35.17065014,138.71571520
      name:
      - 富士市立吉原第三中学校校舎
      - 富士市立吉原第三中学校グラウンド
    比奈75番地:
      latlng: 35.16303160,138.72380904
      name:
      - 富士市立吉原東中学校校舎
      - 富士市立吉原東中学校グラウンド
    永田北町7番1号:
      latlng: 35.16502548,138.67664700
      name:
      - 富士市立吉原第一中学校校舎
      - 富士市立吉原第一中学校グラウンド
    沼田新田147番地の3:
      latlng: 35.13616541,138.73741119
      name:
      - 富士市立柏原保育園園舎
      - 富士市立柏原保育園
    神戸633番地:
      latlng: 35.18980357,138.71257353
      name:
      - 富士市立神戸小学校校舎
      - 富士市立神戸小学校グラウンド
    米之宮町295番地:
      latlng: 35.16629996,138.65892113
      name:
      - 富士市立富士中央小学校校舎
      - 富士市立富士中央小学校グラウンド
    西船津220番地:
      latlng: 35.14965893,138.76404221
      name:
      - 富士市立東小学校校舎
      - 富士市立東小学校グラウンド
    鈴川中町28番1号:
      latlng: 35.13877015,138.70408309
      name:
      - 富士市立元吉原中学校校舎
      - 富士市立元吉原中学校グラウンド
    高嶺町6番1号:
      latlng: 35.15796807,138.68273802
      name:
      - 富士市立吉原小学校校舎
      - 富士市立吉原小学校グラウンド
    鵜無ヶ淵149番地の1:
      latlng: 35.19326158,138.72272803
      name:
      - 富士市立吉永第二小学校校舎
      - 富士市立吉永第二小学校グラウンド
  小山町:
    中島225-1:
      latlng: ''
      name:
      - 金時公園
    小山75-7:
      latlng: 35.36049840,138.99329986
      name:
      - 健康福祉会館
      - 健康福祉会館広場
    用沢355:
      latlng: 35.34753300,138.94573653
      name:
      - 小山町立北郷中学校校舎
      - 小山町立北郷中学校グラウンド
    用沢604-1:
      latlng: 35.34423615,138.94253720
      name:
      - 小山町立北郷小学校校舎
      - 小山町立北郷小学校グラウンド
    竹之下2411-1:
      latlng: 35.33273760,138.98342740
      name:
      - 小山町立足柄小学校校舎
      - 小山町立足柄小学校グラウンド
    竹之下369:
      latlng: 35.32875205,138.97525609
      name:
      - 静岡県立小山高校体育館
      - 静岡県立小山高校グランド
    菅沼627:
      latlng: 35.35297410,138.97831535
      name:
      - 小山町立明倫小学校校舎
      - 小山町立明倫小学校グラウンド
    藤曲142:
      latlng: 35.36128160,138.98652812
      name:
      - 小山町立小山中学校校舎
      - 小山町立小山中学校グラウンド
    藤曲150:
      latlng: 35.36342028,138.98508928
      name:
      - 小山町立成美小学校校舎
      - 小山町立成美小学校グラウンド
    阿多野130:
      latlng: 35.34968013,138.95827890
      name:
      - 生涯学習センター
      - 生涯学習センターグラウンド
    須走347:
      latlng: 35.37033510,138.86104439
      name:
      - 須走総合グラウンド
    須走70-18:
      latlng: 35.36444147,138.86966612
      name:
      - 小山町立須走小学校校舎
      - 小山町立須走小学校グラウンド
    須走99-1:
      latlng: ''
      name:
      - 小山町立須走中学校校舎
      - 小山町立須走中学校グラウンド
  島田市:
    中央町:
      latlng: 34.83821241,138.17537137
      name:
      - 中央小公園
    中河町201番地:
      latlng: 34.84213196,138.17869638
      name:
      - 島田第四小学校校舎
      - 島田第四小学校グラウンド
    中溝4-15-1:
      latlng: ''
      name:
      - 中溝公園
    中溝町2372番地:
      latlng: 34.83686861,138.16945846
      name:
      - 島田第二小学校校舎
      - 島田第二小学校グラウンド
    伊久美3690番地の1:
      latlng: 34.92861983,138.14125203
      name:
      - 伊久美小学校校舎
      - 伊久美小学校グラウンド
    伊太1314番地:
      latlng: 34.84861128,138.15214396
      name:
      - 伊太小学校校舎
      - 伊太小学校グラウンド
    元島田9030-1:
      latlng: ''
      name:
      - 元島田公園
    南一丁目10番1号:
      latlng: 34.82667281,138.17878768
      name:
      - 島田第三小学校校舎
      - 島田第三小学校グラウンド
    南原10番地:
      latlng: 34.79739877,138.22487280
      name:
      - 初倉南小学校校舎
      - 初倉南小学校グラウンド
    大代1385:
      latlng: 34.85000077,138.08749394
      name:
      - 大代公民館
    大代1385番地:
      latlng: 34.85000077,138.08749394
      name:
      - 大代公民館
    大柳南132番地:
      latlng: 34.80456190,138.22784201
      name:
      - 初倉中学校校舎
      - 初倉中学校グラウンド
    岸町701-1:
      latlng: ''
      name:
      - 岸スポーツ広場
    島550-2:
      latlng: 34.84346688,138.12490458
      name:
      - 夢づくり公園
    島550番地の2:
      latlng: 34.84346688,138.12490458
      name:
      - 夢づくり会館
    川根町家山1173:
      latlng: 34.93782127,138.06974477
      name:
      - 川根文化センター チャリム21
      - 川根文化センター チャリム21
    川根町家山1175-1:
      latlng: 34.93734632,138.07062806
      name:
      - かわね保育園
    川根町家山420:
      latlng: 34.93943775,138.07534446
      name:
      - 川根小学校校舎
      - 川根小学校グラウンド
    川根町家山579-80:
      latlng: ''
      name:
      - 天王山公園
    川根町笹間上394:
      latlng: 35.00705747,138.14536786
      name:
      - 山村都市交流センター ささま
      - 山村都市交流センターささま(多目的広場)
    川根町笹間上668-2:
      latlng: 35.00839344,138.14708710
      name:
      - (旧)笹間中学校校舎
      - (旧)笹間中学校
    川根町身成3290:
      latlng: ''
      name:
      - 川根中学校校舎
      - 川根体育館
      - 川根中学校グラウンド
    扇町7-1:
      latlng: ''
      name:
      - 扇町公園
    旗指77番地の1:
      latlng: 34.84396777,138.17440805
      name:
      - 島田第二中学校校舎
      - 島田第二中学校グラウンド
    日之出町地先:
      latlng: ''
      name:
      - 駅前緑地
    旭二丁目25番1号:
      latlng: 34.83093069,138.19720238
      name:
      - 島田第五小学校校舎
      - 島田第五小学校グラウンド
    東町1200番地:
      latlng: 34.83456095,138.22190328
      name:
      - 六合東小学校校舎
      - 六合東小学校グラウンド
    横井町地先:
      latlng: ''
      name:
      - 大井川緑地
      - 横井運動場公園
    湯日564番地:
      latlng: 34.80598368,138.17911543
      name:
      - 湯日小学校校舎
      - 湯日小学校グラウンド
    牛尾435番地:
      latlng: 34.84687753,138.12238244
      name:
      - 五和小学校校舎
      - 五和小学校グラウンド
    相賀2510番地:
      latlng: 34.85360772,138.13919516
      name:
      - 北中学校グラウンド
    相賀875番地:
      latlng: 34.87334104,138.13485616
      name:
      - 相賀小学校校舎
    祇園町8707番地:
      latlng: 34.83498013,138.18339563
      name:
      - 静岡県立島田商業高校校舎
      - 静岡県立島田商業高校グラウンド
    神座1444番地:
      latlng: 34.87420397,138.10827985
      name:
      - 神座小学校校舎
      - 神座小学校グラウンド
    神谷城1457-2:
      latlng: ''
      name:
      - 菊神農村公園
    神谷城1499番地:
      latlng: 34.80635141,138.11891167
      name:
      - 神谷城西公民館
    福用112:
      latlng: 34.89834193,138.08805705
      name:
      - 駿遠学園グラウンド
    福用175番地の1:
      latlng: 34.89915297,138.08860701
      name:
      - 北五和会館
    稲荷1-7-1:
      latlng: 34.83716822,138.15010233
      name:
      - 静岡県立島田高校校舎
      - 静岡県立島田高校グラウンド
    稲荷三丁目18番1号:
      latlng: 34.83907643,138.15569065
      name:
      - 島田第一中学校校舎
      - 島田第一中学校グラウンド
    稲荷二丁目19番1号:
      latlng: 34.84009569,138.15292152
      name:
      - 島田第一小学校校舎
      - 島田第一小学校グラウンド
    稲荷町:
      latlng: ''
      name:
      - 大井川公園
    菊川643番地の2:
      latlng: ''
      name:
      - 菊川の里
    落合160番地の1:
      latlng: 34.85521092,138.18101027
      name:
      - 大津小学校校舎
      - 大津小学校グラウンド
    身成48-3:
      latlng: 34.90160323,138.11172393
      name:
      - 野外活動センター山の家(多目的広場)
      - 野外活動センター山の家(多目的広場)
    道悦二丁目25番1号:
      latlng: 34.83411925,138.20327971
      name:
      - 六合中学校校舎
      - 六合中学校グラウンド
    道悦五丁目13番1号:
      latlng: 34.83563583,138.21011809
      name:
      - 六合小学校校舎
      - 六合小学校グラウンド
    金谷富士見町3053番地の2:
      latlng: 34.81449265,138.13394027
      name:
      - お茶の郷
    金谷富士見町3383-1:
      latlng: ''
      name:
      - 旧金谷中学校跡地
    金谷栄町211番地の1:
      latlng: 34.83201536,138.12435771
      name:
      - 金谷小学校校舎
      - 金谷中学校グラウンド
    金谷根岸町33番地:
      latlng: 34.82655217,138.12715478
      name:
      - 金谷中学校校舎
      - 金谷小学校グラウンド
    金谷根岸町35番地:
      latlng: 34.82732706,138.12665759
      name:
      - 静岡県立金谷高校校舎
      - 静岡県立金谷高校グラウンド
    阪本1331番地:
      latlng: 34.80613940,138.22314502
      name:
      - 初倉小学校校舎
      - 初倉小学校グラウンド
    阿知ケ谷201:
      latlng: 34.83948253,138.20197994
      name:
      - 静岡県立島田工業高校体育館
      - 静岡県立島田工業高校(錬武館)
      - 静岡県立島田工業高校グラウンド
  川根本町:
    上長尾1000番地:
      latlng: 35.04422758,138.08218015
      name:
      - 川根本町立中央小学校校舎
      - 川根本町立中央小学校グラウンド
    上長尾744番地:
      latlng: 35.04463864,138.08203292
      name:
      - 川根本町立中川根中学校校舎
      - 川根本町立中川根中学校グラウンド
    下長尾281番地:
      latlng: 35.02576873,138.08487525
      name:
      - 川根本町立中川根南部小学校校舎
      - 川根本町立中川根南部小学校グラウンド
    久野脇237:
      latlng: 34.99726956,138.08648723
      name:
      - 久野脇コミュニティー防災センター
    千頭1236番地の6:
      latlng: 35.10482645,138.13572142
      name:
      - 川根本町立本川根小学校校舎
      - 川根本町立本川根小学校グラウンド
    徳山100番地:
      latlng: 35.07557953,138.10892431
      name:
      - 川根本町立中川根第一小学校校舎
      - 川根本町立中川根第一小学校グラウンド
    徳山1369番地:
      latlng: 35.07620447,138.11581563
      name:
      - 徳山コミュニティ防災センター
    徳山1644-1:
      latlng: 35.07565176,138.11405185
      name:
      - 静岡県立川根高校校舎
    東藤川1220番地:
      latlng: 35.10299055,138.14020737
      name:
      - B&G海洋センター
    東藤川909番地の1:
      latlng: 35.10640961,138.14275133
      name:
      - 川根本町民文化会館
    田代530番地:
      latlng: 35.10222940,138.12826643
      name:
      - 川根本町立本川根中学校校舎
      - 川根本町立本川根中学校グラウンド
  御前崎市:
    上朝比奈2681-1:
      latlng: 34.66765538,138.14702116
      name:
      - 朝比奈公民館
    下朝比奈753:
      latlng: 34.67004601,138.13467238
      name:
      - 御前崎市立浜岡北小学校校舎
      - 北小学校グラウンド
    佐倉1403-1:
      latlng: 34.63559295,138.15959592
      name:
      - 御前崎市立浜岡東小学校校舎
      - 東小学校グラウンド
    佐倉3617-1:
      latlng: 34.62954923,138.15674367
      name:
      - 佐倉公民館
    御前崎1615-1:
      latlng: 34.59702092,138.22394294
      name:
      - 上岬区コミュニティ広場
    御前崎2905:
      latlng: 34.68955709,138.12609737
      name:
      - 御前崎公園
    御前崎3556:
      latlng: 34.60459245,138.21603241
      name:
      - 御前崎市立御前崎小学校校舎
    御前崎46-30:
      latlng: 34.59838742,138.22091821
      name:
      - B&G御前崎海洋センター
    御前崎937-1:
      latlng: 34.60064010,138.22930891
      name:
      - 下岬コミュニティ防災センター
    新野789-1:
      latlng: 34.67245622,138.11833761
      name:
      - 新野公民館
    比木2836-5:
      latlng: 34.65545435,138.16601968
      name:
      - 比木防災センター
    池新田1520:
      latlng: 34.65236185,138.12107972
      name:
      - 御前崎市立第一小学校校舎
      - 第一小学校グラウンド
    池新田2907番地の1:
      latlng: 34.65105665,138.12779578
      name:
      - 静岡県立池新田高校体育館
    池新田3262:
      latlng: ''
      name:
      - 池新田地区防災センター
    池新田3923-1:
      latlng: 34.64389092,138.12857650
      name:
      - 御前崎市立浜岡中学校校舎
      - 浜岡中学校グラウンド
    池新田5585:
      latlng: 34.63802765,138.12737685
      name:
      - 市民会館
    白羽1364-8:
      latlng: ''
      name:
      - 白浜コミュニティ防災センター
    白羽1820-1:
      latlng: ''
      name:
      - 白浜区コミュニティ広場
    白羽3521-3:
      latlng: 34.61098835,138.19056269
      name:
      - 御前崎市立白羽小学校校舎
      - 白羽小学校グランド
    白羽5402‐10:
      latlng: 34.61183545,138.20419995
      name:
      - 御前崎ふれあい福祉センター
    白羽5404-1:
      latlng: 34.61130226,138.20584980
      name:
      - 御前崎市文化会館
    白羽5513-6:
      latlng: ''
      name:
      - 新谷区スポーツ広場
    門屋2060-2:
      latlng: 34.65338622,138.10253141
      name:
      - 高松公民館
  御殿場市:
    上小林431番地の1:
      latlng: 35.33422731,138.91325363
      name:
      - 高根第2保育園
      - 高根第2保育園グラウンド
    中山161番地:
      latlng: 35.25990392,138.92169760
      name:
      - 富士岡小学校校舎
      - 富士岡小学校グラウンド
    中山825番地の1:
      latlng: 35.24984693,138.92452560
      name:
      - 富士岡中学校校舎
      - 富士岡中学校グラウンド
    中畑441番地:
      latlng: 35.31562241,138.90584382
      name:
      - 玉穂小学校校舎
      - 玉穂小学校グラウンド
    印野1710番地:
      latlng: 35.30061841,138.87757999
      name:
      - 印野小学校校舎
      - 印野小学校グラウンド
    塚原38番地の5:
      latlng: 35.33034074,138.94043786
      name:
      - 高根小学校校舎
      - 高根小学校グラウンド
    川島田1363番地の1:
      latlng: 35.29726698,138.91128700
      name:
      - 原里中学校校舎
      - 原里中学校グラウンド
    川島田1902番地:
      latlng: 35.30036631,138.90774312
      name:
      - 原里小学校校舎
      - 原里小学校グラウンド
    川島田451番地の3:
      latlng: 35.29639868,138.92717652
      name:
      - 森之腰幼稚園
      - 森之腰幼稚園グランド
    川島田580番地:
      latlng: 35.29562131,138.93185920
      name:
      - 御殿場南小学校校舎
      - 御殿場南小学校グラウンド
    川島田84番地の1:
      latlng: 35.29090774,138.92542401
      name:
      - 朝日小学校校舎
      - 朝日小学校グラウンド
    御殿場192-1:
      latlng: 35.31688344,138.94021052
      name:
      - 静岡県立御殿場高校体育館
    新橋1450:
      latlng: 35.29456061,138.93670299
      name:
      - 静岡県立御殿場南高校校舎
    東山1082番地:
      latlng: 35.29193990,138.95956988
      name:
      - 青少年会館
    板妻101番地6:
      latlng: 35.29276964,138.89081435
      name:
      - 原里西幼稚園
      - 原里西幼稚園グラウンド
    神山478番地2:
      latlng: 35.23229637,138.92314569
      name:
      - 神山小学校校舎
      - 神山小学校グラウンド
    竈154番地1:
      latlng: 35.27496590,138.92667419
      name:
      - 竈幼稚園
      - 竈幼稚園グラウンド
    茱萸沢1342番地:
      latlng: 35.30298657,138.92603504
      name:
      - 玉穂第1保育園
      - 玉穂第1保育園グラウンド
    萩原1327番地:
      latlng: 35.29150244,138.93113991
      name:
      - 南中学校校舎
      - 南中学校グラウンド
    萩原361番地の1:
      latlng: 35.31158086,138.93675282
      name:
      - 御殿場小学校校舎
      - 御殿場小学校グラウンド
    西田中310番地:
      latlng: 35.31566720,138.94524313
      name:
      - 東小学校校舎
      - 東小学校グラウンド
  掛川市:
    上内田3325:
      latlng: 34.74789979,138.04206430
      name:
      - 上内田小学校校舎
      - 上内田小学校グラウンド
    上土方286-1:
      latlng: 34.70757223,138.04161868
      name:
      - 土方小学校校舎
      - 土方小学校グラウンド
    上西郷220-2:
      latlng: 34.79133956,138.01614910
      name:
      - 北中学校校舎
      - 北中学校グラウンド
    上西郷2606-2:
      latlng: 34.80624048,138.01273201
      name:
      - 西郷小学校校舎
      - 西郷小学校グラウンド
    下俣1007-1:
      latlng: 34.77350744,138.00028391
      name:
      - 西中学校校舎
      - 西中学校グラウンド
    下俣80:
      latlng: ''
      name:
      - 中央小学校校舎
      - 中央小学校グラウンド
    下土方267-1:
      latlng: 34.70338673,138.04751282
      name:
      - 大東北公民館
    下土方680:
      latlng: 34.71033872,138.04603223
      name:
      - 城東中学校校舎
      - 城東中学校グラウンド
    下垂木1472-1:
      latlng: 34.79412997,137.98635395
      name:
      - 桜木小学校校舎
      - 桜木小学校グラウンド
    中3080:
      latlng: 34.68829137,138.05930969
      name:
      - 中小学校校舎
      - 中小学校グラウンド
    倉真3774:
      latlng: 34.81707877,138.03558574
      name:
      - 倉真小学校校舎
      - 倉真小学校グラウンド
    千浜4002:
      latlng: 34.66298421,138.07601690
      name:
      - 千浜農村環境改善センター
    千浜5849:
      latlng: 34.65939580,138.07490041
      name:
      - 千浜小学校校舎
      - 千浜小学校グラウンド
    南西郷1357:
      latlng: ''
      name:
      - 静岡県立掛川東高校校舎
      - 静岡県立掛川東高校グラウンド
    原里1623-1:
      latlng: 34.83907158,137.96686511
      name:
      - 原田小学校校舎
      - 原田小学校グラウンド
    吉岡639-2:
      latlng: 34.78463888,137.95535916
      name:
      - 和田岡小学校校舎
      - 和田岡小学校グラウンド
    城西1-1-6:
      latlng: 34.77518527,138.01263844
      name:
      - 静岡県立掛川西高校校舎
      - 静岡県立掛川西高校第2体育館
      - 静岡県立掛川西高校生活館1F
      - 静岡県立掛川西高校第1体育館
    大坂1147:
      latlng: 34.66681317,138.04615545
      name:
      - 大浜中学校校舎
      - 大浜中学校グラウンド
    大坂5667:
      latlng: 34.67533984,138.04699135
      name:
      - 大坂小学校校舎
      - 大坂小学校グラウンド
    大池438-1:
      latlng: 34.77416280,137.99442047
      name:
      - 第二小学校校舎
      - 第二小学校グラウンド
    大渕5602:
      latlng: 34.67202289,138.01252679
      name:
      - 大渕小学校校舎
      - 大渕小学校グラウンド
    大渕6881-2:
      latlng: 34.67272832,138.00982416
      name:
      - 大渕農村環境改善センター(アイク)
    大野3-1:
      latlng: 34.80268916,138.07284389
      name:
      - 日坂小学校校舎
      - 日坂小学校グラウンド
    富部716:
      latlng: 34.78251706,137.97524946
      name:
      - 桜が丘中学校校舎
      - 桜が丘中学校グラウンド
    寺島15:
      latlng: 34.82209570,137.95527781
      name:
      - 原野谷中学校校舎
      - 原野谷中学校グラウンド
    小貫1474:
      latlng: 34.71647970,138.05332293
      name:
      - 佐束小学校校舎
      - 佐束小学校グラウンド
    成滝145:
      latlng: 34.77888269,138.03655307
      name:
      - 西山口小学校校舎
      - 西山口小学校グラウンド
    掛川1108-1:
      latlng: 34.77637416,138.01716585
      name:
      - 第一小学校グラウンド
    掛川1180-1:
      latlng: 34.79307809,138.01252430
      name:
      - 第一小学校校舎
    掛川910-1:
      latlng: 34.77666589,138.02102386
      name:
      - 総合福祉センター福祉活動館
      - 総合福祉センター多目的広場
    本所538:
      latlng: 34.78294931,138.05982325
      name:
      - 栄川中学校校舎
      - 栄川中学校グラウンド
    本郷561-1:
      latlng: 34.80633923,137.95426717
      name:
      - 原谷小学校校舎
      - 原谷小学校グラウンド
    横須賀1007:
      latlng: 34.68632078,137.98733891
      name:
      - 大須賀中学校校舎
      - 大須賀中学校グラウンド
    横須賀1110:
      latlng: 34.67998264,137.98465885
      name:
      - 横須賀小学校校舎
      - 横須賀小学校グラウンド
    横須賀1491-1:
      latlng: 34.68284058,137.98257832
      name:
      - 静岡県立横須賀高校グラウンド
    横須賀1491-6:
      latlng: ''
      name:
      - 静岡県立横須賀高校校舎
    水垂178:
      latlng: 34.78546799,138.01697698
      name:
      - 城北小学校校舎
      - 城北小学校グラウンド
    萩間423:
      latlng: 34.86568395,138.01934104
      name:
      - 原泉小学校校舎
      - 原泉小学校グラウンド
    葛川1039:
      latlng: 34.78041574,138.02355700
      name:
      - 東中学校校舎
      - 東中学校グラウンド
    葵町15-1:
      latlng: 34.77004700,138.02856209
      name:
      - 静岡県立掛川工業高校校舎
      - 静岡県立掛川工業高校グラウンド
    西大渕145:
      latlng: 34.67939669,137.98958632
      name:
      - 大須賀中央公民館
    領家384:
      latlng: 34.76337455,137.97583308
      name:
      - 曽我小学校校舎
      - 曽我小学校グラウンド
  東伊豆町:
    大川312:
      latlng: 34.84126873,139.07331061
      name:
      - 大川小学校校舎
      - 大川小学校グラウンド
    奈良本1296-3:
      latlng: 34.81535311,139.05356932
      name:
      - 熱川中学校校舎
      - 熱川中学校グラウンド
    奈良本771-1:
      latlng: 34.81290338,139.06030774
      name:
      - 熱川小学校校舎
    片瀬584-2:
      latlng: ''
      name:
      - 片瀬淵乃川公園
    白田373-1:
      latlng: ''
      name:
      - 双葉幼稚園跡地
    稲取1873:
      latlng: 34.76981931,139.03647279
      name:
      - 稲取中学校校舎
      - 稲取中学校グラウンド
    稲取3012-2:
      latlng: 34.78120448,139.04788808
      name:
      - 静岡県立稲取高校
      - 静岡県立稲取高校
    稲取614-1:
      latlng: 34.76977220,139.03876148
      name:
      - 稲取小学校校舎
      - 稲取小学校グラウンド
  松崎町:
    岩科北側442:
      latlng: 34.73650352,138.78620578
      name:
      - (旧)岩科小学校校舎
      - (旧)岩科小学校グラウンド
    峰輪450:
      latlng: 34.75813732,138.82114392
      name:
      - (旧)中川小学校校舎
      - (旧)中川小学校グラウンド
    桜田188:
      latlng: 34.75791098,138.78855818
      name:
      - 静岡県立松崎高校体育館
      - 静岡県立松崎高校グラウンド
    石部279:
      latlng: 34.72260268,138.76089402
      name:
      - (旧)三浦小学校校舎
      - (旧)三浦小学校グラウンド
    道部517-1:
      latlng: ''
      name:
      - 松崎町総合運動場
    道部565-3:
      latlng: 34.74269619,138.77088176
      name:
      - 松崎勤労者体育センター
  森町:
    一宮3150:
      latlng: 34.82554085,137.89169428
      name:
      - 一宮総合センター
    三倉740:
      latlng: 34.90237712,137.94722650
      name:
      - 森町立三倉小学校校舎
    問詰259:
      latlng: 34.86908618,137.93842558
      name:
      - 森町立泉陽中学校校舎
    大鳥居220:
      latlng: 34.85907916,137.94186985
      name:
      - 森町立天方小学校校舎
    天宮888-1:
      latlng: 34.84506131,137.93254325
      name:
      - 森町立森中学校校舎
    森125:
      latlng: 34.83784004,137.92880203
      name:
      - 森町立森小学校校舎
    森1485:
      latlng: 34.82665522,137.91904472
      name:
      - 森町文化会館
    森2085:
      latlng: 34.83587636,137.92583566
      name:
      - 静岡県立遠江総合高校校舎
      - 静岡県立遠江総合高等学校グラウンド
    谷中513-1:
      latlng: ''
      name:
      - 園田地区コミュニティ防災センター
    谷中556:
      latlng: 34.81516460,137.90112428
      name:
      - 森町立旭が丘中学校校舎
    谷中650:
      latlng: 34.81699210,137.89921051
      name:
      - 森町立宮園小学校校舎
    飯田3310-1:
      latlng: 34.81174057,137.92132818
      name:
      - 森町立飯田小学校校舎
    飯田4040-28:
      latlng: ''
      name:
      - 飯田地区コミュニティ防災センター
  河津町:
    下佐ケ野61-22:
      latlng: ''
      name:
      - 下佐ケ野コミュニティ防災センター
    湯ケ野80-1:
      latlng: 34.77634659,138.95220517
      name:
      - 西小学校校舎
      - 西小学校グラウンド
    田中72-1:
      latlng: ''
      name:
      - 河津中学校校舎
      - 河津中学校グラウンド
    笹原328-1:
      latlng: 34.74779418,138.99379810
      name:
      - 南小学校校舎
      - 南小学校グラウンド
    笹原83-3:
      latlng: 34.74880515,138.99222598
      name:
      - 笹原コミュニティ防災センター
    見高1032:
      latlng: 34.75436948,139.01311095
      name:
      - 東小学校校舎
      - 東小学校グラウンド
    谷津301-23:
      latlng: ''
      name:
      - 谷津コミュニティ防災センタ-
  沼津市:
    三枚橋字鐘突免673:
      latlng: ''
      name:
      - 沼津市立沼津高校校舎
      - 沼津市立沼津高校グラウンド
    下香貫八重129の1:
      latlng: ''
      name:
      - 静岡県立沼津工業高校校舎
      - 静岡県立沼津工業高校グラウンド
    下香貫木の宮888:
      latlng: ''
      name:
      - 沼津市立第三中学校校舎
    下香貫木ノ宮888:
      latlng: ''
      name:
      - 沼津市立第三中学校グラウンド
    下香貫猪沼986:
      latlng: ''
      name:
      - 沼津市立香貫小学校校舎
      - 沼津市立香貫小学校グラウンド
    中沢田字円丸715:
      latlng: ''
      name:
      - 沼津市立沢田小学校校舎
      - 沼津市立沢田小学校グラウンド
    丸子町692-1:
      latlng: ''
      name:
      - 沼津市立第一中学校校舎
      - 沼津市立第一中学校グラウンド
    五月町15-1:
      latlng: 35.11373271,138.86452490
      name:
      - 沼津市立第五中学校校舎
      - 沼津市立第五中学校グラウンド
    井田171:
      latlng: ''
      name:
      - 井田特産物加工施設
    井田字郷戸8-1:
      latlng: ''
      name:
      - 井田コミュニティ広場
    八幡町65-1:
      latlng: 35.09839463,138.85370097
      name:
      - 沼津市立第一小学校校舎
      - 沼津市立第一小学校グラウンド
    内浦三津410-1:
      latlng: 35.02475377,138.90134524
      name:
      - 沼津市立内浦小学校校舎
      - 沼津市立内浦小学校グラウンド
    内浦重須453:
      latlng: 35.02137572,138.88329669
      name:
      - 沼津市立長井崎中学校グラウンド
    内浦重須字洞畑453:
      latlng: ''
      name:
      - 沼津市立長井崎中学校校舎
    千本1910-19:
      latlng: ''
      name:
      - 沼津市立千本小学校校舎
      - 沼津市立千本小学校グラウンド
    原1200:
      latlng: 35.12809263,138.79281174
      name:
      - 沼津市立原小学校校舎
      - 沼津市立原小学校グラウンド
    原576:
      latlng: 35.12588170,138.78795673
      name:
      - 沼津市立原中学校校舎
      - 沼津市立原中学校グラウンド
    口野30-23:
      latlng: 35.04714309,138.90668625
      name:
      - 旧沼津市立静浦東小学校グラウンド
    大塚字雁作814-1:
      latlng: ''
      name:
      - 沼津市立原東小学校校舎
      - 沼津市立原東小学校グラウンド
    大岡2110:
      latlng: 35.11500226,138.87552405
      name:
      - 沼津市立大岡中学校校舎
      - 沼津市立大岡中学校グラウンド
    大岡2358:
      latlng: 35.11269141,138.87899889
      name:
      - 沼津市立大岡小学校校舎
      - 沼津市立大岡小学校グラウンド
    大岡字原田1312:
      latlng: ''
      name:
      - 沼津市立大岡南小学校校舎
    大岡字原田1312他:
      latlng: ''
      name:
      - 大岡南小グラウンド及び大岡公園
    大平1144:
      latlng: 35.07114272,138.90304236
      name:
      - 沼津市立大平中学校校舎
      - 沼津市立大平中学校グラウンド
    大平2200:
      latlng: 35.07639520,138.91036381
      name:
      - 沼津市立大平小学校校舎
    大平字2200:
      latlng: 35.07639520,138.91036381
      name:
      - 沼津市立大平小学校グラウンド
    大手町4丁目185-4:
      latlng: ''
      name:
      - 中央公園
    大諏訪41:
      latlng: 35.11110422,138.82868026
      name:
      - 沼津市立片浜小学校校舎
      - 沼津市立片浜小学校グラウンド
    小諏訪180:
      latlng: 35.10615766,138.83968783
      name:
      - 沼津市立片浜中学校校舎
      - 沼津市立片浜中学校グラウンド
    岡一色657-1:
      latlng: 35.13236726,138.87778719
      name:
      - 沼津市立門池中学校校舎
      - 沼津市立門池中学校グラウンド
    岡一色88-2:
      latlng: 35.12532358,138.88223986
      name:
      - 沼津市立門池小学校校舎
      - 沼津市立門池小学校グラウンド
    岡宮812:
      latlng: 35.12970920,138.86584384
      name:
      - 静岡県立沼津東高校校舎
      - 静岡県立沼津東高校グラウンド
    平沼811:
      latlng: 35.14720399,138.78418483
      name:
      - 沼津市立浮島小学校校舎
      - 沼津市立浮島小学校グラウンド
    平町7-24:
      latlng: 35.10102255,138.86918611
      name:
      - 山王公園
    御幸町15-1:
      latlng: 35.09557564,138.86674479
      name:
      - 香陵運動場
    御幸町4-1:
      latlng: 35.09699218,138.86517538
      name:
      - 沼津市立第四小学校校舎
      - 沼津市立第四小学校グラウンド
    志下530:
      latlng: 35.06359272,138.88322204
      name:
      - 沼津市立静浦中学校校舎
      - 沼津市立静浦中学校グラウンド
    我入道字東町175-1:
      latlng: ''
      name:
      - 我入道コミュニティ防災センター
      - 我入道コミュニティ防災センター屋上
    我入道林町地内:
      latlng: ''
      name:
      - 我入道公園
    戸田1031-1:
      latlng: 34.97130781,138.78413139
      name:
      - へだっこセンター
    戸田1259-1、1325-2:
      latlng: ''
      name:
      - 市道上野・平戸線
    戸田1583:
      latlng: 34.97088563,138.79133610
      name:
      - 戸田老人憩の家
    戸田1675-2:
      latlng: ''
      name:
      - 中上防災センター
    戸田2053:
      latlng: 34.96845255,138.80117661
      name:
      - 戸田B&G海洋センター
    戸田2558:
      latlng: 34.94794120,138.77715740
      name:
      - ゆめとびら舟山
      - 舟山ふれあい広場
    戸田339:
      latlng: 34.97247985,138.77834032
      name:
      - 戸田庁舎(別館)
    戸田845-2:
      latlng: 34.97188271,138.77927356
      name:
      - 戸田図書館
    戸田875:
      latlng: 34.97192160,138.77998738
      name:
      - 沼津市立戸田中学校校舎
    戸田883:
      latlng: 34.97245207,138.77917357
      name:
      - 沼津市立戸田小学校校舎
    戸田916-2:
      latlng: 34.97367690,138.78082063
      name:
      - 保健センター戸田分館
    本字千本1910-19:
      latlng: ''
      name:
      - 沼津市立第二中学校校舎
      - 沼津市立第二中学校グラウンド
    本字千本1910-9:
      latlng: ''
      name:
      - 静岡県立沼津西高校校舎
      - 静岡県立沼津西高校グラウンド
    本郷町24-1:
      latlng: 35.09265370,138.87170019
      name:
      - 沼津市立第四中学校校舎
      - 沼津市立第四中学校グラウンド
    東原358-1:
      latlng: 35.12912715,138.82291124
      name:
      - 愛鷹地区センター
    東原字榎田通76-1:
      latlng: ''
      name:
      - 沼津市立今沢小学校校舎
      - 沼津市立今沢小学校グラウンド
    東原字金山下358-1:
      latlng: ''
      name:
      - 愛鷹地区センターグラウンド
    東椎路字中尾1749番1号:
      latlng: ''
      name:
      - 沼津西部市民運動場
    江原町3-1:
      latlng: 35.11956281,138.86136945
      name:
      - 沼津市立金岡小学校校舎
      - 沼津市立金岡小学校グラウンド
    獅子浜400:
      latlng: 35.05467186,138.88850470
      name:
      - 旧沼津市立静浦中学校グラウンド
    神田町4-1:
      latlng: 35.11612701,138.86635803
      name:
      - 沼津市立金岡中学校校舎
      - 沼津市立金岡中学校グラウンド
    米山町9-1:
      latlng: 35.10769421,138.86369178
      name:
      - 沼津市立第五小学校校舎
      - 沼津市立第五小学校グラウンド
    西浦平沢225-1:
      latlng: ''
      name:
      - 沼津市立西浦小学校校舎
    西浦平沢255-2:
      latlng: 35.01925021,138.85640226
      name:
      - 沼津市立西浦小学校グラウンド
    豊町7:
      latlng: 35.13012303,138.86229696
      name:
      - 豊町公園
    駿河台15:
      latlng: 35.12760381,138.85928896
      name:
      - 駿河台公園
    高沢町17-1:
      latlng: 35.10744957,138.85433127
      name:
      - 沼津市立開北小学校校舎
      - 沼津市立開北小学校グラウンド
  浜松市:
    中区上島1丁目21番1号:
      latlng: 34.73587892,137.74120178
      name:
      - 浜松市立上島小学校校舎
      - 浜松市立上島小学校グラウンド
    中区上島6丁目19番1号:
      latlng: 34.74361965,137.73626505
      name:
      - 四ツ池公園広域避難地
    中区中央2丁目2番1号:
      latlng: 34.71180651,137.73881405
      name:
      - 浜松市立東小学校校舎
      - 浜松市立東小学校グラウンド
    中区住吉1丁目23番1号:
      latlng: 34.72871526,137.72371365
      name:
      - 浜松市立城北小学校校舎
      - 浜松市立城北小学校グラウンド
    中区住吉5-16-1:
      latlng: 34.73636441,137.72747122
      name:
      - 静岡県立浜松城北工業高校グラウンド
    中区住吉5丁目13番1号ほか:
      latlng: 34.73388693,137.72780753
      name:
      - 住吉広域避難地
    中区住吉5丁目19番1号:
      latlng: 34.73546174,137.73054342
      name:
      - 浜松市立高台中学校校舎
      - 浜松市立高台中学校グラウンド
    中区佐藤2丁目32番1号:
      latlng: 34.71503694,137.74867456
      name:
      - 浜松市立佐藤小学校校舎
      - 浜松市立佐藤小学校グラウンド
    中区佐鳴台3丁目31番1号:
      latlng: 34.70603948,137.69668080
      name:
      - 浜松市立佐鳴台小学校校舎
      - 浜松市立佐鳴台小学校グラウンド
    中区佐鳴台3丁目32番1号:
      latlng: 34.70671165,137.69844452
      name:
      - 浜松市立佐鳴台中学校校舎
      - 浜松市立佐鳴台中学校グラウンド
    中区元城町102番地の1:
      latlng: ''
      name:
      - 浜松市立元城小学校校舎
      - 浜松市立元城小学校グラウンド
    中区元城町103番地の2ほか:
      latlng: 34.71086468,137.72611760
      name:
      - 浜松城公園広域避難地
    中区向宿3丁目8番1号:
      latlng: ''
      name:
      - 浜松市立相生小学校校舎
      - 浜松市立相生小学校グラウンド
    中区和地山2丁目10番:
      latlng: 34.72788198,137.71998611
      name:
      - 和地山公園広域避難地
    中区富塚町1803番地:
      latlng: 34.72631527,137.70345411
      name:
      - 浜松市立富塚小学校校舎
      - 浜松市立富塚小学校グラウンド
    中区富塚町3541番地:
      latlng: 34.72864833,137.69966267
      name:
      - 浜松市立富塚西小学校校舎
      - 浜松市立富塚西小学校グラウンド
    中区富塚町460番地の1:
      latlng: 34.72260453,137.70347103
      name:
      - 浜松市立富塚中学校校舎
      - 浜松市立富塚中学校グラウンド
    中区寺島町450番地:
      latlng: 34.70077452,137.74085315
      name:
      - 旧高砂小学校グラウンド
    中区山下町188番地:
      latlng: ''
      name:
      - 浜松市立北小学校校舎
      - 浜松市立北小学校グラウンド
    中区布橋1丁目9番1号:
      latlng: 34.72053562,137.72007559
      name:
      - 浜松市立追分小学校校舎
      - 浜松市立追分小学校グラウンド
    中区幸5丁目12番1号:
      latlng: 34.74681638,137.72594015
      name:
      - 浜松市立萩丘小学校校舎
      - 浜松市立萩丘小学校グラウンド
    中区広沢1-30-1:
      latlng: 34.71829138,137.71722870
      name:
      - 静岡県立浜松北高校グラウンド
    中区広沢1丁目21番1号ほか:
      latlng: 34.71592223,137.71788161
      name:
      - 浜松市立高校校舎
    中区広沢2丁目51番1号:
      latlng: 34.71661647,137.71338736
      name:
      - 浜松市立広沢小学校校舎
      - 浜松市立広沢小学校グラウンド
    中区文丘町28番地の1:
      latlng: 34.72689313,137.71393099
      name:
      - 浜松市立北部中学校校舎
      - 浜松市立北部中学校グラウンド
    中区曳馬1丁目1番35号:
      latlng: 34.72677418,137.73842172
      name:
      - 浜松市立曳馬小学校校舎
      - 浜松市立曳馬小学校グラウンド
    中区曳馬4丁目2番15号:
      latlng: 34.72992400,137.74164652
      name:
      - 浜松市立曳馬中学校校舎
      - 浜松市立曳馬中学校グラウンド
    中区東伊場2丁目5番1号:
      latlng: 34.69853534,137.72156558
      name:
      - 浜松市立県居小学校校舎
      - 浜松市立県居小学校グラウンド
    中区松城町108番地の1:
      latlng: 34.71276441,137.72275102
      name:
      - 浜松市立中部中学校校舎
      - 浜松市立中部中学校グラウンド
    中区泉1丁目16番1号:
      latlng: 34.73868921,137.72116017
      name:
      - 浜松市立泉小学校校舎
      - 浜松市立泉小学校グラウンド
    中区海老塚2丁目5番1号:
      latlng: 34.69974381,137.73212321
      name:
      - 浜松市立双葉小学校校舎
      - 浜松市立南小学校グラウンド
      - 浜松市立双葉小学校グラウンド
    中区相生町23番地の1:
      latlng: 34.70676571,137.74877472
      name:
      - 浜松市立東部公民館
      - 浜松市立東部公民館
    中区神田町123番地:
      latlng: 34.68820612,137.72665448
      name:
      - 浜松市立江西中学校校舎
      - 浜松市立江西中学校グラウンド
    中区竜禅寺町706番地:
      latlng: 34.69435577,137.73843957
      name:
      - 浜松市立南部中学校校舎
      - 浜松市立南部中学校グラウンド
    中区竜禅寺町844番地:
      latlng: 34.69827491,137.74294472
      name:
      - 浜松市立竜禅寺小学校校舎
      - 浜松市立竜禅寺小学校グラウンド
    中区船越町29番地の1:
      latlng: 34.71808925,137.74388027
      name:
      - 浜松市立船越小学校校舎
      - 浜松市立船越小学校グラウンド
    中区船越町428番地の3:
      latlng: ''
      name:
      - 船越公園広域避難地
    中区花川町781番地:
      latlng: 34.77441654,137.68584613
      name:
      - 浜松市立花川小学校校舎
      - 浜松市立花川小学校グラウンド
    中区葵西2丁目25番1号:
      latlng: 34.76786649,137.71055505
      name:
      - 浜松市立葵西小学校校舎
      - 浜松市立葵西小学校グラウンド
    中区蜆塚2丁目15番1号:
      latlng: 34.71403884,137.70862114
      name:
      - 浜松市立蜆塚中学校校舎
      - 浜松市立蜆塚中学校グラウンド
    中区西伊場町3-1:
      latlng: 34.70151245,137.71005779
      name:
      - 静岡県立浜松西高校グラウンド
    中区西伊場町4番地の1:
      latlng: 34.70308998,137.70896890
      name:
      - 浜松市立鴨江小学校校舎
      - 浜松市立鴨江小学校グラウンド
    中区西伊場町4番地の1ほか:
      latlng: 34.70308998,137.70896890
      name:
      - 鴨江小学校グラウンド
    中区西浅田2丁目12番1号:
      latlng: 34.69202512,137.72671825
      name:
      - 浜松市立浅間小学校校舎
      - 浜松市立浅間小学校グラウンド
    中区野口町1533番地:
      latlng: 34.71901129,137.74150811
      name:
      - 浜松市立八幡中学校校舎
      - 浜松市立八幡中学校グラウンド
    中区高丘北1丁目15番20号:
      latlng: 34.76006170,137.70763861
      name:
      - 浜松市立開成中学校校舎
      - 浜松市立開成中学校グラウンド
    中区高丘北3丁目15番8号:
      latlng: 34.76534934,137.69863688
      name:
      - 浜松市立瑞穂小学校校舎
      - 浜松市立瑞穂小学校グラウンド
    中区高丘東1丁目4番地:
      latlng: 34.75405965,137.70827171
      name:
      - 高丘公園広域避難地
    中区高丘東3丁目51番1号:
      latlng: 34.76264224,137.71631002
      name:
      - 浜松市立葵が丘小学校校舎
      - 浜松市立葵が丘小学校グラウンド
    中区鴨江2丁目17番1号:
      latlng: 34.70284576,137.71538243
      name:
      - 浜松市立西部中学校校舎
      - 浜松市立西部中学校グラウンド
    中区鴨江町70番地の1:
      latlng: 34.70627060,137.72110975
      name:
      - 浜松市立西小学校校舎
      - 浜松市立西小学校グラウンド
    北区三ケ日町三ケ日417番地の2:
      latlng: ''
      name:
      - 浜松市立三ヶ日西小学校校舎
      - 浜松市立三ヶ日西小学校グラウンド
    北区三ケ日町三ケ日500番地の1:
      latlng: 34.80313706,137.55582996
      name:
      - 浜松市立三ヶ日公民館校舎
      - 浜松市立三ヶ日公民館
    北区三ケ日町下尾奈1431番地:
      latlng: 34.78499934,137.53926608
      name:
      - 浜松市立尾奈小学校校舎
      - 浜松市立尾奈小学校グラウンド
    北区三ケ日町大崎1665番地の2:
      latlng: 34.77178504,137.56268433
      name:
      - 浜松市立大崎小学校校舎
      - 浜松市立大崎小学校グラウンド
    北区三ケ日町平山200番地:
      latlng: 34.82477822,137.53688870
      name:
      - 浜松市立平山小学校校舎
      - 浜松市立平山小学校グラウンド
    北区三ケ日町福長70番地の20:
      latlng: 34.82524558,137.55761742
      name:
      - 浜松市立大福寺保育園
      - 浜松市立大福寺保育園
    北区三ケ日町都筑2266番地の2:
      latlng: 34.79335836,137.58168717
      name:
      - 浜松市立三ヶ日東小学校校舎
      - 浜松市立三ヶ日東小学校グラウンド
    北区三ヶ日町釣78-1:
      latlng: 34.80655555,137.54181145
      name:
      - 静岡県立三ヶ日高校校舎
      - 静岡県立三ヶ日高校体育館
      - 静岡県立三ヶ日高等学校グラウンド
    北区三方原町682番地:
      latlng: 34.77806475,137.71222951
      name:
      - 浜松市立三方原小学校校舎
      - 浜松市立三方原小学校グラウンド
    北区初生町1001番地の2:
      latlng: 34.76890535,137.72755329
      name:
      - 浜松市立初生小学校校舎
      - 浜松市立初生小学校グラウンド
    北区初生町1305番地:
      latlng: 34.76885250,137.71594614
      name:
      - 浜松市立北星中学校校舎
      - 浜松市立北星中学校グラウンド
    北区引佐町井伊谷1727―1:
      latlng: 34.82681781,137.66709299
      name:
      - 浜松市引佐6区コミュニティー防災センター
    北区引佐町井伊谷3276―2:
      latlng: 34.82594046,137.67770863
      name:
      - 浜松市引佐5区コミュニティー防災センター
    北区引佐町井伊谷680:
      latlng: 34.83231740,137.67222009
      name:
      - 浜松市立井伊谷小学校校舎
      - 浜松市立井伊谷小学校グラウンド
    北区引佐町伊平580―2:
      latlng: 34.86429661,137.66058948
      name:
      - 浜松市立伊平小学校校舎(閉校)
      - 浜松市立伊平小学校グラウンド(閉校)
    北区引佐町別所9―42:
      latlng: 34.89570721,137.68177300
      name:
      - 浜松市立引佐北部中学校校舎
      - 浜松市立引佐北部中学校グラウンド
    北区引佐町四方浄134―6:
      latlng: 34.89905304,137.65540012
      name:
      - 浜松市立北部小学校校舎
      - 浜松市立北部小学校グラウンド
    北区引佐町奥山1102:
      latlng: ''
      name:
      - 浜松市立奥山小学校校舎
      - 浜松市立奥山小学校グラウンド
    北区引佐町奥山1550―1:
      latlng: ''
      name:
      - 浜松市奥山グラウンド
    北区引佐町川名470―1:
      latlng: 34.87016992,137.70187207
      name:
      - 浜松市立川名小学校校舎(閉校)
      - 浜松市立川名小学校グラウンド(閉校)
    北区引佐町東黒田865-24:
      latlng: ''
      name:
      - 浜松市引佐運動広場
    北区引佐町横尾426:
      latlng: 34.83485022,137.66249598
      name:
      - 浜松市立引佐南部中学校校舎
      - 浜松市立引佐南部中学校グラウンド
    北区引佐町渋川3484:
      latlng: 34.92476465,137.68882946
      name:
      - 浜松市立渋川小学校校舎(閉校)
      - 浜松市立渋川小学校グラウンド(閉校)
    北区引佐町西久留女木63―4:
      latlng: 34.90319021,137.69820183
      name:
      - 浜松市立久留女木小学校校舎(閉校)
      - 浜松市立久留女木小学校グラウンド(閉校)
    北区引佐町金指1324―2:
      latlng: 34.81938838,137.67907255
      name:
      - 浜松市引佐金指コミュニティー防災センター
    北区引佐町金指1369:
      latlng: 34.82134093,137.67845311
      name:
      - 浜松市立金指小学校校舎
      - 浜松市立金指小学校グラウンド
    北区引佐町金指1428:
      latlng: 34.81858010,137.67811710
      name:
      - 静岡県立引佐高校校舎
    北区滝沢町1520番地:
      latlng: 34.85840810,137.71774618
      name:
      - 浜松市立滝沢小学校校舎(休校)
      - 浜松市立滝沢小学校グラウンド(休校)
    北区細江町中川2553番地:
      latlng: 34.80908119,137.67743417
      name:
      - 浜松市立高台幼稚園
      - 浜松市立高台幼稚園
    北区細江町中川7172番地の701:
      latlng: 34.79412766,137.68531170
      name:
      - 浜松市立中川小学校校舎
      - 浜松市立中川小学校グラウンド
    北区細江町広岡1番地:
      latlng: 34.81308593,137.66402712
      name:
      - 静岡県立気賀高校校舎
    北区細江町気賀11529番地の1:
      latlng: 34.81020555,137.65442273
      name:
      - 浜松市立気賀小学校校舎
      - 浜松市立気賀小学校グラウンド
    北区細江町気賀3241番地:
      latlng: 34.78723860,137.64329407
      name:
      - 浜松市立伊目小学校校舎
      - 浜松市立伊目小学校グラウンド
    北区細江町気賀7300番地:
      latlng: 34.80768624,137.64657920
      name:
      - 浜松市立細江中学校校舎
      - 浜松市立細江中学校グラウンド
    北区細江町気賀9994番地の1:
      latlng: 34.80189166,137.62387023
      name:
      - 浜松市立西気賀小学校校舎
      - 浜松市立西気賀小学校グラウンド
    北区豊岡町196番地:
      latlng: 34.78897436,137.71965605
      name:
      - 浜松市立三方原中学校校舎
      - 浜松市立三方原中学校グラウンド
    北区豊岡町22番地:
      latlng: 34.78698850,137.71942004
      name:
      - 浜松市立豊岡小学校校舎
      - 浜松市立豊岡小学校グラウンド
    北区都田町5609番地の2:
      latlng: 34.82746709,137.71713847
      name:
      - 浜松市立都田小学校校舎
      - 浜松市立都田小学校グラウンド
    北区都田町5824番地の18:
      latlng: 34.83298604,137.72038528
      name:
      - 浜松市立都田中学校校舎
      - 浜松市立都田中学校グラウンド
    北区都田町8756番地:
      latlng: 34.81261691,137.73660383
      name:
      - 浜松市立都田南小学校校舎
      - 浜松市立都田南小学校グラウンド
    南区三島町528番地:
      latlng: ''
      name:
      - 三島楊子公園広域避難地
    南区増楽町700番地:
      latlng: 34.68767537,137.69084320
      name:
      - 浜松市立可美中学校校舎
      - 浜松市立可美中学校グラウンド
    南区増楽町920番地の2:
      latlng: 34.68707001,137.69457069
      name:
      - 可美公園広域避難地
    南区大塚町1876番地の1:
      latlng: 34.70027377,137.78389631
      name:
      - 飯田公園広域避難地
    南区寺脇町431番地:
      latlng: 34.68192714,137.74510588
      name:
      - 浜松市立白脇小学校校舎
      - 浜松市立白脇小学校グラウンド
    南区新橋町1番地の2:
      latlng: 34.68311229,137.71680811
      name:
      - 新橋グラウンド広域避難地
    南区新橋町748番地:
      latlng: 34.68336241,137.70133420
      name:
      - 浜松市立新津中学校校舎
      - 浜松市立新津中学校グラウンド
    南区新橋町777番地:
      latlng: 34.68268477,137.70290077
      name:
      - 浜松市立新津小学校校舎
      - 浜松市立新津小学校グラウンド
    南区東町333番地:
      latlng: 34.67598572,137.78282976
      name:
      - 浜松市立河輪小学校校舎
      - 浜松市立河輪小学校グラウンド
    南区白羽町2512番地:
      latlng: 34.66767310,137.72598554
      name:
      - 浜松市立砂丘小学校校舎
      - 浜松市立砂丘小学校グラウンド
    南区芳川町206番地の1:
      latlng: 34.69246569,137.76686763
      name:
      - 浜松市立芳川小学校校舎
    南区芳川町3093番地の1:
      latlng: ''
      name:
      - 芳川公園広域避難地
    南区芳川町628番地:
      latlng: 34.68803575,137.76578161
      name:
      - 浜松市立芳川小学校グラウンド
    南区芳川町80番地:
      latlng: 34.69364319,137.76473450
      name:
      - 浜松市立南陽中学校校舎
      - 浜松市立南陽中学校グラウンド
    南区若林町1748番地:
      latlng: 34.68983348,137.69574270
      name:
      - 浜松市立可美小学校校舎
      - 浜松市立可美小学校グラウンド
    南区西島町1148番地の1:
      latlng: 34.66254834,137.76873037
      name:
      - 浜松市立南の星小学校校舎
      - 浜松市立南の星小学校グラウンド
    南区西島町510番地:
      latlng: 34.66730335,137.77066624
      name:
      - (旧)浜松市立五島小学校体育館
      - (旧)浜松市立五島小学校グラウンド
    南区西町700番地:
      latlng: 34.68105681,137.77759166
      name:
      - 浜松市立東陽中学校校舎
      - 浜松市立東陽中学校グラウンド
    南区遠州浜2丁目9番1号:
      latlng: 34.65843484,137.76739736
      name:
      - (旧)浜松市立遠州浜小学校校舎
      - (旧)浜松市立遠州浜小学校グラウンド
    南区頭陀寺町1046番地の1:
      latlng: 34.69893110,137.76097655
      name:
      - 浜松市立芳川北小学校校舎
      - 浜松市立芳川北小学校グラウンド
    南区飯田町1038番地:
      latlng: 34.70303662,137.77388365
      name:
      - 浜松市立東部中学校校舎
      - 浜松市立東部中学校グラウンド
    南区飯田町978番地:
      latlng: 34.70637499,137.77413365
      name:
      - 浜松市立飯田小学校校舎
      - 浜松市立飯田小学校グラウンド
    天竜区上野948番地:
      latlng: 34.89015032,137.78077023
      name:
      - (旧)天竜市立下阿多古中学校校舎
      - 下阿多古運動場
    天竜区両島762番地:
      latlng: 34.88291539,137.79201945
      name:
      - 浜松市立下阿多古小学校校舎
      - 浜松市立下阿多古小学校グラウンド
    天竜区二俣町二俣196-2:
      latlng: 34.86602987,137.81748402
      name:
      - 静岡県立二俣高校校舎
      - 静岡県立二俣高校グラウンド
    天竜区二俣町二俣20番地の2:
      latlng: 34.85868941,137.81625093
      name:
      - 天竜壬生ホール 広場・駐車場
    天竜区二俣町二俣601:
      latlng: 34.86957914,137.81282333
      name:
      - 静岡県立天竜林業高校第1体育館
      - 静岡県立天竜林業高校グラウンド
    天竜区二俣町二俣867番地の1:
      latlng: 34.86434389,137.81222070
      name:
      - 浜松市立二俣小学校校舎
      - 浜松市立二俣小学校グラウンド
    天竜区二俣町鹿島525番地:
      latlng: 34.84995447,137.80918237
      name:
      - 浜松市立清竜中学校校舎
    天竜区佐久間町中部683-1:
      latlng: 35.07931379,137.79598938
      name:
      - 静岡県立佐久間高校校舎
      - 静岡県立佐久間高校グラウンド
    天竜区佐久間町佐久間2410番地:
      latlng: 35.09144073,137.80925735
      name:
      - (旧)浜松市立佐久間中学校校舎
      - (旧)浜松市立佐久間中学校グラウンド
    天竜区佐久間町半場50番地の1:
      latlng: 35.08794639,137.80311070
      name:
      - 浜松市立佐久間小学校校舎
      - 浜松市立佐久間小学校グラウンド
    天竜区佐久間町大井2458番地:
      latlng: 35.08461524,137.84272372
      name:
      - (旧)浜松市立山香小学校校舎
      - (旧)浜松市立山香小学校グラウンド
    天竜区佐久間町浦川2792番地:
      latlng: ''
      name:
      - (旧)浜松市立浦川中学校グラウンド
    天竜区佐久間町浦川2794番地の1:
      latlng: 35.05227690,137.76192979
      name:
      - (旧)浜松市立浦川中学校校舎
    天竜区佐久間町浦川2819番地:
      latlng: 35.05511554,137.76472954
      name:
      - 浜松市立浦川小学校校舎
      - 浜松市立浦川小学校グラウンド
    天竜区佐久間町相月2874番地:
      latlng: 35.13964528,137.86129097
      name:
      - 浜松市立城西小学校校舎
      - 浜松市立城西小学校グラウンド
    天竜区只来97番地の3:
      latlng: 34.89357321,137.85936946
      name:
      - 浜松市立鏡山小学校校舎
      - 浜松市立鏡山小学校グラウンド
    天竜区山東2550番地:
      latlng: 34.87778066,137.82460546
      name:
      - 浜松市立光明小学校校舎
      - 浜松市立光明小学校グラウンド
    天竜区山東2701番地:
      latlng: 34.87551996,137.82307782
      name:
      - 浜松市立光が丘中学校校舎
      - 浜松市立光が丘中学校グラウンド
    天竜区春野町堀之内284:
      latlng: 34.95867139,137.88872604
      name:
      - 静岡県立春野高校校舎
      - 静岡県立春野高校グラウンド
    天竜区春野町堀之内993番地の1:
      latlng: 34.95958543,137.89755846
      name:
      - 浜松市立犬居小学校校舎
      - 浜松市立犬居小学校グラウンド
    天竜区春野町堀之内997番地の1:
      latlng: 34.95921876,137.89556701
      name:
      - 春野犬居スポーツ広場
    天竜区春野町宮川1467番地の2:
      latlng: 34.98151033,137.89636885
      name:
      - 春野防災センター
    天竜区春野町宮川1768番地:
      latlng: 34.98934245,137.88993581
      name:
      - 春野文化センター
    天竜区春野町杉242番地の2:
      latlng: 35.03163629,137.98046010
      name:
      - 浜松市立春野北小学校校舎
      - 浜松市立春野北小学校グラウンド
    天竜区春野町気田380番地の2:
      latlng: 35.00238023,137.90694497
      name:
      - 浜松市立春野中学校グラウンド
    天竜区春野町気田603番地の1:
      latlng: 35.00382446,137.90582837
      name:
      - 浜松市立気田小学校校舎
      - 浜松市立気田小学校グラウンド
    天竜区春野町気田850番地の1:
      latlng: ''
      name:
      - 春野気田スポーツ広場
    天竜区春野町石打松下211番地の:
      latlng: 34.99837032,137.93942803
      name:
      - 浜松市立熊切小学校校舎
      - 浜松市立熊切小学校グラウンド
    天竜区春野町石打松下223番地の:
      latlng: 34.99985066,137.93933080
      name:
      - 春野熊切スポーツ広場
    天竜区横山町390番地:
      latlng: 34.94016800,137.81926079
      name:
      - 竜川運動場
    天竜区横山町547番地:
      latlng: 34.94274532,137.81757477
      name:
      - 浜松市立横山小学校校舎
      - 浜松市立横山小学校グラウンド
    天竜区水窪町地頭方241番地の3:
      latlng: 35.15484940,137.86885351
      name:
      - 水窪総合体育館 駐車場等
    天竜区水窪町地頭方366番地:
      latlng: 35.15434673,137.87047001
      name:
      - 浜松市立水窪中学校校舎
      - 浜松市立水窪中学校グラウンド
    天竜区水窪町奥領家2695番地:
      latlng: ''
      name:
      - 浜松市立水窪小学校校舎
      - 浜松市立水窪小学校グラウンド
    天竜区水窪町奥領家2965番地の1:
      latlng: 35.16460388,137.86873383
      name:
      - 水窪山村開発センター 駐車場等
    天竜区水窪町奥領家2980番地の1:
      latlng: 35.16598710,137.86954481
      name:
      - 水窪地域自治センター 駐車場等
    天竜区水窪町奥領家3274番地の1:
      latlng: 35.16638982,137.86915040
      name:
      - 水窪文化会館 駐車場等
    天竜区水窪町奥領家4861番地:
      latlng: ''
      name:
      - (旧)西浦小学校校舎
      - (旧)西浦小学校グラウンド
    天竜区渡ケ島20番地の16:
      latlng: 34.85638881,137.79331704
      name:
      - 浜松市天竜障害者体育館
      - 浜松市天竜障害者体育館
    天竜区熊2153番地:
      latlng: 34.95969066,137.73298018
      name:
      - 浜松市立熊小学校校舎
      - 浜松市立熊小学校グラウンド
    天竜区船明2649番地:
      latlng: ''
      name:
      - 浜松市船明ダム運動公園
    天竜区西藤平1318番地:
      latlng: 34.91229717,137.76344923
      name:
      - 浜松市立上阿多古小学校校舎
      - 浜松市立上阿多古小学校グラウンド
    天竜区西藤平1555番地:
      latlng: 34.91054459,137.76186885
      name:
      - 浜松市上阿多古公民館 会議室等
      - 浜松市上阿多古公民館 駐車場等
    天竜区龍山町大嶺565番地の5:
      latlng: 34.97047830,137.82546453
      name:
      - 浜松市立龍山第一小学校校舎
      - 浜松市立龍山第一小学校グラウンド
    天竜区龍山町大嶺580番地の1:
      latlng: ''
      name:
      - 浜松市龍山総合センター 駐車場等
    天竜区龍山町瀬尻926番地の37:
      latlng: 35.02162030,137.83686137
      name:
      - (旧)浜松市立龍山北小学校校舎
      - (旧)浜松市立龍山北小学校グラウンド
    東区中郡町897番地:
      latlng: 34.76904056,137.77486551
      name:
      - 浜松市立中郡中学校校舎
      - 浜松市立中郡中学校グラウンド
    東区中郡町915番地:
      latlng: 34.77088196,137.77401540
      name:
      - 浜松市立中郡小学校校舎
      - 浜松市立中郡小学校グラウンド
    東区中野町427番地の1:
      latlng: 34.73019287,137.79298047
      name:
      - 浜松市立中ノ町小学校校舎
      - 浜松市立中ノ町小学校グラウンド
    東区丸塚町1050番地:
      latlng: 34.72614697,137.75480725
      name:
      - 浜松市立丸塚中学校校舎
      - 浜松市立丸塚中学校グラウンド
    東区大瀬町2218番地:
      latlng: 34.75668066,137.77276141
      name:
      - 浜松市立大瀬小学校校舎
      - 浜松市立大瀬小学校グラウンド
    東区天王町1351番地:
      latlng: 34.74116266,137.77038266
      name:
      - 浜松市立与進小学校校舎
      - 浜松市立与進小学校グラウンド
    東区安新町181番地の2:
      latlng: ''
      name:
      - 安間川公園広域避難地
    東区安間町437番地の2:
      latlng: 34.72098524,137.78933682
      name:
      - 浜松市立和田東小学校校舎
      - 浜松市立和田東小学校グラウンド
    東区市野町1405番地の1:
      latlng: 34.74337673,137.77757905
      name:
      - 浜松市立与進中学校校舎
      - 浜松市立与進中学校グラウンド
    東区市野町2715番地:
      latlng: 34.74671752,137.76543252
      name:
      - 浜松市立与進北小学校校舎
      - 浜松市立与進北小学校グラウンド
    東区有玉北町1200番地:
      latlng: 34.76529269,137.75750019
      name:
      - 浜松市立積志中学校校舎
      - 浜松市立積志中学校グラウンド
    東区有玉南町614番地:
      latlng: 34.75799634,137.75037127
      name:
      - 浜松市立有玉小学校校舎
      - 浜松市立有玉小学校グラウンド
    東区神立町5番地:
      latlng: 34.71707853,137.75812676
      name:
      - 浜松市立蒲小学校校舎
      - 浜松市立蒲小学校グラウンド
    東区積志町1497番地の1:
      latlng: 34.76595103,137.76030260
      name:
      - 浜松市立積志小学校校舎
      - 浜松市立積志小学校グラウンド
    東区笠井町1050番地:
      latlng: 34.77229449,137.79554128
      name:
      - 浜松市立笠井小学校校舎
      - 浜松市立笠井小学校グラウンド
    東区笠井町1055番地:
      latlng: 34.77122496,137.79281943
      name:
      - 浜松市立笠井中学校校舎
      - 浜松市立笠井中学校グラウンド
    東区薬師町273番地の2:
      latlng: ''
      name:
      - 浜松市立和田小学校校舎
      - 浜松市立和田小学校グラウンド
    東区豊西町1551番地:
      latlng: 34.76729268,137.80423215
      name:
      - 浜松市立豊西小学校校舎
      - 浜松市立豊西小学校グラウンド
    東区龍光町43番地:
      latlng: 34.72186831,137.78737325
      name:
      - 浜松市立天竜中学校校舎
      - 浜松市立天竜中学校グラウンド
    浜北区上善地317番地:
      latlng: 34.79918986,137.80852730
      name:
      - 浜松市立北浜東部中学校校舎
      - 浜松市立北浜東部中学校グラウンド
    浜北区中瀬3648番地の1:
      latlng: 34.82401978,137.81091045
      name:
      - 浜松市立中瀬小学校校舎
      - 浜松市立中瀬小学校グラウンド
    浜北区内野1702番地:
      latlng: 34.78448477,137.75639120
      name:
      - 浜松市立内野小学校校舎
      - 浜松市立内野小学校グラウンド
    浜北区善地1546番地:
      latlng: 34.79244354,137.81068277
      name:
      - 浜松市立北浜東小学校校舎
      - 浜松市立北浜東小学校グラウンド
    浜北区大平686番地:
      latlng: 34.85288175,137.74263843
      name:
      - 浜松市立大平小学校校舎
      - 浜松市立大平小学校グラウンド
    浜北区宮口262番地:
      latlng: 34.82945233,137.77063646
      name:
      - 浜松市立麁玉小学校校舎
      - 浜松市立麁玉小学校グラウンド
    浜北区宮口4847番地:
      latlng: 34.83444856,137.76922805
      name:
      - 浜松市立麁玉中学校校舎
      - 浜松市立麁玉中学校グラウンド
    浜北区寺島3010番地:
      latlng: 34.78441243,137.79118255
      name:
      - 浜松市立北浜南小学校校舎
      - 浜松市立北浜南小学校グラウンド
    浜北区小松1450番地:
      latlng: 34.78964352,137.76895111
      name:
      - 浜松市立浜名小学校校舎
      - 浜松市立浜名小学校グラウンド
    浜北区小松467番地:
      latlng: 34.79081908,137.77786417
      name:
      - 浜松市立浜名中学校校舎
      - 浜松市立浜名中学校グラウンド
    浜北区新原2331番地:
      latlng: 34.81786327,137.78089132
      name:
      - 浜松市立新原小学校校舎
      - 浜松市立新原小学校グラウンド
    浜北区於呂2790番地:
      latlng: 34.83754740,137.79716706
      name:
      - 浜松市立赤佐小学校校舎
      - 浜松市立赤佐小学校グラウンド
    浜北区於呂2961番地:
      latlng: 34.82852681,137.80080300
      name:
      - 浜松市立浜北北部中学校校舎
      - 浜松市立浜北北部中学校グラウンド
    浜北区横須賀800番地:
      latlng: 34.79243667,137.79208766
      name:
      - 浜松市立北浜小学校校舎
      - 浜松市立北浜小学校グラウンド
    浜北区西美薗1588番地:
      latlng: 34.80264409,137.79581480
      name:
      - 浜松市立北浜北小学校校舎
      - 浜松市立北浜北小学校グラウンド
    浜北区西美薗279番地の2:
      latlng: 34.79696105,137.79060159
      name:
      - 浜松市立北浜中学校校舎
      - 浜松市立北浜中学校グラウンド
    浜北区貴布祢2646番地:
      latlng: 34.80102116,137.78347454
      name:
      - 浜松市立伎倍小学校校舎
    浜北区貴布袮2646番地:
      latlng: ''
      name:
      - 浜松市立伎倍小学校グラウンド
    西区伊左地町5644番地:
      latlng: 34.74511737,137.65547486
      name:
      - 浜松市立伊佐見小学校校舎
      - 浜松市立伊佐見小学校グラウンド
    西区佐浜町4540番地:
      latlng: 34.75625181,137.65756052
      name:
      - 浜松市立湖東中学校校舎
      - 浜松市立湖東中学校グラウンド
    西区入野町17059番地:
      latlng: 34.70178385,137.67699640
      name:
      - 浜松市立入野中学校校舎
      - 浜松市立入野中学校グラウンド
    西区入野町8757番地:
      latlng: 34.69945387,137.68605139
      name:
      - 浜松市立入野小学校校舎
      - 浜松市立入野小学校グラウンド
    西区古人見町717番地:
      latlng: 34.72971659,137.63375881
      name:
      - 浜松市立古人見幼稚園
      - 浜松市立古人見幼稚園グラウンド
    西区大久保町6633番地:
      latlng: 34.72535625,137.66563537
      name:
      - 浜松市立神久呂中学校校舎
      - 浜松市立神久呂中学校グラウンド
    西区大人見町1750-394:
      latlng: 34.73785735,137.65755251
      name:
      - 浜松市立はまゆう図書館
      - 浜松市立はまゆう図書館グラウンド
    西区大平台3丁目6番1号:
      latlng: 34.71479362,137.68054567
      name:
      - 浜松市立大平台小学校校舎
      - 浜松市立大平台小学校グラウンド
    西区庄内町100番地:
      latlng: 34.75493938,137.60860535
      name:
      - 浜松市立庄内中学校校舎
      - 浜松市立庄内中学校グラウンド
    西区庄和町108番地の3:
      latlng: 34.74748198,137.60236494
      name:
      - 浜松市立南庄内小学校校舎
      - 浜松市立南庄内小学校グラウンド
    西区村櫛町2551番地:
      latlng: ''
      name:
      - 浜松市立村櫛小学校校舎
      - 浜松市立村櫛小学校グラウンド
    西区湖東町2005番地:
      latlng: 34.76659491,137.66661496
      name:
      - 浜松市立和地小学校校舎
      - 浜松市立和地小学校グラウンド
    西区白洲町295番地の1:
      latlng: 34.75866712,137.62662507
      name:
      - 浜松市立北庄内小学校校舎
      - 浜松市立北庄内小学校グラウンド
    西区神ケ谷町3490番地:
      latlng: 34.72772551,137.66949316
      name:
      - 浜松市立神久呂小学校校舎
      - 浜松市立神久呂小学校グラウンド
    西区篠原町10300番地:
      latlng: 34.68428904,137.65666888
      name:
      - 浜松市立篠原小学校校舎
      - 浜松市立篠原小学校グラウンド
    西区篠原町20200番地の1:
      latlng: 34.68205331,137.65764947
      name:
      - 浜松市立篠原中学校校舎
    西区篠原町20220番地の1:
      latlng: 34.68367809,137.65841042
      name:
      - 浜松市立篠原中学校グラウンド
    西区舞阪町弁天島2658番地の10:
      latlng: ''
      name:
      - 西野島浦公園
    西区舞阪町弁天島3212番地の10:
      latlng: ''
      name:
      - 千鳥園ゲートボール場
    西区舞阪町弁天島3257番地の1:
      latlng: ''
      name:
      - 観月園児童遊園地
    西区舞阪町弁天島3541番地:
      latlng: ''
      name:
      - 乙女園グラウンド
    西区舞阪町弁天島3885番地:
      latlng: 34.69289986,137.60399940
      name:
      - 浜松市立舞阪第一保育園
      - 浜松市立舞阪第一保育園グラウンド
    西区舞阪町弁天島5005番地の1:
      latlng: 34.69747726,137.60586861
      name:
      - 渚園
    西区舞阪町舞阪2600番地の1:
      latlng: ''
      name:
      - 吹上浄水場
    西区舞阪町舞阪2623番地の32:
      latlng: 34.67938787,137.61283437
      name:
      - 舞阪総合体育館舞童夢
    西区舞阪町舞阪2659番地の3:
      latlng: 34.68322359,137.61366758
      name:
      - 浜松市立舞阪第二保育園
      - 浜松市立舞阪第二保育園
    西区舞阪町舞阪2668番地の33:
      latlng: 34.67999602,137.61036250
      name:
      - 浜松市立舞阪幼稚園
      - 浜松市立舞阪幼稚園グランド
    西区舞阪町舞阪2701番地の1:
      latlng: 34.68714510,137.60741561
      name:
      - 舞阪文化センター
    西区舞阪町舞阪4601番地:
      latlng: 34.67947965,137.61562287
      name:
      - 浜松市立舞阪中学校校舎
      - 浜松市立舞阪中学校グラウンド
    西区舞阪町舞阪5167番地:
      latlng: 34.68490694,137.61839474
      name:
      - 稲荷山公園
    西区舞阪町舞阪76番地:
      latlng: 34.68589820,137.61143454
      name:
      - 浜松市立舞阪小学校校舎
      - 浜松市立舞阪小学校グラウンド
    西区西鴨江町1106番地:
      latlng: 34.70336123,137.66430863
      name:
      - 浜松市立西都台小学校校舎
      - 浜松市立西都台小学校グラウンド
    西区雄踏町宇布見5427番地:
      latlng: 34.70164719,137.63453178
      name:
      - 雄踏文化センター
      - 雄踏文化センター
    西区雄踏町宇布見7997番地の1:
      latlng: 34.70159995,137.63297364
      name:
      - 浜松市立雄踏小学校校舎
      - 浜松市立雄踏小学校グラウンド
    西区雄踏町宇布見9595番地:
      latlng: 34.69460079,137.63294314
      name:
      - 浜松市立雄踏中学校校舎
      - 浜松市立雄踏中学校グラウンド
  清水町:
    伏見字広町52-17:
      latlng: ''
      name:
      - 清水町総合運動公園
    堂庭267:
      latlng: 35.09634850,138.90385029
      name:
      - 清水町立清水中学校校舎
      - 清水町立清水中学校グラウンド
    堂庭87:
      latlng: 35.10242022,138.90360290
      name:
      - 清水町立清水小学校校舎
      - 清水小学校グラウンド
    徳倉1205:
      latlng: 35.08423520,138.89044921
      name:
      - 静岡県立沼津商業高等学校校舎
      - 静岡県立沼津商業高校グラウンド
    徳倉2222-4:
      latlng: 35.09227063,138.88644924
      name:
      - 清水町立南中学校校舎
      - 清水町立南中学校グラウンド
    湯川182-1:
      latlng: 35.09073241,138.90662516
      name:
      - 清水町立南小学校校舎
      - 清水町立南小学校グラウンド
    長沢220:
      latlng: 35.10597265,138.89673111
      name:
      - 清水町立西小学校校舎
      - 清水町立西小学校グラウンド
  湖西市:
    古見1067-3:
      latlng: 34.71960626,137.53173092
      name:
      - 勤労者体育センター
    吉美3294-48:
      latlng: 34.71388649,137.50408887
      name:
      - アメニティプラザ
    大知波1144:
      latlng: 34.75899253,137.51064751
      name:
      - 知波田小学校校舎
      - 知波田小学校グラウンド
    太田135:
      latlng: 34.74273059,137.51542846
      name:
      - 湖西中学校校舎
      - 湖西中学校グラウンド
    岡崎587-2:
      latlng: 34.72706547,137.50280498
      name:
      - 湖西市立岡崎中学校校舎
    岡崎634-2:
      latlng: 34.72422411,137.50297180
      name:
      - 岡崎小学校校舎
      - 岡崎小学校グラウンド
    新居町中之郷1181番地:
      latlng: 34.69560824,137.55537086
      name:
      - 新居中学校校舎
      - 新居中学校グラウンド
    新居町新居1730番地:
      latlng: 34.68997273,137.56069044
      name:
      - 新居幼稚園
      - 新居幼稚園グラウンド
    新居町新居1770番地:
      latlng: 34.69071715,137.56135421
      name:
      - 新居小学校校舎
      - 新居小学校グラウンド
    新居町浜名1855番地の71:
      latlng: 34.68665806,137.53955367
      name:
      - 静岡県立浜名特別支援学校校舎
      - 静岡県立浜名特別支援学校グラウンド
    新所680:
      latlng: 34.73982343,137.53569377
      name:
      - 東小学校校舎
      - 東小学校グラウンド
    湖西市岡崎587:
      latlng: 34.72706547,137.50280498
      name:
      - 岡崎中学校グランド
    白須賀5030:
      latlng: 34.68464311,137.50730636
      name:
      - 白須賀小学校校舎
      - 白須賀小学校グラウンド
    白須賀986:
      latlng: 34.68408764,137.50778134
      name:
      - 白須賀中学校校舎
      - 白須賀中学校グラウンド
    鷲津1163-2:
      latlng: 34.71073586,137.54605799
      name:
      - 湖西市表鷲津コミィニティ防災センター
    鷲津1510-2:
      latlng: 34.72193742,137.54925179
      name:
      - 静岡県立湖西高校グラウンド
    鷲津2837:
      latlng: 34.71795212,137.55477093
      name:
      - 湖西市鷲津コミィニティ防災センター
    鷲津629:
      latlng: 34.71445460,137.54169988
      name:
      - 鷲津中学校校舎
      - 鷲津中学校グラウンド
    鷲津670:
      latlng: 34.71290754,137.54106942
      name:
      - 鷲津小学校校舎
      - 鷲津小学校グラウンド
  焼津市:
    一色1043番地:
      latlng: ''
      name:
      - 一色水道用地
    三ケ名1626番地:
      latlng: ''
      name:
      - 清見田公園
    三ヶ名1550番地:
      latlng: ''
      name:
      - 焼津市焼津文化会館
    上新田292-1:
      latlng: 34.82065685,138.27475510
      name:
      - 静岡県立大井川高校校舎
      - 静岡県立大井川高校グラウンド
    上泉1688番地の1:
      latlng: 34.81482079,138.26487559
      name:
      - 焼津市立大井川西小学校校舎
      - 焼津市立大井川西小学校グラウンド
    下小杉537番地:
      latlng: 34.81273816,138.31561079
      name:
      - 下小杉地区コミュニティ防災センター
    下江留191番地:
      latlng: 34.80100058,138.28148778
      name:
      - 焼津市立大井川中学校校舎
      - 焼津市立大井川中学校グラウンド
    中島1183番地:
      latlng: 34.79680908,138.27254715
      name:
      - 焼津市大井川体育館
    中根1番地の1:
      latlng: 34.83930685,138.29833713
      name:
      - 焼津市立大富中学校校舎
      - 焼津市立大富中学校グラウンド及び中根公
    中根新田637番地:
      latlng: 34.83413821,138.29464624
      name:
      - 焼津市立大富小学校校舎
      - 焼津市立大富小学校グラウンド
    中根新田93番地の1:
      latlng: 34.83833756,138.29823441
      name:
      - 焼津市大富公民館
    中里416番地:
      latlng: 34.88520730,138.31894262
      name:
      - 焼津市立東益津中学校校舎
      - 焼津市立東益津中学校グラウンド
    五ケ堀之内2番地:
      latlng: 34.86354278,138.29044625
      name:
      - 焼津市立豊田小学校校舎
      - 焼津市立豊田小学校グラウンド
    八楠4丁目4版41号:
      latlng: 34.88062390,138.30200660
      name:
      - 八楠公園
    利右衛門2559番地の1:
      latlng: ''
      name:
      - 利右衛門地区コミュニティ防災センター
    吉永1933番地の1:
      latlng: 34.79122124,138.30424891
      name:
      - 吉永地区コミュニティ防災センター
    吉永490番地:
      latlng: 34.79495963,138.29444454
      name:
      - 焼津市立大井川南小学校校舎
      - 焼津市立大井川南小学校グラウンド
    坂本971番地の5:
      latlng: 34.89237581,138.31146573
      name:
      - 坂本コミュニティ防災センター
    塩津117番地の1:
      latlng: 34.86600600,138.31002149
      name:
      - 焼津市立焼津西小学校校舎
      - 焼津市立焼津西小学校グラウンド
    大住1246番地:
      latlng: 34.85073571,138.30063086
      name:
      - 焼津市立黒石小学校校舎
      - 焼津市立黒石小学校グラウンド
    大村3丁目25番1号:
      latlng: 34.87183347,138.30454191
      name:
      - 焼津市立大村中学校校舎
      - 焼津市立大村中学校グラウンド
    大覚寺575番地の1:
      latlng: ''
      name:
      - 焼津市大村公民館
    大覚寺600番地:
      latlng: ''
      name:
      - 養護老人ホーム慈恵園
    大覚寺630番地:
      latlng: ''
      name:
      - 焼津市総合福祉会館
    宗高428番地:
      latlng: 34.80762220,138.29296122
      name:
      - 焼津市立大井川東小学校校舎
      - 焼津市立大井川東小学校グラウンド
    宗高572番地の1:
      latlng: 34.80318101,138.29065050
      name:
      - 焼津市大井川福祉センター
    小土157-1:
      latlng: 34.86783958,138.28981578
      name:
      - 静岡県立焼津中央高校体育館
      - 静岡県立焼津中央高校グラウンド
    小土301番地の2:
      latlng: 34.86808401,138.29323762
      name:
      - 焼津市立豊田中学校校舎
      - 焼津市立豊田中学校グラウンド
    小屋敷258番地の1:
      latlng: 34.86324559,138.28934083
      name:
      - 焼津市豊田公民館
    小川2525番地:
      latlng: 34.84982128,138.31611132
      name:
      - 焼津市立小川小学校校舎
      - 焼津市立小川小学校グラウンド
    小川2718番地:
      latlng: ''
      name:
      - 小川公園
    小川2724番地の1:
      latlng: 34.84910208,138.31361464
      name:
      - 焼津市小川公民館
    小川3118番地:
      latlng: 34.85126249,138.32004374
      name:
      - 小川第13コミュニティ防災センター
    小川新町1丁目11番2号:
      latlng: 34.85878678,138.32138824
      name:
      - 小川新地コミュニティ防災センター
    本中根549番地の1:
      latlng: 34.83041375,138.29734045
      name:
      - 静岡福祉大学
    本町1丁目3番28号:
      latlng: 34.86838907,138.32217778
      name:
      - 新屋コミュニティ防災センター
    本町2丁目13番18号:
      latlng: 34.86594479,138.32323026
      name:
      - 三区コミュニティ防災センター
    本町5丁目6番1号:
      latlng: 34.86305326,138.32038047
      name:
      - 焼津市焼津公民館
      - 二区コミュニティ防災センター
    東小川4丁目7番1号:
      latlng: 34.85302645,138.31377554
      name:
      - 焼津市立小川中学校校舎
      - 焼津市立小川中学校グラウンド
    栄町5丁目14番1号:
      latlng: 34.86794467,138.31808682
      name:
      - 焼津市立焼津東小学校校舎
      - 焼津市立焼津東小学校グラウンド
    浜当目3丁目1番45号:
      latlng: 34.87896649,138.33125209
      name:
      - 浜当目コミュニティ防災センター
    焼津2丁目10番28号:
      latlng: 34.86490606,138.31202937
      name:
      - 焼津市立焼津中学校校舎
      - 焼津市立焼津中学校グラウンド及び周辺
    焼津5-5-2:
      latlng: 34.85999518,138.31756687
      name:
      - 静岡県立焼津水産高校校舎
      - 静岡県立焼津水産高校グラウンド
    焼津5丁目5番1号:
      latlng: 34.86098678,138.31740031
      name:
      - 焼津市立焼津南小学校校舎
      - 焼津市立焼津南小学校グラウンド
    焼津6丁目10番17号:
      latlng: 34.86555595,138.31696184
      name:
      - 四区コミュニティ防災センター
    田尻1984番地:
      latlng: 34.82646120,138.32087050
      name:
      - 焼津市立和田中学校校舎
      - 焼津市立和田中学校グラウンド
    田尻2002番地:
      latlng: 34.82709719,138.32218971
      name:
      - 焼津市和田公民館
    田尻2047番地の2:
      latlng: ''
      name:
      - 田尻スポーツ広場
    田尻2968番地の1:
      latlng: 34.82279781,138.33172491
      name:
      - ディスカバリーパーク焼津天文科学館
    田尻541番地:
      latlng: 34.82756382,138.32098153
      name:
      - 焼津市立和田小学校グラウンド
    田尻北541番地:
      latlng: ''
      name:
      - 焼津市立和田小学校校舎
    田尻北584番地:
      latlng: 34.83839264,138.33009359
      name:
      - 焼津市立港中学校校舎
      - 焼津市立港中学校グラウンド
    田尻北698番地:
      latlng: ''
      name:
      - 松原公園
    石津161番地:
      latlng: 34.84482772,138.32999877
      name:
      - 石津コミュニティ防災センター
    石津港町40番地の1:
      latlng: 34.84122822,138.32621882
      name:
      - 焼津市港公民館
    石津港町40番地の2:
      latlng: 34.84078110,138.32732984
      name:
      - 焼津市立港小学校校舎
      - 焼津市立港小学校グラウンド
    石脇上65番地:
      latlng: 34.88663496,138.31981474
      name:
      - 焼津市立東益津小学校校舎
      - 焼津市東益津公民館
      - 焼津市立東益津小学校グラウンド
    石脇上72番地の2:
      latlng: ''
      name:
      - 石脇公園
    藤守2025番地:
      latlng: ''
      name:
      - 藤守地区コミュニティ防災センター
    西小川1丁目29番:
      latlng: ''
      name:
      - 小川北公園
    西小川3丁目6番:
      latlng: 34.85704017,138.30974880
      name:
      - 竪小路公園
    飯淵2160番地:
      latlng: 34.77985852,138.29762480
      name:
      - 大井川港コミュニティ防災センター
    駅北5丁目1番24号:
      latlng: 34.87518866,138.32038672
      name:
      - 第5コミュニティ防災センター
    高新田1853番地の1:
      latlng: 34.79416534,138.30700964
      name:
      - 高新田地区コミュニティ防災センター
    高新田2172番地の2:
      latlng: 34.79978972,138.30908703
      name:
      - 高新田東地区コミュニティ防災センター
  熱海市:
    下多賀1484-22:
      latlng: 35.05328665,139.06515182
      name:
      - 静岡県立熱海高校校舎
      - 静岡県立熱海高校グラウンド
    下多賀1549番地の1:
      latlng: 35.04668762,139.06433821
      name:
      - 熱海市立多賀中学校校舎
      - 熱海市立多賀中学校グラウンド
    下多賀920番地の1:
      latlng: 35.04939300,139.07004300
      name:
      - 熱海市立多賀小学校校舎
      - 熱海市立多賀小学校グラウンド
    伊豆山711番地:
      latlng: 35.11580219,139.08392804
      name:
      - 熱海市立伊豆山小学校校舎
      - 熱海市立伊豆山小学校グラウンド
    初島219番地:
      latlng: 35.04229231,139.17071880
      name:
      - 熱海市立初島小・中学校校舎
      - 熱海市立初島小・中学校グラウンド
    桃山町6番5号:
      latlng: 35.10633890,139.07403718
      name:
      - 熱海市立桃山小学校校舎
      - 熱海市立桃山小学校グラウンド
    桃山町7番7号:
      latlng: 35.10652782,139.07518152
      name:
      - 熱海市立熱海中学校校舎
      - 熱海市立熱海中学校グラウンド
    桜町16番43号:
      latlng: ''
      name:
      - 西部コミュニティ防災センター
      - 西部コミュニティ防災センター
    桜町3番20号:
      latlng: 35.08885699,139.06772360
      name:
      - 熱海市立第二小学校校舎
      - 熱海市立第二小学校グラウンド
    梅園町1169番地の1:
      latlng: 35.09730190,139.06047871
      name:
      - 梅園
    泉280番地:
      latlng: 35.13603023,139.08060861
      name:
      - 熱海市立泉小・中学校校舎
      - 熱海市立泉小・中学校グラウンド
    泉塩坪68番1号:
      latlng: ''
      name:
      - 泉公園
    熱海1886番地の7:
      latlng: 35.08760965,139.04676225
      name:
      - 熱海市立小嵐中学校校舎
      - 熱海市立小嵐中学校グラウンド
    網代195番地:
      latlng: 35.04806052,139.09262647
      name:
      - 熱海市立網代小学校校舎
      - 熱海市立網代小学校グラウンド
    西山町41番1号:
      latlng: 35.10128641,139.06740997
      name:
      - 熱海市立第一小学校校舎
      - 熱海市立第一小学校グラウンド
  牧之原市:
    仁田100-1:
      latlng: 34.75217078,138.21715302
      name:
      - 榛原中学校校舎
      - 榛原中学校グラウンド
    勝俣1212:
      latlng: 34.74412185,138.21013157
      name:
      - 川崎コミュニティ防災センター
      - 川崎コミュニティ防災センター
    勝間588-3:
      latlng: 34.76630808,138.18706827
      name:
      - 勝間田小学校校舎
      - 勝間田小学校グラウンド
    地頭方1丁目42:
      latlng: ''
      name:
      - 地頭方公園
    地頭方281:
      latlng: 34.63191079,138.18933974
      name:
      - 地頭方幼稚園
    地頭方75-1-3:
      latlng: ''
      name:
      - 地頭方保育園
    地頭方981:
      latlng: 34.63735769,138.19308905
      name:
      - 地頭方小学校校舎
    坂部468:
      latlng: 34.77834793,138.20866306
      name:
      - 坂部小学校校舎
    坂部468-1:
      latlng: 34.77834793,138.20866306
      name:
      - 坂部小学校グラウンド
    堀野新田531:
      latlng: 34.62874650,138.17441661
      name:
      - 豊岡公民館
    大江102-1:
      latlng: 34.68955270,138.20307310
      name:
      - 大江コミュニティ防災センター
    大江530-1:
      latlng: 34.69327712,138.20224523
      name:
      - 大江区民会館
      - 大江区民会館
    布引原256-4:
      latlng: 34.77977505,138.14489759
      name:
      - 牧之原コミュニティセンター
      - 牧之原コミュニティセンター
    新庄291-5:
      latlng: 34.63073329,138.19170619
      name:
      - 地頭方公民館
    新庄887-1:
      latlng: ''
      name:
      - 新庄グランド
    東萩間1987-50:
      latlng: ''
      name:
      - 牧之原保育園
    東萩間2082-13:
      latlng: 34.75810494,138.13579093
      name:
      - 牧之原小学校校舎
    波津1642:
      latlng: 34.68714760,138.19682672
      name:
      - 相良小学校校舎
    波津1643、波津1700-3:
      latlng: ''
      name:
      - 相良小学校グラウンド
    波津1700番地3:
      latlng: 34.68510900,138.19634078
      name:
      - 静岡県立相良高校校舎
    波津632-6:
      latlng: 34.68103457,138.19548278
      name:
      - 小堤山公園
    片浜1111-1:
      latlng: 34.71341827,138.21408466
      name:
      - 片浜コミュニティ防災センター
    片浜1210:
      latlng: 34.71388206,138.21272369
      name:
      - 片浜小学校校舎
    片浜1254-1:
      latlng: ''
      name:
      - 片浜小学校グラウンド
    牧之原市新庄800-1:
      latlng: 34.62535884,138.18997606
      name:
      - 御前崎中学校グラウンド
    相良249-2:
      latlng: 34.68448124,138.20165410
      name:
      - 相良幼稚園
    相良283:
      latlng: 34.68725035,138.19776827
      name:
      - 相良中学校校舎
    相良58-1:
      latlng: 34.68447571,138.20000706
      name:
      - 相良コミュニティ防災センター
    福岡265-8:
      latlng: ''
      name:
      - 陣太山避難地
    細江1260:
      latlng: 34.74984917,138.23554870
      name:
      - 細江小学校校舎
      - 細江小学校グラウンド
    菅ヶ谷1050-17:
      latlng: 34.69161071,138.18683354
      name:
      - 相良総合グラウンド
    西山寺6-1:
      latlng: 34.69839813,138.17720721
      name:
      - 菅山小学校校舎
      - 菅山小学校グラウンド
    西萩間889:
      latlng: 34.73549999,138.16096389
      name:
      - 萩間保育園
    静波1001-1:
      latlng: ''
      name:
      - 川崎小学校校舎
    静波1018-1:
      latlng: ''
      name:
      - 静波グラウンド
    静波2130-5:
      latlng: 34.73343474,138.22556879
      name:
      - 静波コミュニティ防災センター
      - 静波コミュニティ防災センター
    静波850:
      latlng: 34.73938937,138.22293812
      name:
      - 静岡県立榛原高校校舎
      - 静岡県立榛原高校グラウンド
    須々木485:
      latlng: 34.67269650,138.19208662
      name:
      - 須々木グランド
    須々木854-10:
      latlng: 34.66847457,138.19399229
      name:
      - 相良公民館
    黒子75:
      latlng: 34.71662228,138.18203922
      name:
      - 萩間小学校校舎
      - 萩間小学校グラウンド
  磐田市:
    万瀬656番地7:
      latlng: ''
      name:
      - 万瀬緊急避難施設
      - 万瀬緊急避難施設
    三ケ野1030番地1:
      latlng: 34.73457930,137.88850767
      name:
      - 磐田市立田原小学校校舎
      - 磐田市立田原小学校グラウンド
    上新屋304番地:
      latlng: 34.73168327,137.82432897
      name:
      - 磐田市アミューズ豊田
      - 磐田市アミューズ豊田
    上神増1410番地:
      latlng: 34.81559934,137.84723776
      name:
      - 磐田市立豊岡南小学校校舎
      - 磐田市立豊岡南小学校グラウンド
    下太380番地:
      latlng: 34.68366617,137.87622880
      name:
      - 磐田市立福田小学校校舎
      - 磐田市立福田小学校グラウンド
    下野部158番地1:
      latlng: 34.83668495,137.84335141
      name:
      - 磐田市立豊岡北小学校校舎
      - 磐田市立豊岡北小学校グラウンド
    中平松23番地:
      latlng: 34.67267738,137.82322017
      name:
      - 磐田市立竜洋東小学校校舎
      - 磐田市立竜洋東小学校グラウンド
    中泉1203番地2:
      latlng: 34.71766389,137.84919395
      name:
      - 磐田市立磐田中部小学校校舎
      - 磐田市立磐田中部小学校グラウンド
    中泉2522番地2:
      latlng: 34.71682778,137.84543882
      name:
      - 磐田市立磐田西小学校校舎
      - 磐田市立磐田西小学校グラウンド
    中田55番地:
      latlng: 34.71482445,137.82477404
      name:
      - 磐田市立青城小学校校舎
      - 磐田市立青城小学校グラウンド
    加茂1026番地:
      latlng: 34.73909637,137.82611467
      name:
      - 磐田市立豊田北部小学校校舎
      - 磐田市立豊田北部小学校グラウンド
    加茂243番地:
      latlng: 34.73470528,137.82878679
      name:
      - 磐田市立豊田中学校校舎
      - 磐田市立豊田中学校グラウンド
    匂坂中987番地:
      latlng: 34.76711036,137.83194065
      name:
      - 磐田市立岩田小学校校舎
      - 磐田市立岩田小学校グラウンド
    千手堂1356番地1:
      latlng: 34.69202624,137.84419008
      name:
      - 磐田市立磐田南小学校校舎
      - 磐田市立磐田南小学校グラウンド
    南島393番地1:
      latlng: 34.69194306,137.88173056
      name:
      - 福田屋内スポ-ツセンタ-
      - 福田屋内スポ-ツセンタ-
    合代島943番地:
      latlng: 34.83309931,137.83779651
      name:
      - 磐田市立豊岡中学校校舎
      - 磐田市立豊岡中学校グラウンド
    向笠竹之内1162番地2:
      latlng: 34.76828624,137.86545796
      name:
      - 磐田市立向陽中学校校舎
      - 磐田市立向陽中学校グラウンド
    向笠竹之内391番地6:
      latlng: 34.76158998,137.87656537
      name:
      - 磐田市立向笠小学校校舎
      - 磐田市立向笠小学校グラウンド
    国府台39番地1:
      latlng: 34.71808882,137.84888563
      name:
      - 磐田市立磐田第一中学校校舎
      - 磐田市立磐田第一中学校グラウンド
    堀之内356番地:
      latlng: 34.69435428,137.81068760
      name:
      - 磐田市立竜洋北小学校校舎
      - 磐田市立竜洋北小学校グラウンド
    壱貫地180番j地1:
      latlng: 34.82078734,137.83299171
      name:
      - 磐田市豊岡総合センター
      - 磐田市豊岡総合センター
    大久保282番地1:
      latlng: 34.77646825,137.84795877
      name:
      - 磐田市立大藤小学校校舎
      - 磐田市立大藤小学校グラウンド
    宇兵衛新田186番地1:
      latlng: 34.67429776,137.85963642
      name:
      - 福田健康福祉会館
      - 福田健康福祉会館
    富士見町4丁目9番地5:
      latlng: 34.73649509,137.86753264
      name:
      - 磐田市立富士見小学校校舎
      - 磐田市立富士見小学校グラウンド
    小島736番地:
      latlng: 34.68461519,137.83106109
      name:
      - 磐田市立長野小学校校舎
      - 磐田市立長野小学校グラウンド
    川袋1900:
      latlng: 34.67579812,137.80113014
      name:
      - 磐田市立竜洋西小学校校舎
      - 磐田市立竜洋西小学校グラウンド
    掛下1489番地:
      latlng: 34.79200524,137.83562553
      name:
      - 磐田市豊岡南部コミュニティセンター
      - 磐田市豊岡南部コミュニティセンター
    敷地891番地1:
      latlng: 34.83569133,137.86570746
      name:
      - 磐田市立豊岡東小学校校舎
      - 磐田市立豊岡東小学校グラウンド
    東新屋613番地:
      latlng: 34.70187537,137.89160684
      name:
      - 磐田市立南御厨公民館
      - 磐田市立南御厨公民館
    東貝塚206番地:
      latlng: 34.71199041,137.87921308
      name:
      - 磐田市立東部小学校校舎
      - 磐田市立東部小学校グラウンド
    森下300番地:
      latlng: 34.72054575,137.82299056
      name:
      - 磐田市立豊田南小学校校舎
      - 磐田市立豊田南小学校グラウンド
    福田中島3753番地1:
      latlng: 34.66611547,137.87409105
      name:
      - 磐田市立福田中学校校舎
      - 磐田市立福田中学校グラウンド
    立野200番地:
      latlng: 34.71789610,137.82187966
      name:
      - 磐田市立豊田南中学校校舎
      - 磐田市立豊田南中学校グラウンド
    西貝塚1377番地5:
      latlng: 34.71179029,137.87341653
      name:
      - 磐田市立西貝公民館
      - 磐田市立西貝公民館
    見付2352番地:
      latlng: 34.72997630,137.85881460
      name:
      - 磐田市立磐田北小学校校舎
      - 磐田市立磐田北小学校グラウンド
    見付263番地3:
      latlng: 34.72427722,137.86589739
      name:
      - 磐田市立城山中学校校舎
      - 磐田市立城山中学校グラウンド
    見付2989番地3:
      latlng: 34.71914159,137.85480163
      name:
      - ワークピア磐田
      - ワークピア磐田
    見付4075番地1:
      latlng: 34.72780954,137.84691039
      name:
      - 磐田市総合体育館
      - 磐田市総合体育館
    豊岡4473番地8:
      latlng: 34.67941498,137.81570964
      name:
      - 磐田市立竜洋中学校校舎
      - 磐田市立竜洋中学校グラウンド
    豊浜9番地:
      latlng: 34.68668307,137.89914553
      name:
      - 磐田市立豊浜小学校校舎
      - 磐田市立豊浜小学校グラウンド
    野箱32番地:
      latlng: 34.69046191,137.83379391
      name:
      - 磐田市立南部中学校校舎
      - 磐田市立南部中学校グラウンド
    鎌田2262番地74:
      latlng: 34.71805649,137.88771731
      name:
      - 磐田市立神明中学校校舎
      - 磐田市立神明中学校グラウンド
    高見丘57番地:
      latlng: 34.74307967,137.83886888
      name:
      - 磐田市立豊田東小学校校舎
      - 磐田市立豊田東小学校グラウンド
  菊川市:
    下内田1637番地:
      latlng: 34.72632532,138.07331010
      name:
      - 内田小学校校舎
      - 内田小学校グラウンド
    下平川1647番地:
      latlng: ''
      name:
      - 中央公民館駐車場
    下平川5430番地:
      latlng: 34.69761859,138.09408354
      name:
      - 岳洋中学校校舎
      - 岳洋中学校グラウンド
    下平川6255番地:
      latlng: ''
      name:
      - 中央公民館
    加茂38番地:
      latlng: 34.75202852,138.08348242
      name:
      - 菊川西中学校校舎
      - 菊川西中学校グラウンド
    加茂5114番地:
      latlng: 34.74489123,138.08297608
      name:
      - 加茂小学校校舎
      - 加茂小学校グラウンド
    吉沢556番地:
      latlng: 34.77368298,138.11319848
      name:
      - 河城小学校校舎
      - 河城小学校グラウンド
    大石88番地:
      latlng: 34.69507965,138.07205537
      name:
      - 保養センター小菊荘
      - 保養センター運動場
    嶺田59番地:
      latlng: 34.69974290,138.08080166
      name:
      - 小笠北小学校校舎
      - 北小学校グラウンド
    川上1344番地の9:
      latlng: ''
      name:
      - 小笠東小学校校舎
      - 東小学校グラウンド
    本所2200番地:
      latlng: 34.74575730,138.09454826
      name:
      - 六郷小学校校舎
      - 六郷小学校グラウンド
    本所670番地:
      latlng: 34.76209176,138.09732283
      name:
      - 菊川東中学校校舎
      - 菊川東中学校グラウンド
    東横地1886番地:
      latlng: 34.72545931,138.09513799
      name:
      - 横地小学校校舎
      - 横地小学校グラウンド
    西方2140番地:
      latlng: 34.76254829,138.07439529
      name:
      - 堀之内小学校校舎
      - 堀之内小学校グラウンド
    赤土1070番地の1:
      latlng: 34.69423302,138.09357527
      name:
      - 菊川市民総合体育館
      - 菊川市民総合体育館・駐車場
    高橋3503番地:
      latlng: 34.68070453,138.10009723
      name:
      - 南小学校グラウンド
    高橋3506番地:
      latlng: ''
      name:
      - 小笠南小学校校舎
  藤枝市:
    上当間602番地:
      latlng: 34.88611523,138.28668255
      name:
      - 藤枝市立広幡中学校校舎
    下之郷111番地の1:
      latlng: 34.89459074,138.24841718
      name:
      - 藤枝市立葉梨小学校校舎
    下青島10番地:
      latlng: 34.84879006,138.23817962
      name:
      - 藤枝市立青島小学校校舎
    与左衛門33番地の1:
      latlng: 34.83832635,138.27276845
      name:
      - 藤枝市立高洲中学校校舎
    中ノ合336番地:
      latlng: 34.90137034,138.24774206
      name:
      - 藤枝市立葉梨中学校校舎
    前島2-10-1:
      latlng: 34.84531331,138.25151748
      name:
      - 静岡県武道館
      - 静岡県武道館グラウンド
    南駿河台1丁目11番1号:
      latlng: 34.86066142,138.24237929
      name:
      - 藤枝市立青島北中学校校舎
    南駿河台2丁目11番1号:
      latlng: 34.86015573,138.23695480
      name:
      - 藤枝市立青島北小学校校舎
    城南2-4-6:
      latlng: 34.86735326,138.27184830
      name:
      - 静岡県立藤枝西高校体育館
      - 静岡県立藤枝西高校グラウンド
    大洲5丁目20番:
      latlng: 34.82651554,138.25132915
      name:
      - 藤枝市立大洲小学校校舎
    天王町1-7-1:
      latlng: 34.87688242,138.26175486
      name:
      - 静岡県立藤枝東高校体育館
      - 静岡県立藤枝東高校グラウンド
    天王町1丁目1番1号:
      latlng: 34.87428826,138.26029119
      name:
      - 藤枝市立藤枝小学校校舎
    寺島850番1:
      latlng: ''
      name:
      - 寺島河川敷公園
    寺島851番:
      latlng: 34.88366343,138.21402893
      name:
      - 藤枝市立稲葉公民館駐車場
    岡部町内谷997-2:
      latlng: 34.90953968,138.28318780
      name:
      - 岡部小学校校舎
    岡部町子持坂102:
      latlng: 34.91258050,138.26698672
      name:
      - 岡部中学校校舎
    岡部町宮島513-1:
      latlng: 34.96036310,138.25354317
      name:
      - いきいき交流センター
    岡部町新舟1021:
      latlng: 34.95244997,138.25139628
      name:
      - 朝比奈第1小学校校舎
    弥左衛門500番地:
      latlng: 34.82698274,138.25938964
      name:
      - 藤枝市立大洲中学校校舎
    本郷4653番地:
      latlng: 34.92194994,138.20679861
      name:
      - 藤枝市立瀬戸谷中学校校舎
    本郷872番地:
      latlng: 34.91344528,138.20134076
      name:
      - 藤枝市立瀬戸谷小学校校舎
    田中1丁目7番1号:
      latlng: 34.87145281,138.27317583
      name:
      - 藤枝市立西益津中学校校舎
    田中1丁目7番20号:
      latlng: 34.87222775,138.27449790
      name:
      - 藤枝市立西益津小学校校舎
    藤岡3丁目14番1号:
      latlng: 34.88726169,138.26654028
      name:
      - 藤枝市立藤岡小学校校舎
    藤枝3丁目453番4:
      latlng: ''
      name:
      - 藤枝中央小学校跡地
    西方1080番地:
      latlng: 34.92515855,138.23567343
      name:
      - 藤枝市立葉梨西北小学校校舎
    郡970:
      latlng: 34.87611331,138.27115093
      name:
      - 静岡県立藤枝北高校校舎
      - 静岡県立藤枝北高校グラウンド
    青葉町1丁目7番1号:
      latlng: 34.84500175,138.24300148
      name:
      - 藤枝市立青島中学校校舎
    音羽町1丁目1番51号:
      latlng: 34.87021877,138.24099608
      name:
      - 藤枝市立藤枝中学校校舎
    音羽町6丁目15番地:
      latlng: 34.87740943,138.23620759
      name:
      - 大谷川公園
    高柳1315番地:
      latlng: 34.84304781,138.26988803
      name:
      - 藤枝市立高洲小学校校舎
    高洲37番地の1:
      latlng: 34.83549014,138.26262236
      name:
      - 藤枝市立高洲南小学校校舎
    鬼島424番地:
      latlng: 34.89017288,138.28205516
      name:
      - 藤枝市立広幡小学校校舎
  袋井市:
    上山梨32-1:
      latlng: ''
      name:
      - 月見の里学遊館
      - 月見の里学遊館グラウンド
    上山梨831-1:
      latlng: 34.79116801,137.90725239
      name:
      - 山名コミュニティハウス
    上山梨95-1:
      latlng: ''
      name:
      - 山名公民館
      - 山名公民館グラウンド
    上田町267-19:
      latlng: 34.73611139,137.93411198
      name:
      - 袋井体育センター・上田町グラウンド
    上田町267-31:
      latlng: ''
      name:
      - 上田町グランド
    上田町267-5:
      latlng: 34.73576698,137.93401756
      name:
      - サンライフ袋井
    上田町267-8:
      latlng: 34.73721403,137.93387587
      name:
      - 高南公民館
      - 高南公民館グラウンド
    上田町306-2:
      latlng: 34.73470878,137.93476196
      name:
      - 高南小学校校舎・体育館
      - 高南小学校グラウンド
    下山梨1-1-1:
      latlng: 34.77689222,137.90925539
      name:
      - 周南中学校校舎・体育館
      - 周南中学校グラウンド
    中410:
      latlng: 34.70245939,137.91586246
      name:
      - 浅羽西公民館
      - 浅羽西公民館グラウンド
    久能1310:
      latlng: 34.75871683,137.92041831
      name:
      - 若葉幼稚園
      - 若葉幼稚園グラウンド
    久能1330-2:
      latlng: 34.75826964,137.91951285
      name:
      - 袋井北公民館
      - 袋井北公民館グラウンド
      - 北地区コミュニティ広場
    久能1580:
      latlng: 34.75863892,137.91493551
      name:
      - 袋井北小学校校舎・体育館
      - 袋井北小学校グラウンド
    久能2350:
      latlng: 34.76661027,137.91609091
      name:
      - 静岡県立袋井商業高校体育館
    友永113-1:
      latlng: 34.79788911,137.87979718
      name:
      - 三川幼稚園
      - 三川幼稚園グラウンド
    友永147:
      latlng: 34.80144147,137.87953603
      name:
      - 三川公民館
      - 三川公民館グラウンド
    友永38:
      latlng: 34.79809464,137.87911949
      name:
      - 三川小学校校舎・体育館
      - 三川小学校グラウンド
    国本2288:
      latlng: 34.76080297,137.93794441
      name:
      - 袋井東幼稚園
      - 袋井東幼稚園グラウンド
    堀越766-1:
      latlng: 34.75803888,137.91033596
      name:
      - 若草幼稚園
      - 若草幼稚園グラウンド
    太田687:
      latlng: 34.76807040,137.89114366
      name:
      - 今井公民館
      - 今井公民館グラウンド
    太田692:
      latlng: 34.76758710,137.89075481
      name:
      - 今井小学校校舎・体育館
      - 今井小学校グラウンド
    太田723-1:
      latlng: 34.76695385,137.89142139
      name:
      - 今井幼稚園グラウンド
    太田723‐1:
      latlng: 34.76695385,137.89142139
      name:
      - 今井幼稚園
    宇刈1121-1:
      latlng: 34.79533993,137.92806400
      name:
      - 宇刈いきいきセンター
      - 宇刈いきいきセンターグラウンド
    山崎4822:
      latlng: 34.69732431,137.95360809
      name:
      - 笠原小学校校舎・体育館
      - 笠原小学校グラウンド
    山崎5093-13:
      latlng: 34.69933242,137.95436352
      name:
      - 笠原幼稚園
      - 笠原幼稚園グラウンド
    山崎5093-5:
      latlng: 34.69908522,137.95398579
      name:
      - コミュニティ防災センター
    山崎5101:
      latlng: ''
      name:
      - 笠原公民館
      - 笠原公民館グラウンド
    岡崎2525:
      latlng: 34.70021280,137.94981673
      name:
      - 岡崎会館
      - 岡崎会館グラウンド
    岡崎567-1:
      latlng: 34.69877967,137.95235818
      name:
      - 笠原保育所
      - 笠原保育所グラウンド
    岡崎6635-8:
      latlng: 34.71499160,137.94341715
      name:
      - 風見の丘
    岡崎6635番地の192:
      latlng: 34.71624979,137.94399207
      name:
      - 中遠クリーンセンター
      - 中遠クリーンセンター多目的広場
    川井442:
      latlng: 34.74610706,137.91611053
      name:
      - 袋井西小学校校舎・体育館
      - 袋井西小学校グラウンド
    川井568-1:
      latlng: 34.74508215,137.91540226
      name:
      - 袋井西幼稚園
      - 袋井西幼稚園グラウンド
    川井579-1:
      latlng: 34.74461004,137.91680216
      name:
      - 袋井西公民館
      - 袋井西公民館グラウンド
    川井701:
      latlng: 34.74567109,137.91886585
      name:
      - 袋井中学校校舎・体育館
      - 袋井中学校グラウンド
    広岡2317-1:
      latlng: 34.75804780,137.94480777
      name:
      - 袋井東小学校校舎・体育館
      - 袋井東小学校グラウンド
    広岡2506-1:
      latlng: 34.75807836,137.94601045
      name:
      - 袋井東公民館
      - 袋井東公民館グラウンド
    愛野2300-1:
      latlng: 34.74463509,137.96877566
      name:
      - 小笠山総合運動公園静岡アリーナ
      - 小笠山総合運動公園西第1駐車場
      - 小笠山総合運動公園補助体育館
    愛野2446-1:
      latlng: 34.74123848,137.94485542
      name:
      - 静岡県立袋井高校校舎
    愛野3082-2:
      latlng: 34.74221621,137.93388408
      name:
      - 袋井南幼稚園
      - 袋井南幼稚園グラウンド
    愛野3110:
      latlng: 34.74198285,137.94230839
      name:
      - 袋井南中学校校舎・体育館
      - 袋井南中学校グラウンド
    新地190-1:
      latlng: 34.72923931,137.90769235
      name:
      - 田原幼稚園
      - 田原幼稚園グラウンド
    新地55:
      latlng: ''
      name:
      - 田原農村総合管理センター
      - 田原農村総合管理センターグラウンド
    春岡684:
      latlng: 34.79027098,137.91326287
      name:
      - 山名小学校校舎・体育館
      - 山名小学校グラウンド
    春岡94:
      latlng: ''
      name:
      - 山梨幼稚園
      - 山梨幼稚園グラウンド
    松原1793:
      latlng: 34.68117633,137.93301665
      name:
      - 浅羽南幼稚園
      - 浅羽南幼稚園グラウンド
    梅山63:
      latlng: 34.68773379,137.93376349
      name:
      - 浅羽東公民館
      - 浅羽東公民館グラウンド
    浅名1027:
      latlng: 34.70781183,137.93264905
      name:
      - メロープラザ
    浅名822:
      latlng: 34.70339015,137.93378792
      name:
      - 浅羽中学校校舎・体育館
      - 浅羽中学校グラウンド
    浅羽1322:
      latlng: 34.70804780,137.92222250
      name:
      - 浅羽北小学校校舎・体育館
      - 浅羽北小学校グラウンド
    浅羽1645:
      latlng: 34.71349721,137.92578574
      name:
      - 浅羽北幼稚園
      - 浅羽北幼稚園グラウンド
    浅羽2617-1:
      latlng: 34.72011876,137.92891015
      name:
      - 浅羽東幼稚園
      - 浅羽東幼稚園グラウンド
    浅羽2800:
      latlng: 34.72096033,137.92763803
      name:
      - 浅羽東小学校校舎・体育館
      - 浅羽東小学校グラウンド
    浅羽2857:
      latlng: 34.71900775,137.92649099
      name:
      - 袋井市立浅羽北公民館
      - 袋井市立浅羽北公民館グラウンド
    砂本町19-1:
      latlng: ''
      name:
      - 高南幼稚園
      - 高南幼稚園グラウンド
    西同笠148:
      latlng: 34.68124854,137.93476643
      name:
      - 浅羽南小学校校舎・体育館
      - 浅羽南小学校グラウンド
    長溝873-1:
      latlng: 34.70377849,137.90941320
      name:
      - 浅羽西幼稚園
      - 浅羽西幼稚園グラウンド
    高尾2753-1:
      latlng: 34.73256458,137.93096791
      name:
      - 静岡県立袋井特別支援学校体育館
