鳥取:
  三朝町:
    三朝388-1:
      latlng: 35.41112428,133.89607745
      name:
      - ブランナールみささ
    大瀬1110:
      latlng: 35.40689066,133.86164462
      name:
      - 西小学校(屋外部分)
    大瀬999-2:
      latlng: 35.40845714,133.86175289
      name:
      - 総合文化ホール
    山田218-3:
      latlng: ''
      name:
      - 三朝町総合スポーツセンター
    本泉425:
      latlng: 35.40489646,133.86123916
      name:
      - 三朝中学校(屋外部分)
    本泉685:
      latlng: ''
      name:
      - 町営三朝球場
      - 町営美の田テニス場
    本泉736:
      latlng: ''
      name:
      - 多目的スポーツ広場
  伯耆町:
    丸山:
      latlng: 35.39195880,133.48246943
      name:
      - 大山ガーデンプレイス交流室
    二部543-1:
      latlng: 35.30119435,133.41591321
      name:
      - 二部保育所
    大原1006-3:
      latlng: 35.38297565,133.45865738
      name:
      - 海洋センター体育館
      - 総合スポーツ公園グラウンド
    大殿1030:
      latlng: 35.38640720,133.39637637
      name:
      - 老人福祉センター
    栃原29:
      latlng: 35.33352580,133.50659207
      name:
      - 日光小学校
      - 日光小学校体育館
      - 日光小学校グラウンド
    溝口309:
      latlng: 35.34384557,133.43609032
      name:
      - 溝口小学校グランド
    真野971:
      latlng: 35.38057256,133.44115263
      name:
      - 八郷小学校体育館
      - 八郷小学校グラウンド
    須村:
      latlng: 35.39023063,133.44198817
      name:
      - 大山帝京すこやか村グラウンド
    須村353-3:
      latlng: 35.38987990,133.43576445
      name:
      - 町立写真美術館
  倉吉市:
    上井503番地1:
      latlng: 35.45323753,133.84302831
      name:
      - 倉吉市立河北中学校(屋外部分)
    上灘町136番地:
      latlng: 35.42955425,133.84081230
      name:
      - 倉吉市立上灘小学校(屋外部分)
    上福田722番地2:
      latlng: 35.42954116,133.74625187
      name:
      - 倉吉市立高城小学校
    下田中町801番地:
      latlng: 35.43494813,133.84457852
      name:
      - 鳥取県立倉吉東高等学校(屋外部分/下田中)
      - 鳥取県立倉吉東高等学校(屋外部分/大原)
    中河原775番地1:
      latlng: 35.41509941,133.80242996
      name:
      - 倉吉市立小鴨小学校(屋外)
    仲ノ町733番地:
      latlng: 35.43068710,133.82426652
      name:
      - 倉吉市立成徳小学校(屋外部分)
    余戸谷町2970番地1:
      latlng: ''
      name:
      - 倉吉市立倉吉西保育園
    国分寺88番地:
      latlng: 35.43186116,133.79269468
      name:
      - 倉吉市立社小学校
    大谷166番地:
      latlng: 35.43535497,133.78210407
      name:
      - 鳥取県立倉吉農業高等学校(屋外部分)
    宮川町2丁目76番地:
      latlng: 35.43415625,133.82956318
      name:
      - 倉吉市立東中学校
    小田204番地5:
      latlng: 35.45942826,133.83329301
      name:
      - 鳥取県立倉吉総合産業高校等学校(屋外部分)
    小田458番地:
      latlng: 35.45645648,133.83792873
      name:
      - 伯耆しあわせの郷
    尾原500番地:
      latlng: 35.46192142,133.77568732
      name:
      - 倉吉市立灘手小学校
    新田405番地1:
      latlng: 35.46519151,133.83566500
      name:
      - 倉吉市立上北条小学校
    横田568番地1:
      latlng: 35.42275356,133.77558246
      name:
      - 倉吉市立久米中学校
    沢谷204番地:
      latlng: 35.40699413,133.75072085
      name:
      - 倉吉市立北谷小学校
    海田西町1丁目130番地:
      latlng: 35.46306412,133.84328374
      name:
      - 倉吉市立河北小学校
    福吉町2丁目1674番地:
      latlng: 35.43260878,133.81168713
      name:
      - 倉吉市明倫公民館
    福富1番地:
      latlng: 35.40543051,133.75513709
      name:
      - 久米農村広場
    福山30番地:
      latlng: 35.39223254,133.78214298
      name:
      - 倉吉市立上小鴨小学校
    福庭二丁目1番地:
      latlng: 35.46405572,133.84623068
      name:
      - 鳥取県立倉吉高等技術専門校(屋外部分)
    秋喜20番地:
      latlng: 35.42833123,133.80141326
      name:
      - 鳥取県立倉吉西高等学校(屋外部分)
    西倉吉町170番地:
      latlng: 35.42656757,133.80269648
      name:
      - 倉吉市立西中学校
    長坂新町1231番地:
      latlng: 35.41016394,133.80790175
      name:
      - 鳥取県立倉吉養護学校(屋外部分)
    関金町堀2163番地:
      latlng: 35.36264442,133.69634907
      name:
      - 倉吉市立山守小学校
    関金町大鳥居1238番地:
      latlng: 35.38068689,133.75697294
      name:
      - 鳥取県立農業大学校
    関金町大鳥居25番地1:
      latlng: ''
      name:
      - 倉吉市立鴨川中学校(屋外部分)
    関金町泰久寺:
      latlng: 35.36714989,133.72667023
      name:
      - 大山池ふれあい広場
    関金町関金宿666番地:
      latlng: 35.36544189,133.74918749
      name:
      - 倉吉市立関金小学校
    駄経寺町212番地5:
      latlng: 35.43180111,133.83623208
      name:
      - 鳥取県立倉吉未来中心
  八頭町:
    下野331:
      latlng: 35.34312915,134.26166251
      name:
      - 大江小学校
    下野335-1:
      latlng: ''
      name:
      - 大江地区公民館
    久能寺725番地:
      latlng: 35.40480418,134.24476843
      name:
      - 鳥取県立八頭高等学校(屋外部分)
    北山211:
      latlng: 35.36275044,134.35433361
      name:
      - 丹比小学校
    北山51:
      latlng: 35.36233666,134.35786110
      name:
      - 八東中学校
    坂田11:
      latlng: 35.39053088,134.24919633
      name:
      - 船岡小学校
    坂田409-1:
      latlng: 35.38765610,134.24263038
      name:
      - 船岡トレーニングセンター
    宮谷254-1:
      latlng: 35.41828339,134.25531120
      name:
      - 郡家保健センター
    富枝10-1:
      latlng: ''
      name:
      - 八東体育文化センター
    富枝8:
      latlng: 35.36348376,134.36099137
      name:
      - 八東若者体育館
    徳丸578:
      latlng: 35.36531931,134.34081528
      name:
      - 八東保健センター
    才代131:
      latlng: 35.36444390,134.31858707
      name:
      - 八東公民館
    東328:
      latlng: 35.36190552,134.32451982
      name:
      - 八東小学校
    船岡536:
      latlng: 35.39126413,134.24920186
      name:
      - 船岡公民館
    船岡殿159:
      latlng: 35.38212083,134.24947710
      name:
      - 船岡保健センター
    船岡殿426:
      latlng: 35.37344419,134.24710807
      name:
      - 済美コミュニティーセンター
    見槻中160:
      latlng: 35.38746218,134.26898327
      name:
      - 隼小学校
    見槻中76:
      latlng: 35.38415420,134.26571428
      name:
      - 研修センターはやぶさ
    郡家296:
      latlng: 35.41012590,134.25242580
      name:
      - 中央中学校体育館
    郡家541:
      latlng: 35.40585689,134.24961795
      name:
      - 郡家西小学校体育館
    郡家559:
      latlng: 35.40741505,134.24850408
      name:
      - 郡家西地区公民館
  北栄町:
    国坂385-5:
      latlng: ''
      name:
      - 北条野球場
    国坂80:
      latlng: ''
      name:
      - 北条小学校体育館
    土下100-1:
      latlng: 35.47868697,133.82434944
      name:
      - 北条中学校
    土下112:
      latlng: 35.47910354,133.82179413
      name:
      - 北条運動場
    由良宿1458-16:
      latlng: 35.49902819,133.75861273
      name:
      - お台場公園
    由良宿215:
      latlng: ''
      name:
      - 大栄運動場
    由良宿222:
      latlng: ''
      name:
      - 大栄テニスコート
    由良宿291番地1:
      latlng: 35.48768483,133.75716333
      name:
      - 鳥取県立鳥取中央育英高等学校(屋外部分)
    由良宿340:
      latlng: 35.48740698,133.75471358
      name:
      - 大栄中学校(屋外)
    由良宿370:
      latlng: ''
      name:
      - 大栄野球場
    西高尾1677:
      latlng: 35.43981438,133.69827630
      name:
      - レークサイド大栄
  南部町:
    上中谷2397番地5:
      latlng: ''
      name:
      - 上長田会館
    下中谷965番地5:
      latlng: 35.30304783,133.32499497
      name:
      - 南部町健康増進施設レークサイドアリーナ
    中97番地:
      latlng: ''
      name:
      - 南部町東長田山村交流施設ふれあいセンター
    倭482番地:
      latlng: 35.34848709,133.32532065
      name:
      - 南部町国民健康保険健康管理センター
    北方633:
      latlng: 35.35986908,133.31657352
      name:
      - 鳥取県中小家畜試験場(屋外部分)
    原856番地1:
      latlng: ''
      name:
      - 南部町民おおくにコミュニティー運動施設
    原868番地4:
      latlng: 35.34993408,133.32159032
      name:
      - 南部町立おおくに田園スクエアグランド
      - 南部町立おおくに田園スクエア
    境1569:
      latlng: ''
      name:
      - 南部町立東西町コミュニティーセンター
    天萬526番地:
      latlng: 35.37033639,133.36249142
      name:
      - 南部町農業者トレーニングセンター
    天萬583番地:
      latlng: 35.37184178,133.36336348
      name:
      - 南部町立南部中学校グランド
      - 南部町立南部中学校
    市山1083番地1:
      latlng: 35.35992370,133.37448220
      name:
      - 南部町会見農村環境改善センター
    市山746番地1:
      latlng: 35.35754614,133.37599044
      name:
      - ひまわり保育園
    法勝寺331番地1:
      latlng: 35.34222387,133.32646251
      name:
      - 南部町総合福祉センター「しあわせ」
    法勝寺336番地:
      latlng: 35.34281549,133.32778182
      name:
      - 南部町立西伯小学校グランド
    浅井72番地:
      latlng: ''
      name:
      - 南部町民運動場
    浅井927番地:
      latlng: ''
      name:
      - 南部町民野球場
    浅井938番地:
      latlng: 35.36192350,133.37021594
      name:
      - 南部町総合福祉センター「いこい荘」
    福成1455番地:
      latlng: 35.37054940,133.33306626
      name:
      - 南部町立ふるさと交流センターグランド
      - 南部町立ふるさと交流センター
    福成743番地:
      latlng: ''
      name:
      - 南部町民天津運動公園
    能竹397番地1:
      latlng: ''
      name:
      - 南部町営西伯カントリーパーク
    落合480番地:
      latlng: ''
      name:
      - 南部町老人福祉施設「ゆうらく」
    阿賀869番地3:
      latlng: ''
      name:
      - つくし保育園
    馬場630番地1:
      latlng: 35.33638834,133.32349081
      name:
      - 南部町立法勝寺中学校グランド
      - 南部町立法勝寺中学校
    鶴田110番地:
      latlng: 35.34811156,133.42348292
      name:
      - 鳥取県立とっとり花回廊
  境港市:
    上道町1840:
      latlng: 35.54234398,133.23795757
      name:
      - 境港市立第一中学校
    上道町1989-5:
      latlng: 35.54430770,133.23667430
      name:
      - 境東地区学習等供用施設
    上道町3026:
      latlng: 35.53722764,133.23572437
      name:
      - 境港市立上道小学校
    上道町3030番地:
      latlng: 35.53676375,133.23378559
      name:
      - 鳥取県立境高等学校(屋外部分)
    中野町2035:
      latlng: 35.53248342,133.22595835
      name:
      - 第二市民体育館
    中野町5339:
      latlng: ''
      name:
      - 中野西公園
    夕日ヶ丘1丁目4133-9:
      latlng: 35.50464186,133.22085439
      name:
      - 市民スポーツ広場
    外江町1372:
      latlng: 35.52487561,133.21595936
      name:
      - 境港市立第三中学校
    外江町1770-1:
      latlng: 35.53315809,133.21290080
      name:
      - 市立わかまつ幼稚園・外江保育所
    大正町97-1:
      latlng: 35.54521851,133.22547196
      name:
      - 境西地区学習等供用施設
    小篠津町1548-2外:
      latlng: ''
      name:
      - 中浜サントピア
    小篠津町19:
      latlng: 35.50354136,133.24433047
      name:
      - 幸神体育館
    岬町45-3:
      latlng: 35.54557442,133.24512661
      name:
      - 市立台場保育所
    幸神町907-1外:
      latlng: ''
      name:
      - 市民の森
    日ノ出町58-1:
      latlng: ''
      name:
      - 日ノ出広場
    渡町1342-1:
      latlng: 35.51791796,133.21241277
      name:
      - 市立渡保育所
    渡町1417-3:
      latlng: 35.51670432,133.21799296
      name:
      - 渡体育館
    渡町901:
      latlng: 35.51689042,133.21899565
      name:
      - 境港市立渡小学校
    福定町216:
      latlng: 35.52728679,133.24141308
      name:
      - 市立余子幼稚園・余子保育所
    竹内団地255番地3:
      latlng: 35.51977945,133.25918436
      name:
      - 夢みなとタワー
    竹内町40:
      latlng: 35.51971516,133.24524645
      name:
      - 境港市老人福祉センター
    竹内町925番地:
      latlng: 35.52610072,133.23767999
      name:
      - 鳥取県立境港総合技術高等学校(屋外部分)
    花町10外:
      latlng: ''
      name:
      - 台場公園
    誠道町2062:
      latlng: 35.51805416,133.23586379
      name:
      - 境港市立誠道小学校
    麦垣町432:
      latlng: 35.50906877,133.24947987
      name:
      - 境港市立中浜小学校
  大山町:
    下甲1022:
      latlng: 35.51948231,133.57326796
      name:
      - 中山小学校(屋外)
    下甲1022-5:
      latlng: ''
      name:
      - 中山農業者トレーニングセンター
    下甲1120:
      latlng: 35.52423233,133.58423323
      name:
      - 中山農村環境改善センター
    下甲874-6:
      latlng: 35.52564622,133.58722448
      name:
      - 下中山保育所
    下甲951-1:
      latlng: 35.51968525,133.57694255
      name:
      - 中山中学校
    今在家611:
      latlng: 35.44032823,133.50003064
      name:
      - 大山農村環境改善センター
      - 大山農業者トレーニングセンター
      - 大山野球場
    今在家631:
      latlng: ''
      name:
      - 大山農村運動広場
    住吉921:
      latlng: 35.51562947,133.56098018
      name:
      - 逢坂保育所
    佐摩340:
      latlng: 35.44543044,133.49737479
      name:
      - 大山小学校(屋外)
    加茂2663:
      latlng: 35.45666751,133.53935854
      name:
      - 名和地域休養施設
    古御堂177:
      latlng: 35.49338427,133.47801300
      name:
      - 旧庄内小学校(屋外)
    名和1247-1:
      latlng: 35.49560557,133.51377750
      name:
      - 名和農業者トレーニングセンター
      - 名和総合運動公園
    名和610:
      latlng: 35.50321234,133.49928090
      name:
      - 名和小学校(屋外)
    名和648:
      latlng: 35.50612306,133.49708932
      name:
      - 名和中学校(屋外)
    塩津368:
      latlng: 35.52055428,133.57060987
      name:
      - 中山公民館
    大山145-11:
      latlng: ''
      name:
      - 大山国体広場
    大山145-12:
      latlng: ''
      name:
      - 大山運動広場
    大山145-13:
      latlng: 35.40026452,133.53580456
      name:
      - 大山総合体育館
    妻木582-1:
      latlng: 35.47264570,133.44346342
      name:
      - 高麗グラウンド
    宮内457:
      latlng: ''
      name:
      - 仁王堂公園
    平木297-1:
      latlng: 35.47316035,133.47053319
      name:
      - 中高ふれあい文化センター
    御来屋1012:
      latlng: 35.51143631,133.49435055
      name:
      - 御来屋漁村センター
    御来屋116-9:
      latlng: 35.51304466,133.49843359
      name:
      - 御来屋保育所(屋外)
    御来屋467:
      latlng: 35.50703946,133.49357010
      name:
      - 保健福祉センターなわ
    所子218-2:
      latlng: 35.48143451,133.46473633
      name:
      - 大山武道館
    所子310:
      latlng: ''
      name:
      - 大山中学校(屋外)
    押平741-2:
      latlng: 35.49098172,133.47905462
      name:
      - 庄内保育所(屋外)
    末長503:
      latlng: 35.48106211,133.45933399
      name:
      - 保健福祉センターだいせん
    末長81-1:
      latlng: ''
      name:
      - 大山西小学校(屋外)
    束積312-1:
      latlng: 35.50116269,133.59220027
      name:
      - 上中山保育所
    東坪515:
      latlng: 35.51888652,133.52135431
      name:
      - 旧光徳小学校(屋外)
    田中817:
      latlng: 35.52493519,133.58733838
      name:
      - 林業振興センター
    羽田井1419-13:
      latlng: ''
      name:
      - 中山活性化センター多目的ホール
    茶畑1077-3:
      latlng: 35.48034933,133.48269341
      name:
      - 人権交流センター
    赤坂766-1:
      latlng: 35.51534978,133.58006735
      name:
      - 福祉センターなかやま
      - 上屋付多目的広場(ふるさとフォーラム中山)
    赤松928-2:
      latlng: ''
      name:
      - 大山小学校赤松分校(屋外)
    赤松明間原312番地1:
      latlng: ''
      name:
      - 鳥取県立大山青年の家(屋外部分)
  岩美町:
    大谷2343:
      latlng: 35.57831064,134.29904183
      name:
      - 岩美西小学校体育館
      - 岩美西小学校校庭
      - 岩美町立岩美西小学校
    大谷2410:
      latlng: 35.57759686,134.30007510
      name:
      - 大岩交流センター
    岩本:
      latlng: 35.57353777,134.30942618
      name:
      - 蒲生川河川防災ステーション
    新井419-2:
      latlng: 35.56269373,134.33679501
      name:
      - 岩美町立岩美南小学校
    浦富2128:
      latlng: 35.58791863,134.33130826
      name:
      - 岩美北小学校校庭
      - 岩美町立岩美北小学校
    浦富2188:
      latlng: ''
      name:
      - 岩美北小学校体育館
    浦富707:
      latlng: 35.57482008,134.33017003
      name:
      - 岩美中学校校庭
      - 町立岩美中学校(屋外部分)
    浦富708番地2:
      latlng: 35.57308418,134.33127001
      name:
      - 鳥取県立岩美高等学校(屋外部分)
    田後159:
      latlng: 35.59055120,134.31199030
      name:
      - 田後地区社会体育施設運動場
    網代224:
      latlng: 35.58634019,134.29563906
      name:
      - 網代地区社会体育施設運動場
      - 網代コミュニティセンター
    蒲生1115-2:
      latlng: 35.52915151,134.39420457
      name:
      - 一寸法師の館
    院内290-3:
      latlng: 35.53011703,134.34038442
      name:
      - 小田地区社会体育施設運動場
      - 旧小田小学校
    陸上33:
      latlng: 35.60005962,134.36054993
      name:
      - 東地区社会体育施設運動場
      - 東コミュニティセンター
  日南町:
    上石見723-1番地:
      latlng: 35.11244441,133.35766638
      name:
      - 石見センター
    下石見1267-1番地:
      latlng: 35.13354745,133.32655181
      name:
      - 下石見構造改善センター
    下石見2315番地:
      latlng: 35.15215949,133.33023701
      name:
      - 特別養護老人ホームあかねの郷
    下阿毘縁478番地:
      latlng: 35.21055544,133.20915847
      name:
      - ゆきんこ村・四季彩
    印賀1516番地:
      latlng: ''
      name:
      - まなび宿おおみや
    多里782-2番地:
      latlng: 35.11592761,133.20050136
      name:
      - 桜ヶ瀬会館
    多里826番地:
      latlng: 35.11615259,133.20147349
      name:
      - まなび宿たり
    生山735番地:
      latlng: 35.16942128,133.32298991
      name:
      - 日南町商工会
    生山739-3番地:
      latlng: ''
      name:
      - 生山自治会館
    神戸上:
      latlng: 35.12191605,133.37107046
      name:
      - 日南邑運動広場
    神戸上2962-1番地:
      latlng: 35.13049591,133.38190538
      name:
      - ふるさと日南邑ファーム・イン
    福塚1002-1番地:
      latlng: 35.11602372,133.30148798
      name:
      - 日南町立福栄保育園
    福塚974番地:
      latlng: ''
      name:
      - まなび宿ふくさかえ
    福塚992番地:
      latlng: 35.11632926,133.30231012
      name:
      - 福栄生活改善センター
    笠木304番地:
      latlng: ''
      name:
      - まなび宿やまがみ
    茶屋:
      latlng: 35.18696429,133.21963428
      name:
      - 日南町デイサービスセンターおおくさ荘
    茶屋4169-3番地:
      latlng: 35.18572036,133.23444327
      name:
      - 山上会館
    菅沢446番地:
      latlng: ''
      name:
      - 日南湖畔センター
    阿毘縁:
      latlng: 35.20069595,133.19344078
      name:
      - 阿毘縁山村広場
    阿毘縁1238番地:
      latlng: 35.21107198,133.20106741
      name:
      - 阿毘縁会館
    霞740-1番地:
      latlng: ''
      name:
      - 日南町立にちなん保育園
    霞740番地:
      latlng: 35.16664064,133.30875219
      name:
      - 日南町立日南中学校
    霞785番地:
      latlng: 35.16407423,133.30684410
      name:
      - 日南町総合文化センター
  日吉津村:
    日吉津1864-1:
      latlng: 35.45260558,133.38825642
      name:
      - 海浜運動公園・キャンプ場
    日吉津872-12:
      latlng: 35.44160386,133.38117966
      name:
      - 日吉津村立日吉津小学校
    日吉津936:
      latlng: 35.44204268,133.37917980
      name:
      - 農業者トレーニングセンター
    日吉津967-2:
      latlng: 35.44269263,133.38069357
      name:
      - 保育所(屋外)
    日吉津970-2:
      latlng: 35.44238710,133.38022416
      name:
      - 児童館(屋外)
    日吉津973-9:
      latlng: 35.44144553,133.38003252
      name:
      - 社会福祉センター
  日野町:
    上菅664-1:
      latlng: ''
      name:
      - 菅福社会体育館
    下榎1183:
      latlng: 35.22974437,133.41878824
      name:
      - 町交流センター
    下榎157-1:
      latlng: ''
      name:
      - 町老人憩の家
    根雨129-1:
      latlng: ''
      name:
      - 町文化センター
    根雨310番地:
      latlng: 35.24185720,133.43969676
      name:
      - 鳥取県立日野高等学校(屋外部分)
    根雨380:
      latlng: ''
      name:
      - 町農業構造改善センター
    津地690:
      latlng: 35.23896569,133.42430661
      name:
      - ひのっこ保育所
    舟場107-1:
      latlng: ''
      name:
      - 町林業総合センター
    野田210:
      latlng: ''
      name:
      - 日野中学校
    野田271:
      latlng: 35.23684107,133.43684726
      name:
      - 根雨小学校(屋外)
    黒坂1247-1:
      latlng: 35.20893771,133.38569796
      name:
      - 老人福祉センター
    黒坂1560-1:
      latlng: 35.20566027,133.38430651
      name:
      - 黒坂小学校(屋外)
  智頭町:
    中原99番地1:
      latlng: 35.23289205,134.28927346
      name:
      - 山郷保育園(屋外部分)
    大背205番地:
      latlng: 35.21190446,134.20492984
      name:
      - 那岐小学校
    大背214番地1:
      latlng: 35.21174336,134.20432990
      name:
      - 那岐保育園(屋外部分)
    智頭1068番地6:
      latlng: ''
      name:
      - 勤労者体育館
    智頭145番地1:
      latlng: ''
      name:
      - ひまわり会館
    智頭1528番地1:
      latlng: ''
      name:
      - あたご保育園(屋外部分)
    智頭2076番地2:
      latlng: 35.26452532,134.22671230
      name:
      - 智頭町総合センター
    智頭688番地:
      latlng: 35.26539745,134.23653907
      name:
      - 智頭中学校(屋外部分)
    智頭728番地5:
      latlng: ''
      name:
      - 智頭町民運動場
    芦津45番地:
      latlng: 35.29332084,134.29934096
      name:
      - 芦津保育園(屋外部分)
    郷原131番地2:
      latlng: ''
      name:
      - 智頭町民体育館
    郷原238番地:
      latlng: 35.26422843,134.27614084
      name:
      - 山形小学校(屋外部分)
    郷原263番地1:
      latlng: 35.26529226,134.27681854
      name:
      - 山形保育園(屋外部分)
  江府町:
    俣野1761番地の2:
      latlng: ''
      name:
      - 尾ノ上原多目的研修集会施設
    俣野1859番地:
      latlng: ''
      name:
      - 日ノ詰多目的研修集会施設
    俣野237番地9:
      latlng: ''
      name:
      - 深山口多目的研修集会施設
    俣野690番地:
      latlng: 35.26742224,133.52117558
      name:
      - 旧俣野小学校
    助沢336番地:
      latlng: ''
      name:
      - 助沢多目的集会施設
    吉原:
      latlng: 35.32950188,133.52013728
      name:
      - 西成公民館(屋外)
      - 袋原公民館(屋外)
    吉原893番地:
      latlng: ''
      name:
      - 吉原活性化施設
    大河原510番地:
      latlng: 35.32322699,133.52303573
      name:
      - 旧江尾小学校米原分校
    大河原990番地ノ1:
      latlng: ''
      name:
      - 大河原集出荷施設
    宮市237番地:
      latlng: ''
      name:
      - 宮市構造改善センター
    小江尾62:
      latlng: 35.28961892,133.48510885
      name:
      - 江府小学校
    御机470番地:
      latlng: 35.32288557,133.55690444
      name:
      - 御机多目的集会施設(集会施設及び旧小学校)
    柿原1351番地:
      latlng: ''
      name:
      - 柿原活性化施設
    武庫36番地2:
      latlng: ''
      name:
      - 一旦多目的研修集会施設
    武庫408番地3:
      latlng: ''
      name:
      - 新道多目的研修集会施設
    武庫550番地1:
      latlng: ''
      name:
      - 武庫多目的研修集会施設
    江尾1714番地:
      latlng: 35.27635088,133.47926775
      name:
      - 江府町立江府中学校(屋外)
    洲河崎62番地:
      latlng: ''
      name:
      - 江府町運動公園
    美用1171番地:
      latlng: ''
      name:
      - 美用地区都市農村交流促進施設
      - 美用広場
    美用2616番地:
      latlng: ''
      name:
      - 小原体験交流施設(屋外)
    美用530番地:
      latlng: 35.29816054,133.52588017
      name:
      - 旧米沢小学校(屋外)
    美用835番地17:
      latlng: ''
      name:
      - 江府町防災基地
    貝田247番地1:
      latlng: ''
      name:
      - 貝田集落センター施設
  湯梨浜町:
    はわい長瀬584:
      latlng: 35.48723955,133.86582549
      name:
      - ハワイアロハホール
    下浅津:
      latlng: 35.48649281,133.88110516
      name:
      - 東郷湖羽合臨海公園(浅津地区)
    中興寺192-1:
      latlng: 35.47199246,133.90586333
      name:
      - 松崎幼稚園
    久見110:
      latlng: 35.46485458,133.91001871
      name:
      - 東郷中学校
    光吉107-1:
      latlng: 35.49189486,133.87865727
      name:
      - 羽合東コミュニティー施設(屋外)
    南谷:
      latlng: 35.49065021,133.88653943
      name:
      - 東郷湖羽合臨海公園(南谷地区)
    園2286-1:
      latlng: 35.50883007,133.92890453
      name:
      - 活性化センターはまなす
    宇谷606-1:
      latlng: 35.50442481,133.92002206
      name:
      - わかば保育所
    宇野:
      latlng: 35.50171116,133.89364828
      name:
      - 東郷湖羽合臨海公園(宇野地区)
    小鹿谷820:
      latlng: 35.46216323,133.90243902
      name:
      - 東郷小学校
    引地565-1:
      latlng: 35.46533479,133.89203442
      name:
      - 東郷湖羽合臨海公園(引地地区)
    松崎619:
      latlng: 35.47658627,133.90379114
      name:
      - 桜コミュニティー施設(屋外)
    泊1085-1:
      latlng: 35.51430753,133.94309765
      name:
      - 保健福祉センターつわぶき荘
    泊1175-7:
      latlng: 35.51420756,133.94378926
      name:
      - あさひ保育所
    泊1313:
      latlng: 35.51628236,133.94545576
      name:
      - とまりグラウンドゴルフのふる里公園多目的広場
    泊280:
      latlng: 35.51254944,133.94501974
      name:
      - 泊小学校(屋内)
      - 泊小学校(屋外)
    泊77:
      latlng: ''
      name:
      - 泊野球場
    田後745:
      latlng: 35.48597000,133.85477119
      name:
      - 北溟中学校(屋外)
    石脇1166番地:
      latlng: 35.51782946,133.94832492
      name:
      - 鳥取県栽培漁業センター(屋外部分)
    藤津650:
      latlng: 35.47762780,133.90384110
      name:
      - 東郷湖羽合臨海公園(藤津地区)
    長和田:
      latlng: 35.46282779,133.88201076
      name:
      - 東郷湖羽合臨海公園(長和田地区)
    長和田506:
      latlng: 35.46519551,133.88006343
      name:
      - 羽衣会館
    長瀬:
      latlng: ''
      name:
      - 東郷湖羽合臨海公園(長瀬地区)
    長瀬1350:
      latlng: ''
      name:
      - 羽合西コミュニティー施設(屋外)
    門田5:
      latlng: 35.45641837,133.86877311
      name:
      - 花見コミュニティー施設(屋外)
  琴浦町:
    下伊勢504番地:
      latlng: 35.49090609,133.69845846
      name:
      - 琴浦町立浦安小学校
    佐崎12番地1:
      latlng: 35.49770442,133.62678913
      name:
      - 琴浦町立成美小学校
    八橋705番地:
      latlng: 35.50102518,133.67574930
      name:
      - 琴浦町立八橋小学校
    古長217番地:
      latlng: 35.42747923,133.66605455
      name:
      - 琴浦町立古布庄小学校
    宮木239番地:
      latlng: 35.46635911,133.63095698
      name:
      - 琴浦町立以西小学校
    山川807番地2:
      latlng: 35.43037060,133.60837701
      name:
      - 鳥取県立船上山少年自然の家(屋外部分)
    徳万236番地:
      latlng: 35.49668044,133.69388366
      name:
      - 琴浦町立東伯中学校
    徳万266番地5:
      latlng: 35.49965223,133.69423345
      name:
      - 生涯学習センター
    松谷564番地2:
      latlng: ''
      name:
      - 赤碕総合運動公園
    田越560番地:
      latlng: 35.49635326,133.68091013
      name:
      - 総合運動公園
    箆津437番地:
      latlng: 35.51265108,133.61596659
      name:
      - 琴浦町立安田小学校
    赤碕1922番地:
      latlng: 35.51486448,133.63056043
      name:
      - 琴浦町立赤碕中学校
    赤碕1957番地1:
      latlng: 35.51583930,133.63473806
      name:
      - 旧鳥取県立赤碕高等学校(屋外部分)
    赤碕264番地2:
      latlng: ''
      name:
      - 琴浦町立赤碕小学校
    釛:
      latlng: 35.47081456,133.69618253
      name:
      - 聖郷運動広場
    釛529番地:
      latlng: 35.47092229,133.69655416
      name:
      - 琴浦町立東伯小学校
  米子市:
    上後藤一丁目1-1:
      latlng: 35.44257824,133.31909749
      name:
      - 米子市立後藤ケ丘中学校(屋外部分)
    上新印238:
      latlng: 35.41071002,133.39036271
      name:
      - 春日保育園(屋外部分)
    上新印238-1:
      latlng: 35.41098777,133.39045158
      name:
      - 春日公民館
    上福原20:
      latlng: 35.44150091,133.36610850
      name:
      - 米子市立福生中学校
    上福原二丁目1-10:
      latlng: 35.44395336,133.35637859
      name:
      - 福生体育館
    上福原五丁目9-30:
      latlng: 35.45109984,133.35324534
      name:
      - 福生西公民館
    下新印1057-2:
      latlng: 35.41514843,133.38929050
      name:
      - 箕蚊屋体育館
    下新印196-4:
      latlng: 35.42093113,133.38786553
      name:
      - 米子市日吉津村中学校組合立箕蚊屋中学校(屋外部分)
    下新印204-2:
      latlng: 35.42220039,133.38530460
      name:
      - 米子市立箕蚊屋小学校(屋外部分)
    両三柳3192-14:
      latlng: 35.46148204,133.32310491
      name:
      - 鳥取県立武道館
    両三柳3305:
      latlng: 35.45542981,133.31781639
      name:
      - 加茂公民館
    両三柳3883:
      latlng: 35.45235787,133.31472216
      name:
      - 米子市立加茂中学校(屋外部分)
    両三柳4610:
      latlng: 35.45988496,133.31906901
      name:
      - 米子市立加茂小学校(屋外部分)
    兼久606-3:
      latlng: 35.40964855,133.36277317
      name:
      - さくら保育園
    勝田町1番地:
      latlng: 35.43290990,133.34416015
      name:
      - 鳥取県立米子東高等学校(屋外部分)
    博労町三丁目41:
      latlng: 35.43329872,133.33965214
      name:
      - 東保育園(屋外部分)
    博労町四丁目290:
      latlng: 35.43694561,133.34067697
      name:
      - 米子市立啓成小学校(屋外部分)
    博労町四丁目364:
      latlng: 35.43599013,133.33802440
      name:
      - 啓成公民館
    夜見町1679-8:
      latlng: 35.46512313,133.29614802
      name:
      - 夜見保育園(屋外部分)
    夜見町3001-8:
      latlng: 35.47040314,133.30063385
      name:
      - 鳥取県立米子高等技術専門校(屋外部分)
    夜見町330-3:
      latlng: 35.45716280,133.29259280
      name:
      - あかしや
    大崎1444:
      latlng: 35.47525772,133.25619395
      name:
      - 崎津保育園(屋外部分)
    大崎2033-1:
      latlng: 35.46818625,133.26751221
      name:
      - 崎津1区集会所
    大崎3244:
      latlng: 35.47674084,133.25844092
      name:
      - 米子市立崎津小学校(屋外部分)
    大篠津町14:
      latlng: 35.49660449,133.26347063
      name:
      - 灘浜集会所
    大篠津町1846-1:
      latlng: 35.49053864,133.25893231
      name:
      - 御崎集会所
    大篠津町190:
      latlng: 35.49057479,133.26073491
      name:
      - 米子市立大篠津小学校(屋外部分)
    大篠津町3657-1:
      latlng: 35.48469517,133.25034441
      name:
      - 米子市立美保中学校(屋外部分)
    大篠津町3657-7:
      latlng: 35.48576719,133.25167758
      name:
      - 美保体育館
    奈喜良81:
      latlng: 35.40193518,133.34743572
      name:
      - 米子市立成実小学校(屋外部分)
    富益町1194:
      latlng: 35.47190841,133.29304561
      name:
      - 米子市立弓ケ浜小学校(屋外部分)
    富益町2070:
      latlng: 35.47179711,133.28203282
      name:
      - 米子市立弓ケ浜中学校(屋外部分)
    富益町4412-72:
      latlng: ''
      name:
      - 富益団地集会所
    富益町4438-1:
      latlng: 35.47026388,133.27710003
      name:
      - 富益新田集会所
    富益町628:
      latlng: 35.47720764,133.28459366
      name:
      - 富益保育園(屋外部分)
    尾高1424-1:
      latlng: 35.42112864,133.40395030
      name:
      - 前田児童館
    尾高1424-11:
      latlng: 35.42130362,133.40382253
      name:
      - 前田隣保館
    尾高1759-1:
      latlng: 35.42196197,133.40817212
      name:
      - 大高公民館
    尾高418-1:
      latlng: 35.41375450,133.40715853
      name:
      - 米子市立伯仙小学校(屋外部分)
    尾高566:
      latlng: 35.41698189,133.40514752
      name:
      - こたか保育園
    彦名町4500-2:
      latlng: 35.45619897,133.29123186
      name:
      - 米子市立彦名小学校(屋外部分)
    彦名町4500-36:
      latlng: 35.45499910,133.29135962
      name:
      - 彦名保育園(屋外部分)
    愛宕町84:
      latlng: 35.42168302,133.33001714
      name:
      - 米子市立湊山中学校(屋外部分)
    愛宕町94:
      latlng: 35.42114420,133.33082264
      name:
      - 米子市立就将小学校(屋外部分)
    旗ヶ崎五丁目17-1:
      latlng: 35.44469746,133.31300322
      name:
      - 米子市立住吉小学校(屋外部分)
    末広町293:
      latlng: 35.42238301,133.33403623
      name:
      - 米子市文化ホール
    末広町294番地:
      latlng: 35.42103590,133.33318079
      name:
      - 米子コンベンションセンター
    東福原8丁目27-1:
      latlng: 35.45277188,133.34840388
      name:
      - 鳥取県立米子産業体育館
    東福原五丁目7-1:
      latlng: 35.44526707,133.34452096
      name:
      - 米子市立福米東小学校(屋外部分)
    榎原1449-4:
      latlng: 35.40014400,133.36145969
      name:
      - 南部体育館
    榎原1897:
      latlng: 35.39812477,133.36096814
      name:
      - 米子市立尚徳小学校
    橋本30番地1:
      latlng: 35.40038826,133.35352976
      name:
      - 鳥取県立米子高等学校(屋外部分)
    永江502-4:
      latlng: 35.39606122,133.36843702
      name:
      - 永江公民館
    河岡5:
      latlng: 35.40315011,133.40941966
      name:
      - 県公民館
    河崎2677:
      latlng: 35.45586586,133.30377806
      name:
      - 米子市立河崎小学校(屋外部分)
    淀江町中西尾224-2:
      latlng: 35.44021590,133.43252161
      name:
      - 宇田川保育園(屋外部分)
    淀江町中間536-2:
      latlng: ''
      name:
      - 大和保育園
    淀江町淀江480-3:
      latlng: 35.45901928,133.43093200
      name:
      - 淀江保育園(屋外部分)
    淀江町西原1129-1:
      latlng: 35.45308095,133.41939190
      name:
      - 米子市淀江支所
    淀江町西原244-2:
      latlng: 35.45088957,133.42246111
      name:
      - 米子市立淀江小学校(屋外部分)
    淀江町西原660:
      latlng: 35.45305042,133.42142778
      name:
      - 米子市立淀江中学校(屋外部分)
    皆生五丁目18-32:
      latlng: 35.44803630,133.36037275
      name:
      - 米子市立福生東小学校(屋外部分)
    皆生四丁目8-35:
      latlng: 35.44854460,133.36190874
      name:
      - 福生東公民館
    皆生新田二丁目10-1:
      latlng: 35.45124160,133.36812210
      name:
      - 心身障害者福祉センター
    皆生温泉三丁目1-1:
      latlng: 35.45630216,133.36180301
      name:
      - 米子市観光センター
    福万199-1:
      latlng: 35.40277782,133.40412562
      name:
      - 下福万隣保館
    福万363-4:
      latlng: 35.40309733,133.40877249
      name:
      - あがた保育園(屋外部分)
    糀町一丁目202:
      latlng: 35.42864080,133.33902176
      name:
      - 米子市営武道館
    義方町九丁目20:
      latlng: 35.43897026,133.32313912
      name:
      - 米子市立義方小学校(屋外部分)
    蚊屋291-1:
      latlng: 35.42708874,133.38376297
      name:
      - 巌公民館
    西福原1636:
      latlng: ''
      name:
      - 米子市立福米中学校
    西福原八丁目16-62:
      latlng: 35.45389119,133.34243471
      name:
      - 米子市立福米西小学校(屋外部分)
    西福原六丁目2-20:
      latlng: 35.44704466,133.34215994
      name:
      - 福米東公民館
    角盤町二丁目61:
      latlng: 35.43294313,133.33290819
      name:
      - 米子市公会堂(屋外部分)
    諏訪1695:
      latlng: 35.39699458,133.37735010
      name:
      - 米子市立五千石小学校(屋外部分)
    車尾617:
      latlng: 35.42719943,133.35493439
      name:
      - 米子市立東山中学校(屋外部分)
    車尾二丁目27-1:
      latlng: 35.43192677,133.35690918
      name:
      - 米子市立車尾小学校(屋外部分)
    車尾二丁目28-20:
      latlng: 35.43262116,133.35795910
      name:
      - 車尾公民館
    錦町一丁目139-3:
      latlng: 35.43581510,133.33346639
      name:
      - 米子市福祉保健総合センター
    錦町三丁目77:
      latlng: 35.43888701,133.32930820
      name:
      - ねむの木保育園(屋外部分)
    錦町三丁目92-7:
      latlng: 35.43957026,133.32787770
      name:
      - 西保育園(屋外部分)
    長砂町216番地:
      latlng: 35.42311366,133.35028489
      name:
      - 鳥取県立米子南高等学校(屋外部分)
    陽田町45:
      latlng: 35.42676327,133.34705451
      name:
      - 南保育園(屋外部分)
    陽田町74-2:
      latlng: 35.42649664,133.34822387
      name:
      - 米子市立明道小学校
  若桜町:
    中原326:
      latlng: 35.29291584,134.44213577
      name:
      - 池田小学校
    中原359-1:
      latlng: 35.29326030,134.44377174
      name:
      - 若桜公民館中原分館(屋外)
    中原373-1:
      latlng: 35.29277984,134.44507998
      name:
      - 若桜保育所中原分所(屋外)
    浅井289:
      latlng: 35.33553414,134.40510480
      name:
      - 若桜中学校
    若桜1247-1:
      latlng: 35.34823011,134.39299995
      name:
      - 若桜町地域福祉センター
    若桜501:
      latlng: 35.34392223,134.39584704
      name:
      - 若桜小学校(屋外)
    若桜735-1:
      latlng: ''
      name:
      - 若桜保育所(屋外)
    若桜751:
      latlng: 35.34223350,134.39689423
      name:
      - わかさ生涯学習情報館
    若桜757:
      latlng: 35.34182521,134.39721089
      name:
      - 山村開発センター(屋外)
    若桜784:
      latlng: ''
      name:
      - 若桜町ふれあい広場
    若桜788-3:
      latlng: 35.34067531,134.39903299
      name:
      - 若桜町民体育館(屋外)
    若桜991-1:
      latlng: ''
      name:
      - 若桜町中之島公園
    高野113-1:
      latlng: 35.35628187,134.37852604
      name:
      - 高野隣保館(屋外)
  鳥取市:
    下味野1058-2:
      latlng: 35.46784938,134.20752006
      name:
      - 下味野児童館
    下味野1058-3:
      latlng: 35.46814657,134.20757004
      name:
      - 江山人権福祉センター
    中大路49-1:
      latlng: 35.46604754,134.23784494
      name:
      - よねさと保育園
    中砂見936:
      latlng: 35.41677892,134.16617291
      name:
      - 鳥取市立神戸小学校
    丸山町310-1:
      latlng: 35.51962115,134.22658882
      name:
      - 城北体育館
    伏野1729-5:
      latlng: 35.52504112,134.14979572
      name:
      - 鳥取県立福祉人材研修センター
    伏野1986-9:
      latlng: 35.52596840,134.13351668
      name:
      - 末恒体育館
    伏野2256-61:
      latlng: 35.52597121,134.13539428
      name:
      - 鳥取市立末恒小学校(屋外)
    倭文121-2:
      latlng: 35.44607666,134.20227123
      name:
      - 大和体育館
    倭文65:
      latlng: 35.44696822,134.20178791
      name:
      - 鳥取市立江山中学校
    倭文742-3:
      latlng: 35.44252435,134.20522106
      name:
      - 倭文児童館
    八坂169-1:
      latlng: 35.45185421,134.21867225
      name:
      - 倉田保育園
    八坂365-2:
      latlng: 35.45112647,134.21739740
      name:
      - 倉田地区公民館
    八坂49-1:
      latlng: ''
      name:
      - 倉田体育館
    八坂54-1:
      latlng: 35.45035985,134.21576148
      name:
      - 鳥取市立倉田小学校
    六反田1-5:
      latlng: 35.48827874,134.13063462
      name:
      - 鳥取市立湖南小学校
    円護寺268:
      latlng: 35.51905482,134.23673515
      name:
      - 鳥取市立中ノ郷小学校
    北村32-1:
      latlng: 35.47880612,134.19309884
      name:
      - 東郷体育館
    卯垣2丁目657:
      latlng: 35.49098049,134.25129592
      name:
      - 鳥取市立稲葉山小学校
    卯垣5丁目57:
      latlng: 35.49179713,134.25697040
      name:
      - 稲葉山地区公民館
      - 稲葉山体育館
    古海291-3:
      latlng: 35.49450444,134.20811639
      name:
      - 鳥取市立大正小学校
    古海556:
      latlng: 35.49402393,134.20740814
      name:
      - 大正地区公民館
    古海708-1:
      latlng: 35.50109802,134.20906329
      name:
      - 大正体育館
    古海718-9:
      latlng: ''
      name:
      - 古海児童館
    古郡家75-1:
      latlng: 35.45985652,134.23847561
      name:
      - 鳥取市立米里小学校(屋外)
    古郡家81-4:
      latlng: 35.45945933,134.23758959
      name:
      - 米里体育館
    叶286:
      latlng: 35.47330742,134.22070750
      name:
      - 美保南地区公民館
    叶286-12:
      latlng: 35.47392679,134.22084636
      name:
      - 美保南体育館
    吉岡温泉町789-1:
      latlng: 35.48468469,134.12877656
      name:
      - 鳥取市立湖南中学校
    吉岡温泉町894-14:
      latlng: 35.48762884,134.13146789
      name:
      - 湖南地区公民館
    吉成1丁目10-25:
      latlng: 35.48433107,134.22373745
      name:
      - 鳥取市立美保小学校(屋外)
    吉成2丁目5-22:
      latlng: 35.48563925,134.22485675
      name:
      - 美保地区公民館
    吉方温泉一丁目131:
      latlng: 35.49604081,134.23368896
      name:
      - 鳥取市立日進小学校
      - 日進地区公民館
    吉方温泉町一丁目322:
      latlng: ''
      name:
      - わかば保育園
    吉方町一丁目201:
      latlng: 35.49529372,134.23987179
      name:
      - 修立地区公民館
    国府町宮下1226番地:
      latlng: ''
      name:
      - 鳥取市国府町いなば公園
    国府町宮下1260番地:
      latlng: 35.48010416,134.25932610
      name:
      - 鳥取県埋蔵文化財センター
    国府町庁380番地:
      latlng: 35.47251632,134.27386403
      name:
      - 国府町中央公民館
    国府町新通り2丁目367番地:
      latlng: ''
      name:
      - 鳥取市国府町新通り公園
    国府町栃本27番地1:
      latlng: ''
      name:
      - 鳥取市立栃本児童館(休館)
    国府町町屋720番地:
      latlng: 35.47333845,134.27487503
      name:
      - 鳥取市立国府中学校
    国府町町屋723番地:
      latlng: ''
      name:
      - 国府町運動場
    国府町町屋725番地:
      latlng: 35.47339125,134.27653321
      name:
      - 国府町民体育館
    国府町糸谷15番地1:
      latlng: 35.46444266,134.29604833
      name:
      - 鳥取市国府地区保健センター
    国府町谷3番地:
      latlng: 35.46069035,134.29664279
      name:
      - 鳥取市立国府東小学校
    天神町50-2:
      latlng: 35.49166617,134.22138190
      name:
      - 鳥取県立鳥取産業体育館
    宮長200-1:
      latlng: 35.47896509,134.22255716
      name:
      - 鳥取市立美保南小学校
    寿町501:
      latlng: 35.50435907,134.22604495
      name:
      - みたから保育園
    寿町907:
      latlng: 35.50607274,134.22552827
      name:
      - 鳥取市立西中学校
    尚徳町101番地:
      latlng: 35.50268170,134.23714678
      name:
      - 鳥取県立図書館
    尚徳町101番地5:
      latlng: 35.50180403,134.23710237
      name:
      - 鳥取県立県民文化会館
    布勢146-1番地:
      latlng: 35.49966726,134.18239348
      name:
      - 布勢総合運動公園
    布勢91-1:
      latlng: 35.50335289,134.18168509
      name:
      - 松保保育園
    徳尾108-1:
      latlng: 35.50234224,134.20541358
      name:
      - 鳥取市立高草中学校
    徳尾407:
      latlng: 35.50251711,134.19803646
      name:
      - 鳥取市立世紀小学校(屋外)
    本町一丁目108-1:
      latlng: 35.50132070,134.23293331
      name:
      - 鳥取市立遷喬小学校
    本町一丁目109:
      latlng: 35.50119572,134.23314718
      name:
      - 遷喬地区公民館
    東町三丁目371-1:
      latlng: 35.50928923,134.23490509
      name:
      - 鳥取市立北中学校
    東町二丁目124番地:
      latlng: 35.50834214,134.23612446
      name:
      - 鳥取県立博物館(屋外部分)
    東町二丁目201:
      latlng: 35.50600630,134.23641340
      name:
      - 鳥取市立久松小学校
    松原419-2:
      latlng: 35.48728999,134.13166233
      name:
      - 湖南保育園
    松原427-14:
      latlng: 35.48630124,134.13286502
      name:
      - 湖南児童館
    桂木238-1:
      latlng: 35.45937050,134.25043842
      name:
      - 鳥取市立津ノ井小学校
    桂木307-11:
      latlng: 35.45587366,134.24925525
      name:
      - 津ノ井体育館
    桂見293番地:
      latlng: ''
      name:
      - とっとり出合いの森
    桜谷162-6:
      latlng: 35.47071920,134.24654962
      name:
      - 面影地区公民館
    桜谷227:
      latlng: 35.46994707,134.24855502
      name:
      - 鳥取市立桜ヶ丘中学校(屋外)
    気高町下坂本48番地:
      latlng: 35.49286272,134.06913451
      name:
      - 鳥取市立瑞穂小学校
    気高町八束水2706番地147:
      latlng: 35.51935817,134.02036305
      name:
      - 気高町遊漁センター
    気高町宝木989番地:
      latlng: 35.51294671,134.08106908
      name:
      - 鳥取市立宝木小学校
    気高町山宮369番地2:
      latlng: 35.48103847,134.03854587
      name:
      - 鳥取市立逢坂小学校
    気高町浜村233番地の2:
      latlng: 35.51136273,134.05635442
      name:
      - 気高町農業者トレーニングセンター
    江津730:
      latlng: 35.52275651,134.21200392
      name:
      - 千代保育園
    河原町佐貫761-5:
      latlng: 35.37644583,134.19818191
      name:
      - 鳥取市立散岐小学校体育館
    河原町曳田20-1:
      latlng: 35.39451021,134.19977850
      name:
      - 河原町総合体育館
    河原町牛戸14-1:
      latlng: 35.37996067,134.16479575
      name:
      - 鳥取市立西郷小学校体育館
    浜坂1157-1:
      latlng: 35.53406664,134.22408024
      name:
      - 鳥取砂丘こどもの国
    浜坂1丁目14-1:
      latlng: 35.52952532,134.21750042
      name:
      - 鳥取市立浜坂小学校(屋外)
    浜坂2丁目9-10:
      latlng: 35.52903633,134.21150930
      name:
      - 浜坂体育館
    湖山町北6丁目323:
      latlng: 35.51987300,134.18246503
      name:
      - 鳥取市立湖東中学校
    湖山町北三丁目250番地:
      latlng: ''
      name:
      - 鳥取県立鳥取湖陵高等学校(屋外部分)
    湖山町南1丁目656:
      latlng: 35.51617616,134.17737117
      name:
      - 鳥取市立湖山小学校(屋外)
    湖山町南1丁目825:
      latlng: 35.51492077,134.17749064
      name:
      - 湖山保育園
    湖山町南三丁目848:
      latlng: 35.50882711,134.17734085
      name:
      - 鳥取県立鳥取緑風高等学校(屋外部分)
    湖山町西1丁目512:
      latlng: 35.52179197,134.16945506
      name:
      - 湖山西地区公民館
      - 湖山西体育館
    湖山町西1丁目541:
      latlng: 35.52212807,134.17061050
      name:
      - 鳥取市立湖山西小学校
    源太12番地:
      latlng: ''
      name:
      - 旧鳥取県立鳥取湖陵高等学校美和分校(屋外部分)
    生山111番地:
      latlng: ''
      name:
      - 鳥取県立鳥取工業高等学校(屋外部分)
    用瀬町別府96-2:
      latlng: 35.34118939,134.19868191
      name:
      - 用瀬地区保健センター
    用瀬町大字安蔵887-1:
      latlng: 35.31511478,134.19423321
      name:
      - 社保育園
    用瀬町大字赤波:
      latlng: 35.33226423,134.24267223
      name:
      - 赤波多目的集会所
    用瀬町用瀬253:
      latlng: 35.34208674,134.20531485
      name:
      - 用瀬地区公民館
    用瀬町用瀬75-1:
      latlng: 35.33647066,134.20145947
      name:
      - 鳥取市立用瀬小学校
    用瀬町用瀬832:
      latlng: 35.34280895,134.20745638
      name:
      - 用瀬町総合支所
    田園町4丁目324:
      latlng: 35.51522987,134.22180052
      name:
      - 鳥取市立城北小学校
    福部町高江172-1:
      latlng: ''
      name:
      - 鳥取市立福部小学校
    秋里422:
      latlng: 35.51729316,134.20820446
      name:
      - 千代水体育館
    秋里423:
      latlng: 35.51713207,134.20828501
      name:
      - 千代水地区公民館
    立川町6丁目164:
      latlng: 35.48636999,134.25088774
      name:
      - 鳥取市立東中学校
      - 岩倉体育館
    立川町7丁目110:
      latlng: 35.48312876,134.25504859
      name:
      - 鳥取市立岩倉小学校
    立川町五丁目210番地:
      latlng: ''
      name:
      - 鳥取県立鳥取東高等学校(屋外部分)
    立川町五丁目339:
      latlng: 35.48881127,134.24299114
      name:
      - 鳥取市立修立小学校(屋外)
    竹生64:
      latlng: 35.45414249,134.20389304
      name:
      - 鳥取市立美和小学校
    篠坂6-1:
      latlng: 35.46966252,134.18473321
      name:
      - 鳥取市立東郷小学校
    興南町91:
      latlng: 35.48716970,134.23025899
      name:
      - 鳥取市立南中学校(屋外)
    若葉台南2丁目16-1:
      latlng: 35.44823565,134.26353744
      name:
      - 若葉台地区公民館
      - 若葉台体育館
    若葉台南2丁目17-1:
      latlng: 35.44732184,134.26150984
      name:
      - 鳥取市立若葉台小学校
    若葉台南2丁目205-2:
      latlng: 35.44754962,134.26388187
      name:
      - わかば台保育園
    蔵田423:
      latlng: 35.45820637,134.22098293
      name:
      - 鳥取市営サッカー場「とりぎんバードスタジアム」
    行徳3丁目705:
      latlng: 35.50195648,134.22065386
      name:
      - 富桑地区公民館
    行徳一丁目201-3:
      latlng: 35.49666277,134.22277050
      name:
      - 鳥取市立明徳小学校
    行徳一丁目210-2:
      latlng: 35.49730986,134.22065123
      name:
      - 明徳地区公民館
    西円通寺104-3:
      latlng: 35.43324212,134.20865711
      name:
      - 西円通寺児童館
    西品治134:
      latlng: 35.50436448,134.21952333
      name:
      - 鳥取市立富桑小学校
    西品治283-1:
      latlng: 35.50611698,134.21737624
      name:
      - 富桑体育館
    西町三丁目202番地:
      latlng: ''
      name:
      - 鳥取県立童謡館・鳥取世界おもちゃ館(わらべ館)
    西町五丁目353:
      latlng: 35.50596455,134.23168605
      name:
      - 鳥取市立醇風小学校
    西町五丁目353-1:
      latlng: 35.50644227,134.23154716
      name:
      - 醇風地区公民館
    覚寺118:
      latlng: 35.51888814,134.23533806
      name:
      - 中ノ郷地区公民館
    賀露町778:
      latlng: 35.53059137,134.19621061
      name:
      - 鳥取市立賀露小学校
    里仁560-1:
      latlng: 35.50048387,134.18519043
      name:
      - 松保体育館
    野坂927:
      latlng: 35.48418022,134.17625839
      name:
      - 豊実体育館
    野坂950:
      latlng: 35.48456073,134.17582785
      name:
      - 豊実地区公民館
    金沢16-2:
      latlng: 35.49860252,134.13321743
      name:
      - 湖南体育館
    雲山42:
      latlng: 35.48120672,134.24033601
      name:
      - 鳥取市立面影小学校
    青谷町青谷2912番地:
      latlng: 35.52222678,134.00032578
      name:
      - 鳥取県立青谷高等学校(屋外部分)
    面影1丁目8-16:
      latlng: 35.47855154,134.24638555
      name:
      - 白ゆり保育園
    鹿野町鹿野2888:
      latlng: 35.46068856,134.05564220
      name:
      - 鳥取市立鹿野小学校
    鹿野町鹿野342:
      latlng: 35.46287459,134.06892434
      name:
      - 鹿野町農業者トレーニングセンター
